{
"type": "FeatureCollection",
"crs": { "type": "name", "properties": { "name": "urn:ogc:def:crs:OGC:1.3:CRS84" } },
"features": [
{ "type": "Feature", "properties": { "name": "セブンイレブン AIM三井物産ビル店", "lat": 35.6876366, "lon": 139.7623328 }, "geometry": { "type": "Point", "coordinates": [ 139.7623328, 35.6876366 ] } },
{ "type": "Feature", "properties": { "name": "NewDays KIOSK 東京駅総武地下4階", "lat": 35.6817646, "lon": 139.7689006 }, "geometry": { "type": "Point", "coordinates": [ 139.7689006, 35.6817646 ] } },
{ "type": "Feature", "properties": { "name": "セブンイレブン 衆議院第一議員会館店", "lat": 35.67465, "lon": 139.7427389 }, "geometry": { "type": "Point", "coordinates": [ 139.7427389, 35.67465 ] } },
{ "type": "Feature", "properties": { "name": "NewDays グランスタ丸の内北口", "lat": 35.6817646, "lon": 139.7689006 }, "geometry": { "type": "Point", "coordinates": [ 139.7689006, 35.6817646 ] } },
{ "type": "Feature", "properties": { "name": "ナチュラルローソン 大手町メトロピア店", "lat": 35.6853494, "lon": 139.7632784 }, "geometry": { "type": "Point", "coordinates": [ 139.7632784, 35.6853494 ] } },
{ "type": "Feature", "properties": { "name": "NewDays KIOSK 東京駅新幹線ホーム6D", "lat": 35.6817646, "lon": 139.7689006 }, "geometry": { "type": "Point", "coordinates": [ 139.7689006, 35.6817646 ] } },
{ "type": "Feature", "properties": { "name": "ローソン 神保町メトロピア店", "lat": 35.6959319, "lon": 139.7576272 }, "geometry": { "type": "Point", "coordinates": [ 139.7576272, 35.6959319 ] } },
{ "type": "Feature", "properties": { "name": "セブンイレブン 常盤橋タワー3F店", "lat": 35.684209, "lon": 139.7706516 }, "geometry": { "type": "Point", "coordinates": [ 139.7706516, 35.684209 ] } },
{ "type": "Feature", "properties": { "name": "NewDays グランスタ八重洲地下南", "lat": 35.6817646, "lon": 139.7689006 }, "geometry": { "type": "Point", "coordinates": [ 139.7689006, 35.6817646 ] } },
{ "type": "Feature", "properties": { "name": "セブンイレブン 千代田三番町店", "lat": 35.68946, "lon": 139.7452298 }, "geometry": { "type": "Point", "coordinates": [ 139.7452298, 35.68946 ] } },
{ "type": "Feature", "properties": { "name": "セブンイレブン Otemachi One タワ店", "lat": 35.6876366, "lon": 139.7623328 }, "geometry": { "type": "Point", "coordinates": [ 139.7623328, 35.6876366 ] } },
{ "type": "Feature", "properties": { "name": "セブンイレブン 九段南大妻通り店", "lat": 35.6922539, "lon": 139.7434717 }, "geometry": { "type": "Point", "coordinates": [ 139.743471699999986, 35.6922539 ] } },
{ "type": "Feature", "properties": { "name": "ローソン 丸の内パークビル店", "lat": 35.6785178, "lon": 139.7627684 }, "geometry": { "type": "Point", "coordinates": [ 139.7627684, 35.6785178 ] } },
{ "type": "Feature", "properties": { "name": "生活彩家弁護士会館店", "lat": 35.6743187, "lon": 139.7536284 }, "geometry": { "type": "Point", "coordinates": [ 139.7536284, 35.6743187 ] } },
{ "type": "Feature", "properties": { "name": "ローソン 神田駅東口店", "lat": 35.6915305, "lon": 139.7714622 }, "geometry": { "type": "Point", "coordinates": [ 139.7714622, 35.6915305 ] } },
{ "type": "Feature", "properties": { "name": "セブンイレブン リクルートサウスタワー店", "lat": 35.6816113, "lon": 139.7689686 }, "geometry": { "type": "Point", "coordinates": [ 139.7689686, 35.6816113 ] } },
{ "type": "Feature", "properties": { "name": "セブンイレブン 丸の内二重橋ビル店", "lat": 35.6780968, "lon": 139.7611527 }, "geometry": { "type": "Point", "coordinates": [ 139.7611527, 35.6780968 ] } },
{ "type": "Feature", "properties": { "name": "セブンイレブン 丸の内東京ビル店", "lat": 35.6790638, "lon": 139.7649554 }, "geometry": { "type": "Point", "coordinates": [ 139.7649554, 35.6790638 ] } },
{ "type": "Feature", "properties": { "name": "セブンイレブン 新丸ビル店", "lat": 35.6825868, "lon": 139.7644093 }, "geometry": { "type": "Point", "coordinates": [ 139.764409300000011, 35.6825868 ] } },
{ "type": "Feature", "properties": { "name": "ミニストップ 神田錦町1丁目店", "lat": 35.6923026, "lon": 139.7644949 }, "geometry": { "type": "Point", "coordinates": [ 139.764494899999988, 35.6923026 ] } },
{ "type": "Feature", "properties": { "name": "セブンイレブン 神田駅北口店", "lat": 35.6918201, "lon": 139.7707487 }, "geometry": { "type": "Point", "coordinates": [ 139.770748700000013, 35.6918201 ] } },
{ "type": "Feature", "properties": { "name": "セブンイレブン 丸の内パレスビル店", "lat": 35.6845001, "lon": 139.7612211 }, "geometry": { "type": "Point", "coordinates": [ 139.7612211, 35.6845001 ] } },
{ "type": "Feature", "properties": { "name": "セブンイレブン ヤエチカ店", "lat": 35.6802643, "lon": 139.7693083 }, "geometry": { "type": "Point", "coordinates": [ 139.7693083, 35.6802643 ] } },
{ "type": "Feature", "properties": { "name": "ファミリーマート 神田鍛冶町店", "lat": 35.6904542, "lon": 139.7710743 }, "geometry": { "type": "Point", "coordinates": [ 139.7710743, 35.6904542 ] } },
{ "type": "Feature", "properties": { "name": "ローソン 末広町駅前店", "lat": 35.7032459, "lon": 139.7714779 }, "geometry": { "type": "Point", "coordinates": [ 139.7714779, 35.7032459 ] } },
{ "type": "Feature", "properties": { "name": "ファミリーマート 丸の内トラストタワー店", "lat": 35.6832253, "lon": 139.7697606 }, "geometry": { "type": "Point", "coordinates": [ 139.769760600000012, 35.6832253 ] } },
{ "type": "Feature", "properties": { "name": "ファミリーマート 紀尾井町ビル店", "lat": 35.6822349, "lon": 139.7368032 }, "geometry": { "type": "Point", "coordinates": [ 139.7368032, 35.6822349 ] } },
{ "type": "Feature", "properties": { "name": "ファミリーマート ガーデンコート店", "lat": 35.6810328, "lon": 139.7340679 }, "geometry": { "type": "Point", "coordinates": [ 139.734067900000014, 35.6810328 ] } },
{ "type": "Feature", "properties": { "name": "ナチュラルローソン NL日比谷メトロピア店", "lat": 35.6748881, "lon": 139.7595952 }, "geometry": { "type": "Point", "coordinates": [ 139.7595952, 35.6748881 ] } },
{ "type": "Feature", "properties": { "name": "ファミリーマート ファミマサピアタワー\/S店", "lat": 35.6837178, "lon": 139.7686113 }, "geometry": { "type": "Point", "coordinates": [ 139.7686113, 35.6837178 ] } },
{ "type": "Feature", "properties": { "name": "NewDays 水道橋西口", "lat": 35.7018944, "lon": 139.7547968 }, "geometry": { "type": "Point", "coordinates": [ 139.7547968, 35.7018944 ] } },
{ "type": "Feature", "properties": { "name": "ファミリーマート 麹町駅前店", "lat": 35.684827, "lon": 139.7372343 }, "geometry": { "type": "Point", "coordinates": [ 139.737234300000011, 35.684827 ] } },
{ "type": "Feature", "properties": { "name": "ナチュラルローソン NL新霞が関ビル店", "lat": 35.6719446, "lon": 139.7464795 }, "geometry": { "type": "Point", "coordinates": [ 139.7464795, 35.6719446 ] } },
{ "type": "Feature", "properties": { "name": "ローソン TEKKO avenue店", "lat": 35.6830017, "lon": 139.7702356 }, "geometry": { "type": "Point", "coordinates": [ 139.7702356, 35.6830017 ] } },
{ "type": "Feature", "properties": { "name": "ローソン 内幸町一丁目店", "lat": 35.6694365, "lon": 139.7569856 }, "geometry": { "type": "Point", "coordinates": [ 139.7569856, 35.6694365 ] } },
{ "type": "Feature", "properties": { "name": "ファミリーマート ファミマ霞が関ビルディング店", "lat": 35.671183, "lon": 139.7472406 }, "geometry": { "type": "Point", "coordinates": [ 139.7472406, 35.671183 ] } },
{ "type": "Feature", "properties": { "name": "ファミリーマート ファミマ大手町パークビル店", "lat": 35.6898953, "lon": 139.7604411 }, "geometry": { "type": "Point", "coordinates": [ 139.7604411, 35.6898953 ] } },
{ "type": "Feature", "properties": { "name": "セブンイレブン 北の丸スクエア店", "lat": 35.6957677, "lon": 139.7505941 }, "geometry": { "type": "Point", "coordinates": [ 139.7505941, 35.6957677 ] } },
{ "type": "Feature", "properties": { "name": "セブンイレブン 神田小川町3丁目店", "lat": 35.6949667, "lon": 139.7616752 }, "geometry": { "type": "Point", "coordinates": [ 139.761675200000013, 35.6949667 ] } },
{ "type": "Feature", "properties": { "name": "セブンイレブン 神田小川町2丁目店", "lat": 35.6951498, "lon": 139.7638535 }, "geometry": { "type": "Point", "coordinates": [ 139.76385350000001, 35.6951498 ] } },
{ "type": "Feature", "properties": { "name": "ファミリーマート 外神田四丁目店", "lat": 35.7019661, "lon": 139.7719078 }, "geometry": { "type": "Point", "coordinates": [ 139.7719078, 35.7019661 ] } },
{ "type": "Feature", "properties": { "name": "ファミリーマート 神田駅東口店", "lat": 35.6921581, "lon": 139.7717774 }, "geometry": { "type": "Point", "coordinates": [ 139.7717774, 35.6921581 ] } },
{ "type": "Feature", "properties": { "name": "ファミリーマート 六番町日テレ前店", "lat": 35.6877741, "lon": 139.7353608 }, "geometry": { "type": "Point", "coordinates": [ 139.7353608, 35.6877741 ] } },
{ "type": "Feature", "properties": { "name": "セブンイレブン 大手町カンファレンスセンター店", "lat": 35.6886625, "lon": 139.7635533 }, "geometry": { "type": "Point", "coordinates": [ 139.763553300000012, 35.6886625 ] } },
{ "type": "Feature", "properties": { "name": "NewDaysミニ 丸地下2A", "lat": 35.6817646, "lon": 139.7689006 }, "geometry": { "type": "Point", "coordinates": [ 139.7689006, 35.6817646 ] } },
{ "type": "Feature", "properties": { "name": "ローソン KITTE丸の内店", "lat": 35.6790639, "lon": 139.764569 }, "geometry": { "type": "Point", "coordinates": [ 139.764569, 35.6790639 ] } },
{ "type": "Feature", "properties": { "name": "セブンイレブン 日比谷パークフロント店", "lat": 35.6708123, "lon": 139.7536053 }, "geometry": { "type": "Point", "coordinates": [ 139.7536053, 35.6708123 ] } },
{ "type": "Feature", "properties": { "name": "セブンイレブン 丸の内センタービル店", "lat": 35.68415, "lon": 139.765755 }, "geometry": { "type": "Point", "coordinates": [ 139.765755, 35.68415 ] } },
{ "type": "Feature", "properties": { "name": "ナチュラルローソン 大手町西メトロピア店", "lat": 35.6853494, "lon": 139.7632784 }, "geometry": { "type": "Point", "coordinates": [ 139.7632784, 35.6853494 ] } },
{ "type": "Feature", "properties": { "name": "ローソン 大手センタービル店", "lat": 35.6857056, "lon": 139.7629362 }, "geometry": { "type": "Point", "coordinates": [ 139.762936200000013, 35.6857056 ] } },
{ "type": "Feature", "properties": { "name": "セブンイレブン 新丸ビルフロアナイン店", "lat": 35.6825868, "lon": 139.7644093 }, "geometry": { "type": "Point", "coordinates": [ 139.764409300000011, 35.6825868 ] } },
{ "type": "Feature", "properties": { "name": "セブンイレブン 日比谷駅前店", "lat": 35.6738981, "lon": 139.7606757 }, "geometry": { "type": "Point", "coordinates": [ 139.7606757, 35.6738981 ] } },
{ "type": "Feature", "properties": { "name": "ローソン H新大手町ビル店", "lat": 35.6850064, "lon": 139.767045 }, "geometry": { "type": "Point", "coordinates": [ 139.767045, 35.6850064 ] } },
{ "type": "Feature", "properties": { "name": "セブンイレブン 秋葉原駅前店", "lat": 35.6979939, "lon": 139.7752336 }, "geometry": { "type": "Point", "coordinates": [ 139.7752336, 35.6979939 ] } },
{ "type": "Feature", "properties": { "name": "ファミリーマート 神田駅北口店", "lat": 35.6927387, "lon": 139.7709376 }, "geometry": { "type": "Point", "coordinates": [ 139.7709376, 35.6927387 ] } },
{ "type": "Feature", "properties": { "name": "ミニストップ 神田美土代町店", "lat": 35.6937316, "lon": 139.7656244 }, "geometry": { "type": "Point", "coordinates": [ 139.7656244, 35.6937316 ] } },
{ "type": "Feature", "properties": { "name": "セブンイレブン 麹町5丁目店", "lat": 35.6898239, "lon": 139.7360037 }, "geometry": { "type": "Point", "coordinates": [ 139.7360037, 35.6898239 ] } },
{ "type": "Feature", "properties": { "name": "セブンイレブン 神田須田町中央通り店", "lat": 35.6955151, "lon": 139.7706939 }, "geometry": { "type": "Point", "coordinates": [ 139.7706939, 35.6955151 ] } },
{ "type": "Feature", "properties": { "name": "セブンイレブン 千代田平河町1丁目店", "lat": 35.6827071, "lon": 139.7415919 }, "geometry": { "type": "Point", "coordinates": [ 139.7415919, 35.6827071 ] } },
{ "type": "Feature", "properties": { "name": "セブンイレブン 東京ミッドタウン日比谷店", "lat": 35.6740974, "lon": 139.7595307 }, "geometry": { "type": "Point", "coordinates": [ 139.7595307, 35.6740974 ] } },
{ "type": "Feature", "properties": { "name": "ミニストップ 神田鍛冶町店", "lat": 35.691171, "lon": 139.7734701 }, "geometry": { "type": "Point", "coordinates": [ 139.7734701, 35.691171 ] } },
{ "type": "Feature", "properties": { "name": "ローソン メトロス飯田橋店", "lat": 35.7020837, "lon": 139.7450232 }, "geometry": { "type": "Point", "coordinates": [ 139.7450232, 35.7020837 ] } },
{ "type": "Feature", "properties": { "name": "ローソンサテライト JPタワー6F店", "lat": 35.6798453, "lon": 139.7647288 }, "geometry": { "type": "Point", "coordinates": [ 139.7647288, 35.6798453 ] } },
{ "type": "Feature", "properties": { "name": "ファミリーマート 参議院\/S店", "lat": 35.6717816, "lon": 139.7418364 }, "geometry": { "type": "Point", "coordinates": [ 139.741836400000011, 35.6717816 ] } },
{ "type": "Feature", "properties": { "name": "ファミリーマート 紀尾井町三番地店", "lat": 35.6828352, "lon": 139.7380653 }, "geometry": { "type": "Point", "coordinates": [ 139.738065299999988, 35.6828352 ] } },
{ "type": "Feature", "properties": { "name": "セブンイレブン 千代田一番町店", "lat": 35.6880031, "lon": 139.7425414 }, "geometry": { "type": "Point", "coordinates": [ 139.7425414, 35.6880031 ] } },
{ "type": "Feature", "properties": { "name": "セブンイレブン 麹町駅前店", "lat": 35.6862771, "lon": 139.7365026 }, "geometry": { "type": "Point", "coordinates": [ 139.7365026, 35.6862771 ] } },
{ "type": "Feature", "properties": { "name": "ファミリーマート 麹町一丁目店", "lat": 35.6861224, "lon": 139.7419206 }, "geometry": { "type": "Point", "coordinates": [ 139.741920599999986, 35.6861224 ] } },
{ "type": "Feature", "properties": { "name": "セブンイレブン 赤坂東急プラザ店", "lat": 35.6771745, "lon": 139.7375005 }, "geometry": { "type": "Point", "coordinates": [ 139.73750050000001, 35.6771745 ] } },
{ "type": "Feature", "properties": { "name": "セブンイレブン 神田専大通り店", "lat": 35.6975715, "lon": 139.7548205 }, "geometry": { "type": "Point", "coordinates": [ 139.7548205, 35.6975715 ] } },
{ "type": "Feature", "properties": { "name": "セブンイレブン 内幸町2丁目店", "lat": 35.6708825, "lon": 139.7527569 }, "geometry": { "type": "Point", "coordinates": [ 139.7527569, 35.6708825 ] } },
{ "type": "Feature", "properties": { "name": "セブンイレブン 東神田2丁目店", "lat": 35.6958038, "lon": 139.7796657 }, "geometry": { "type": "Point", "coordinates": [ 139.77966570000001, 35.6958038 ] } },
{ "type": "Feature", "properties": { "name": "セブンイレブン 神田岩本町店", "lat": 35.6929885, "lon": 139.7756615 }, "geometry": { "type": "Point", "coordinates": [ 139.775661500000012, 35.6929885 ] } },
{ "type": "Feature", "properties": { "name": "セブンイレブン 東京サンケイビル店", "lat": 35.6869994, "lon": 139.7654691 }, "geometry": { "type": "Point", "coordinates": [ 139.7654691, 35.6869994 ] } },
{ "type": "Feature", "properties": { "name": "セブンイレブン 丸紅ビル店", "lat": 35.690596, "lon": 139.7595591 }, "geometry": { "type": "Point", "coordinates": [ 139.7595591, 35.690596 ] } },
{ "type": "Feature", "properties": { "name": "ナチュラルローソン 千代田四番町店", "lat": 35.6890923, "lon": 139.7357099 }, "geometry": { "type": "Point", "coordinates": [ 139.735709899999989, 35.6890923 ] } },
{ "type": "Feature", "properties": { "name": "ファミリーマート 御茶ノ水駅前店", "lat": 35.69947763, "lon": 139.7652126 }, "geometry": { "type": "Point", "coordinates": [ 139.765212600000012, 35.69947763 ] } },
{ "type": "Feature", "properties": { "name": "ファミリーマート ファミマ大手門タワー店", "lat": 35.6864889, "lon": 139.7623328 }, "geometry": { "type": "Point", "coordinates": [ 139.7623328, 35.6864889 ] } },
{ "type": "Feature", "properties": { "name": "ファミリーマート 内神田鎌倉橋店", "lat": 35.6899149, "lon": 139.766299 }, "geometry": { "type": "Point", "coordinates": [ 139.766299, 35.6899149 ] } },
{ "type": "Feature", "properties": { "name": "ファミリーマート ファミマサピアタワー店", "lat": 35.683672, "lon": 139.7684637 }, "geometry": { "type": "Point", "coordinates": [ 139.768463700000012, 35.683672 ] } },
{ "type": "Feature", "properties": { "name": "NewDays+HANAGATAYA グランスタ東京京葉ストリート", "lat": 35.6817646, "lon": 139.7689006 }, "geometry": { "type": "Point", "coordinates": [ 139.7689006, 35.6817646 ] } },
{ "type": "Feature", "properties": { "name": "ファミリーマート FUNDES神保町店", "lat": 35.696159, "lon": 139.7588711 }, "geometry": { "type": "Point", "coordinates": [ 139.7588711, 35.696159 ] } },
{ "type": "Feature", "properties": { "name": "ファミリーマート 永田町店", "lat": 35.6764907, "lon": 139.7382988 }, "geometry": { "type": "Point", "coordinates": [ 139.7382988, 35.6764907 ] } },
{ "type": "Feature", "properties": { "name": "ファミリーマート 経済産業省店", "lat": 35.6722982, "lon": 139.7507448 }, "geometry": { "type": "Point", "coordinates": [ 139.7507448, 35.6722982 ] } },
{ "type": "Feature", "properties": { "name": "ファミリーマート 九段南二丁目店", "lat": 35.6936623, "lon": 139.7450301 }, "geometry": { "type": "Point", "coordinates": [ 139.7450301, 35.6936623 ] } },
{ "type": "Feature", "properties": { "name": "セブンイレブン 有楽町イトシア店", "lat": 35.6741433, "lon": 139.7632113 }, "geometry": { "type": "Point", "coordinates": [ 139.7632113, 35.6741433 ] } },
{ "type": "Feature", "properties": { "name": "ミニストップ 神田錦町3丁目店", "lat": 35.6926894, "lon": 139.759521 }, "geometry": { "type": "Point", "coordinates": [ 139.759521, 35.6926894 ] } },
{ "type": "Feature", "properties": { "name": "ミニストップ 岩本町2丁目店", "lat": 35.6935374, "lon": 139.776463 }, "geometry": { "type": "Point", "coordinates": [ 139.776463, 35.6935374 ] } },
{ "type": "Feature", "properties": { "name": "セブンイレブン 千代田岩本町3丁目店", "lat": 35.6945931, "lon": 139.7755507 }, "geometry": { "type": "Point", "coordinates": [ 139.7755507, 35.6945931 ] } },
{ "type": "Feature", "properties": { "name": "ファミリーマート 秋葉原富士ソフトビル店", "lat": 35.7003056, "lon": 139.7740739 }, "geometry": { "type": "Point", "coordinates": [ 139.7740739, 35.7003056 ] } },
{ "type": "Feature", "properties": { "name": "セブンイレブン 千代田一ツ橋2丁目店", "lat": 35.6942826, "lon": 139.7562685 }, "geometry": { "type": "Point", "coordinates": [ 139.7562685, 35.6942826 ] } },
{ "type": "Feature", "properties": { "name": "ミニストップ 神田神保町1丁目店", "lat": 35.6963416, "lon": 139.7601167 }, "geometry": { "type": "Point", "coordinates": [ 139.7601167, 35.6963416 ] } },
{ "type": "Feature", "properties": { "name": "セブンイレブン 内神田1丁目店", "lat": 35.6908058, "lon": 139.7669187 }, "geometry": { "type": "Point", "coordinates": [ 139.7669187, 35.6908058 ] } },
{ "type": "Feature", "properties": { "name": "ミニストップ 九段南4丁目店", "lat": 35.6910905, "lon": 139.7395254 }, "geometry": { "type": "Point", "coordinates": [ 139.7395254, 35.6910905 ] } },
{ "type": "Feature", "properties": { "name": "セブンイレブン 丸の内郵船ビル店", "lat": 35.6815163, "lon": 139.7627258 }, "geometry": { "type": "Point", "coordinates": [ 139.7627258, 35.6815163 ] } },
{ "type": "Feature", "properties": { "name": "セブンイレブン 千代田区麹町4丁目店", "lat": 35.683294, "lon": 139.7367533 }, "geometry": { "type": "Point", "coordinates": [ 139.7367533, 35.683294 ] } },
{ "type": "Feature", "properties": { "name": "cisca グラントウキョウ店", "lat": 35.6816113, "lon": 139.7689686 }, "geometry": { "type": "Point", "coordinates": [ 139.7689686, 35.6816113 ] } },
{ "type": "Feature", "properties": { "name": "セブンイレブン 7FS内幸町1丁目店", "lat": 35.6724056, "lon": 139.7583398 }, "geometry": { "type": "Point", "coordinates": [ 139.758339799999987, 35.6724056 ] } },
{ "type": "Feature", "properties": { "name": "セブンイレブン 駿河台三楽病院店", "lat": 35.700322, "lon": 139.761055 }, "geometry": { "type": "Point", "coordinates": [ 139.761055, 35.700322 ] } },
{ "type": "Feature", "properties": { "name": "ミニストップ 九段南1丁目店", "lat": 35.6948643, "lon": 139.7518974 }, "geometry": { "type": "Point", "coordinates": [ 139.7518974, 35.6948643 ] } },
{ "type": "Feature", "properties": { "name": "ミニストップ 飯田橋駅西口店", "lat": 35.699049, "lon": 139.7447854 }, "geometry": { "type": "Point", "coordinates": [ 139.744785400000012, 35.699049 ] } },
{ "type": "Feature", "properties": { "name": "cisca 霞が関コモンゲート店", "lat": 35.6714376, "lon": 139.7470935 }, "geometry": { "type": "Point", "coordinates": [ 139.7470935, 35.6714376 ] } },
{ "type": "Feature", "properties": { "name": "ポプラ 麹町店", "lat": 35.6852123, "lon": 139.7332175 }, "geometry": { "type": "Point", "coordinates": [ 139.7332175, 35.6852123 ] } },
{ "type": "Feature", "properties": { "name": "スリーエイト神田東店", "lat": 35.6948457, "lon": 139.7734586 }, "geometry": { "type": "Point", "coordinates": [ 139.7734586, 35.6948457 ] } },
{ "type": "Feature", "properties": { "name": "生活彩家 御茶の水駅前店", "lat": 35.6989386, "lon": 139.764274 }, "geometry": { "type": "Point", "coordinates": [ 139.764274, 35.6989386 ] } },
{ "type": "Feature", "properties": { "name": "セブンイレブン 千代田岩本町2丁目店", "lat": 35.6933182, "lon": 139.7780281 }, "geometry": { "type": "Point", "coordinates": [ 139.7780281, 35.6933182 ] } },
{ "type": "Feature", "properties": { "name": "セブンイレブン 内神田2丁目店", "lat": 35.6897896, "lon": 139.7675242 }, "geometry": { "type": "Point", "coordinates": [ 139.7675242, 35.6897896 ] } },
{ "type": "Feature", "properties": { "name": "セブンイレブン 特許庁店", "lat": 35.6709468, "lon": 139.7457208 }, "geometry": { "type": "Point", "coordinates": [ 139.745720799999987, 35.6709468 ] } },
{ "type": "Feature", "properties": { "name": "セブンイレブン 上智大学店", "lat": 35.6841965, "lon": 139.7327535 }, "geometry": { "type": "Point", "coordinates": [ 139.7327535, 35.6841965 ] } },
{ "type": "Feature", "properties": { "name": "セブンイレブン 神田須田町1丁目店", "lat": 35.6950356, "lon": 139.7678103 }, "geometry": { "type": "Point", "coordinates": [ 139.7678103, 35.6950356 ] } },
{ "type": "Feature", "properties": { "name": "セブンイレブン 外神田4丁目店", "lat": 35.7027054, "lon": 139.7722767 }, "geometry": { "type": "Point", "coordinates": [ 139.7722767, 35.7027054 ] } },
{ "type": "Feature", "properties": { "name": "セブンイレブン 神田神保町2丁目店", "lat": 35.6964345, "lon": 139.757755 }, "geometry": { "type": "Point", "coordinates": [ 139.757755, 35.6964345 ] } },
{ "type": "Feature", "properties": { "name": "セブンイレブン 千代田大神宮通り店", "lat": 35.699676, "lon": 139.746013 }, "geometry": { "type": "Point", "coordinates": [ 139.746013, 35.699676 ] } },
{ "type": "Feature", "properties": { "name": "セブンイレブン 神田和泉町店", "lat": 35.7002728, "lon": 139.7758712 }, "geometry": { "type": "Point", "coordinates": [ 139.775871200000012, 35.7002728 ] } },
{ "type": "Feature", "properties": { "name": "セブンイレブン 千代田平河町2丁目店", "lat": 35.67907, "lon": 139.7405042 }, "geometry": { "type": "Point", "coordinates": [ 139.7405042, 35.67907 ] } },
{ "type": "Feature", "properties": { "name": "セブンイレブン 秋葉原昭和通り店", "lat": 35.6978972, "lon": 139.7764164 }, "geometry": { "type": "Point", "coordinates": [ 139.776416399999988, 35.6978972 ] } },
{ "type": "Feature", "properties": { "name": "セブンイレブン 神田淡路町ワテラス店", "lat": 35.6975682, "lon": 139.7679184 }, "geometry": { "type": "Point", "coordinates": [ 139.767918400000013, 35.6975682 ] } },
{ "type": "Feature", "properties": { "name": "セブンイレブン 参議院議員会館店", "lat": 35.6765591, "lon": 139.7423471 }, "geometry": { "type": "Point", "coordinates": [ 139.742347099999989, 35.6765591 ] } },
{ "type": "Feature", "properties": { "name": "セブンイレブン 丸の内永楽ビル店", "lat": 35.6842799, "lon": 139.7650486 }, "geometry": { "type": "Point", "coordinates": [ 139.7650486, 35.6842799 ] } },
{ "type": "Feature", "properties": { "name": "セブンイレブン 衆議院第二議員会館店", "lat": 35.6755195, "lon": 139.7425821 }, "geometry": { "type": "Point", "coordinates": [ 139.7425821, 35.6755195 ] } },
{ "type": "Feature", "properties": { "name": "セブンイレブン パレスサイドビル店", "lat": 35.6909195, "lon": 139.7574614 }, "geometry": { "type": "Point", "coordinates": [ 139.757461400000011, 35.6909195 ] } },
{ "type": "Feature", "properties": { "name": "セブンイレブン 秋葉原センタープレイス店", "lat": 35.6992908, "lon": 139.7739578 }, "geometry": { "type": "Point", "coordinates": [ 139.7739578, 35.6992908 ] } },
{ "type": "Feature", "properties": { "name": "セブンイレブン 東急キャピトルタワー店", "lat": 35.67397, "lon": 139.7410663 }, "geometry": { "type": "Point", "coordinates": [ 139.7410663, 35.67397 ] } },
{ "type": "Feature", "properties": { "name": "セブンイレブン 千代田区麹町3丁目店", "lat": 35.6831204, "lon": 139.7384884 }, "geometry": { "type": "Point", "coordinates": [ 139.7384884, 35.6831204 ] } },
{ "type": "Feature", "properties": { "name": "セブンイレブン 中央合同庁舎8号館店", "lat": 35.6725705, "lon": 139.7454297 }, "geometry": { "type": "Point", "coordinates": [ 139.745429699999988, 35.6725705 ] } },
{ "type": "Feature", "properties": { "name": "セブンイレブン 千代田鍛冶町1丁目店", "lat": 35.6906009, "lon": 139.7724564 }, "geometry": { "type": "Point", "coordinates": [ 139.77245640000001, 35.6906009 ] } },
{ "type": "Feature", "properties": { "name": "セブンイレブン 飯田橋4丁目店", "lat": 35.7001269, "lon": 139.7478551 }, "geometry": { "type": "Point", "coordinates": [ 139.74785510000001, 35.7001269 ] } },
{ "type": "Feature", "properties": { "name": "セブンイレブン 神田神保町3丁目店", "lat": 35.6960459, "lon": 139.7540095 }, "geometry": { "type": "Point", "coordinates": [ 139.7540095, 35.6960459 ] } },
{ "type": "Feature", "properties": { "name": "セブンイレブン 神田錦町千代田通り店", "lat": 35.6921342, "lon": 139.7605794 }, "geometry": { "type": "Point", "coordinates": [ 139.760579400000012, 35.6921342 ] } },
{ "type": "Feature", "properties": { "name": "セブンイレブン 秋葉原駅北店", "lat": 35.699768, "lon": 139.7741333 }, "geometry": { "type": "Point", "coordinates": [ 139.774133299999988, 35.699768 ] } },
{ "type": "Feature", "properties": { "name": "セブンイレブン 7FSガーデンビル店", "lat": 35.6856247, "lon": 139.7340705 }, "geometry": { "type": "Point", "coordinates": [ 139.7340705, 35.6856247 ] } },
{ "type": "Feature", "properties": { "name": "セブンイレブン KDDI本社店", "lat": 35.7005279, "lon": 139.7505375 }, "geometry": { "type": "Point", "coordinates": [ 139.7505375, 35.7005279 ] } },
{ "type": "Feature", "properties": { "name": "セブンイレブン 千代田二番町店", "lat": 35.6856247, "lon": 139.7340705 }, "geometry": { "type": "Point", "coordinates": [ 139.7340705, 35.6856247 ] } },
{ "type": "Feature", "properties": { "name": "セブンイレブン 大和ハウス九段ビル店", "lat": 35.6991374, "lon": 139.7512629 }, "geometry": { "type": "Point", "coordinates": [ 139.7512629, 35.6991374 ] } },
{ "type": "Feature", "properties": { "name": "セブンイレブン 飯田橋アイガーデンテラス店", "lat": 35.7011756, "lon": 139.7500145 }, "geometry": { "type": "Point", "coordinates": [ 139.7500145, 35.7011756 ] } },
{ "type": "Feature", "properties": { "name": "セブンイレブン 7FS中央合同庁舎6号館店", "lat": 35.6764339, "lon": 139.7550463 }, "geometry": { "type": "Point", "coordinates": [ 139.7550463, 35.6764339 ] } },
{ "type": "Feature", "properties": { "name": "セブンイレブン 中央合同庁舎5号館店", "lat": 35.6732706, "lon": 139.7530011 }, "geometry": { "type": "Point", "coordinates": [ 139.7530011, 35.6732706 ] } },
{ "type": "Feature", "properties": { "name": "セブンイレブン 有楽町駅前店", "lat": 35.6742556, "lon": 139.7627339 }, "geometry": { "type": "Point", "coordinates": [ 139.7627339, 35.6742556 ] } },
{ "type": "Feature", "properties": { "name": "セブンイレブン KDDI本社20階店", "lat": 35.7005279, "lon": 139.7505375 }, "geometry": { "type": "Point", "coordinates": [ 139.7505375, 35.7005279 ] } },
{ "type": "Feature", "properties": { "name": "セブンイレブン 神田駅西口通り店", "lat": 35.6910644, "lon": 139.7684227 }, "geometry": { "type": "Point", "coordinates": [ 139.7684227, 35.6910644 ] } },
{ "type": "Feature", "properties": { "name": "セブンイレブン 明治安田生命本社ビル店", "lat": 35.6791077, "lon": 139.7621731 }, "geometry": { "type": "Point", "coordinates": [ 139.762173100000012, 35.6791077 ] } },
{ "type": "Feature", "properties": { "name": "セブンイレブン 大手町野村ビル店", "lat": 35.6852234, "lon": 139.766115 }, "geometry": { "type": "Point", "coordinates": [ 139.766115, 35.6852234 ] } },
{ "type": "Feature", "properties": { "name": "セブンイレブン KDDI大手町ビル店", "lat": 35.6877322, "lon": 139.7647547 }, "geometry": { "type": "Point", "coordinates": [ 139.7647547, 35.6877322 ] } },
{ "type": "Feature", "properties": { "name": "セブンイレブン 神田神保町1丁目店", "lat": 35.6985164, "lon": 139.7570489 }, "geometry": { "type": "Point", "coordinates": [ 139.7570489, 35.6985164 ] } },
{ "type": "Feature", "properties": { "name": "セブンイレブン 市ヶ谷駅前店", "lat": 35.6904472, "lon": 139.7359039 }, "geometry": { "type": "Point", "coordinates": [ 139.735903900000011, 35.6904472 ] } },
{ "type": "Feature", "properties": { "name": "セブンイレブン 千代田岩本町1丁目店", "lat": 35.6920551, "lon": 139.7778216 }, "geometry": { "type": "Point", "coordinates": [ 139.77782160000001, 35.6920551 ] } },
{ "type": "Feature", "properties": { "name": "セブンイレブン 東京ミッドタウン日比谷ラウンジ店", "lat": 35.6742704, "lon": 139.7592781 }, "geometry": { "type": "Point", "coordinates": [ 139.759278099999989, 35.6742704 ] } },
{ "type": "Feature", "properties": { "name": "セブンイレブン 神田万世橋南店", "lat": 35.6965835, "lon": 139.7694411 }, "geometry": { "type": "Point", "coordinates": [ 139.7694411, 35.6965835 ] } },
{ "type": "Feature", "properties": { "name": "セブンイレブン プルデンシャルタワー店", "lat": 35.6760427, "lon": 139.7387059 }, "geometry": { "type": "Point", "coordinates": [ 139.738705900000014, 35.6760427 ] } },
{ "type": "Feature", "properties": { "name": "セブンイレブン 神田三崎町2丁目店", "lat": 35.7002374, "lon": 139.753289 }, "geometry": { "type": "Point", "coordinates": [ 139.753289, 35.7002374 ] } },
{ "type": "Feature", "properties": { "name": "セブンイレブン 住友商事竹橋ビル店", "lat": 35.6921132, "lon": 139.7565031 }, "geometry": { "type": "Point", "coordinates": [ 139.7565031, 35.6921132 ] } },
{ "type": "Feature", "properties": { "name": "セブンイレブン 神田駅南口店", "lat": 35.6910585, "lon": 139.7711534 }, "geometry": { "type": "Point", "coordinates": [ 139.7711534, 35.6910585 ] } },
{ "type": "Feature", "properties": { "name": "セブンイレブン 神田錦町1丁目店", "lat": 35.6932536, "lon": 139.7647487 }, "geometry": { "type": "Point", "coordinates": [ 139.764748700000013, 35.6932536 ] } },
{ "type": "Feature", "properties": { "name": "セブンイレブン 外神田2丁目妻恋坂店", "lat": 35.7027427, "lon": 139.7693074 }, "geometry": { "type": "Point", "coordinates": [ 139.7693074, 35.7027427 ] } },
{ "type": "Feature", "properties": { "name": "セブンイレブン 神田錦町2丁目店", "lat": 35.6915163, "lon": 139.7633045 }, "geometry": { "type": "Point", "coordinates": [ 139.7633045, 35.6915163 ] } },
{ "type": "Feature", "properties": { "name": "セブンイレブン 神田紺屋町店", "lat": 35.6917221, "lon": 139.7740171 }, "geometry": { "type": "Point", "coordinates": [ 139.7740171, 35.6917221 ] } },
{ "type": "Feature", "properties": { "name": "セブンイレブン NTTCom大手町プレイス店", "lat": 35.6868526, "lon": 139.7670773 }, "geometry": { "type": "Point", "coordinates": [ 139.767077300000011, 35.6868526 ] } },
{ "type": "Feature", "properties": { "name": "セブンイレブン 神田すずらん通り店", "lat": 35.6955438, "lon": 139.7590885 }, "geometry": { "type": "Point", "coordinates": [ 139.7590885, 35.6955438 ] } },
{ "type": "Feature", "properties": { "name": "セブンイレブン 九段北4丁目店", "lat": 35.6920699, "lon": 139.7386963 }, "geometry": { "type": "Point", "coordinates": [ 139.738696299999987, 35.6920699 ] } },
{ "type": "Feature", "properties": { "name": "セブンイレブン 紀尾井坂店", "lat": 35.6823361, "lon": 139.7348615 }, "geometry": { "type": "Point", "coordinates": [ 139.7348615, 35.6823361 ] } },
{ "type": "Feature", "properties": { "name": "セブンイレブン 7FS参議院議員会館店", "lat": 35.6765591, "lon": 139.7423471 }, "geometry": { "type": "Point", "coordinates": [ 139.742347099999989, 35.6765591 ] } },
{ "type": "Feature", "properties": { "name": "セブンイレブン Otemachi One店", "lat": 35.6876366, "lon": 139.7623328 }, "geometry": { "type": "Point", "coordinates": [ 139.7623328, 35.6876366 ] } },
{ "type": "Feature", "properties": { "name": "セブンイレブン 秋葉原電気街口店", "lat": 35.6988105, "lon": 139.7721625 }, "geometry": { "type": "Point", "coordinates": [ 139.7721625, 35.6988105 ] } },
{ "type": "Feature", "properties": { "name": "セブンイレブン 千代田鍛冶町2丁目店", "lat": 35.6933903, "lon": 139.7724844 }, "geometry": { "type": "Point", "coordinates": [ 139.7724844, 35.6933903 ] } },
{ "type": "Feature", "properties": { "name": "セブンイレブン 二番町ファーストビル店", "lat": 35.6862409, "lon": 139.735904 }, "geometry": { "type": "Point", "coordinates": [ 139.735904, 35.6862409 ] } },
{ "type": "Feature", "properties": { "name": "セブンイレブン 九段南3丁目店", "lat": 35.6924511, "lon": 139.7414005 }, "geometry": { "type": "Point", "coordinates": [ 139.7414005, 35.6924511 ] } },
{ "type": "Feature", "properties": { "name": "NewDays 東ホ6A", "lat": 35.6817646, "lon": 139.7689006 }, "geometry": { "type": "Point", "coordinates": [ 139.7689006, 35.6817646 ] } },
{ "type": "Feature", "properties": { "name": "セブンイレブン 内幸町1丁目店", "lat": 35.6694061, "lon": 139.7585416 }, "geometry": { "type": "Point", "coordinates": [ 139.7585416, 35.6694061 ] } },
{ "type": "Feature", "properties": { "name": "NewDays 市ヶ谷", "lat": 35.689718, "lon": 139.7339083 }, "geometry": { "type": "Point", "coordinates": [ 139.7339083, 35.689718 ] } },
{ "type": "Feature", "properties": { "name": "NewDaysミニ 秋葉原1号", "lat": 35.6986693, "lon": 139.7728303 }, "geometry": { "type": "Point", "coordinates": [ 139.77283030000001, 35.6986693 ] } },
{ "type": "Feature", "properties": { "name": "NewDaysミニ 秋葉原3号", "lat": 35.6986693, "lon": 139.7728303 }, "geometry": { "type": "Point", "coordinates": [ 139.77283030000001, 35.6986693 ] } },
{ "type": "Feature", "properties": { "name": "セブンイレブン 法政大学市ヶ谷キャンパス店", "lat": 35.6957422, "lon": 139.7416481 }, "geometry": { "type": "Point", "coordinates": [ 139.7416481, 35.6957422 ] } },
{ "type": "Feature", "properties": { "name": "セブンイレブン 麹町3丁目店", "lat": 35.6832444, "lon": 139.7383696 }, "geometry": { "type": "Point", "coordinates": [ 139.7383696, 35.6832444 ] } },
{ "type": "Feature", "properties": { "name": "セブンイレブン 千代田富士見1丁目店", "lat": 35.697987, "lon": 139.7464814 }, "geometry": { "type": "Point", "coordinates": [ 139.7464814, 35.697987 ] } },
{ "type": "Feature", "properties": { "name": "セブンイレブン LINEヤフー本社店", "lat": 35.6787667, "lon": 139.7380662 }, "geometry": { "type": "Point", "coordinates": [ 139.7380662, 35.6787667 ] } },
{ "type": "Feature", "properties": { "name": "セブンイレブン 九段南4丁目店", "lat": 35.6910219, "lon": 139.7366517 }, "geometry": { "type": "Point", "coordinates": [ 139.73665170000001, 35.6910219 ] } },
{ "type": "Feature", "properties": { "name": "NewDays エキュートエディション 有楽町京橋口", "lat": 35.6753907, "lon": 139.7639012 }, "geometry": { "type": "Point", "coordinates": [ 139.7639012, 35.6753907 ] } },
{ "type": "Feature", "properties": { "name": "NewDays エキュートエディション 飯田橋西口", "lat": 35.7020741, "lon": 139.7450226 }, "geometry": { "type": "Point", "coordinates": [ 139.7450226, 35.7020741 ] } },
{ "type": "Feature", "properties": { "name": "NewDays グランスタ東京北通路", "lat": 35.6817646, "lon": 139.7689006 }, "geometry": { "type": "Point", "coordinates": [ 139.7689006, 35.6817646 ] } },
{ "type": "Feature", "properties": { "name": "NewDays エドモント飯田橋", "lat": 35.7008451, "lon": 139.7491321 }, "geometry": { "type": "Point", "coordinates": [ 139.7491321, 35.7008451 ] } },
{ "type": "Feature", "properties": { "name": "NewDaysミニ 京葉2B", "lat": 35.6817646, "lon": 139.7689006 }, "geometry": { "type": "Point", "coordinates": [ 139.7689006, 35.6817646 ] } },
{ "type": "Feature", "properties": { "name": "NewDays 飯田橋東口", "lat": 35.7020741, "lon": 139.7450226 }, "geometry": { "type": "Point", "coordinates": [ 139.7450226, 35.7020741 ] } },
{ "type": "Feature", "properties": { "name": "NewDaysミニ 丸地下7号", "lat": 35.6817646, "lon": 139.7689006 }, "geometry": { "type": "Point", "coordinates": [ 139.7689006, 35.6817646 ] } },
{ "type": "Feature", "properties": { "name": "NewDays グランスタ東京中央通路", "lat": 35.6817646, "lon": 139.7689006 }, "geometry": { "type": "Point", "coordinates": [ 139.7689006, 35.6817646 ] } },
{ "type": "Feature", "properties": { "name": "NewDays 秋葉原", "lat": 35.6986693, "lon": 139.7728303 }, "geometry": { "type": "Point", "coordinates": [ 139.77283030000001, 35.6986693 ] } },
{ "type": "Feature", "properties": { "name": "NewDays 東京幹線ホ5A", "lat": 35.6817646, "lon": 139.7689006 }, "geometry": { "type": "Point", "coordinates": [ 139.7689006, 35.6817646 ] } },
{ "type": "Feature", "properties": { "name": "NewDays 東京八重洲南", "lat": 35.6817646, "lon": 139.7689006 }, "geometry": { "type": "Point", "coordinates": [ 139.7689006, 35.6817646 ] } },
{ "type": "Feature", "properties": { "name": "NewDays 八重洲中央改札内", "lat": 35.6817646, "lon": 139.7689006 }, "geometry": { "type": "Point", "coordinates": [ 139.7689006, 35.6817646 ] } },
{ "type": "Feature", "properties": { "name": "NewDaysミニ 四ツ谷2号", "lat": 35.6850642, "lon": 139.7316193 }, "geometry": { "type": "Point", "coordinates": [ 139.7316193, 35.6850642 ] } },
{ "type": "Feature", "properties": { "name": "NewDays 飯田橋", "lat": 35.7021219, "lon": 139.7449152 }, "geometry": { "type": "Point", "coordinates": [ 139.7449152, 35.7021219 ] } },
{ "type": "Feature", "properties": { "name": "NewDays 神田南口改札外", "lat": 35.6917479, "lon": 139.770799 }, "geometry": { "type": "Point", "coordinates": [ 139.770799, 35.6917479 ] } },
{ "type": "Feature", "properties": { "name": "NewDays 神田万世橋ビル", "lat": 35.6969308, "lon": 139.7701555 }, "geometry": { "type": "Point", "coordinates": [ 139.770155499999987, 35.6969308 ] } },
{ "type": "Feature", "properties": { "name": "NewDays グランスタ八重洲北口", "lat": 35.6817646, "lon": 139.7689006 }, "geometry": { "type": "Point", "coordinates": [ 139.7689006, 35.6817646 ] } },
{ "type": "Feature", "properties": { "name": "NewDays 神田北口", "lat": 35.6917479, "lon": 139.770799 }, "geometry": { "type": "Point", "coordinates": [ 139.770799, 35.6917479 ] } },
{ "type": "Feature", "properties": { "name": "NewDays 水道橋東口", "lat": 35.7018944, "lon": 139.7547968 }, "geometry": { "type": "Point", "coordinates": [ 139.7547968, 35.7018944 ] } },
{ "type": "Feature", "properties": { "name": "ローソン 神田駿河台一丁目店", "lat": 35.6970817, "lon": 139.7633241 }, "geometry": { "type": "Point", "coordinates": [ 139.7633241, 35.6970817 ] } },
{ "type": "Feature", "properties": { "name": "ローソン 永田町一丁目店", "lat": 35.6786026, "lon": 139.7408949 }, "geometry": { "type": "Point", "coordinates": [ 139.7408949, 35.6786026 ] } },
{ "type": "Feature", "properties": { "name": "ローソン 九段北目白通店", "lat": 35.6970077, "lon": 139.7511303 }, "geometry": { "type": "Point", "coordinates": [ 139.7511303, 35.6970077 ] } },
{ "type": "Feature", "properties": { "name": "ローソン JPローソン東京逓信病院店", "lat": 35.6975818, "lon": 139.7432554 }, "geometry": { "type": "Point", "coordinates": [ 139.74325540000001, 35.6975818 ] } },
{ "type": "Feature", "properties": { "name": "ローソン 九段北一丁目店", "lat": 35.6965111, "lon": 139.7520965 }, "geometry": { "type": "Point", "coordinates": [ 139.7520965, 35.6965111 ] } },
{ "type": "Feature", "properties": { "name": "ローソン 麹町五丁目店", "lat": 35.6838031, "lon": 139.7345151 }, "geometry": { "type": "Point", "coordinates": [ 139.73451510000001, 35.6838031 ] } },
{ "type": "Feature", "properties": { "name": "ローソン 丸の内仲通りビル店", "lat": 35.6801686, "lon": 139.762522 }, "geometry": { "type": "Point", "coordinates": [ 139.762522, 35.6801686 ] } },
{ "type": "Feature", "properties": { "name": "ローソン 丸の内国際ビル店", "lat": 35.6767148, "lon": 139.7612147 }, "geometry": { "type": "Point", "coordinates": [ 139.761214700000011, 35.6767148 ] } },
{ "type": "Feature", "properties": { "name": "ローソン 有楽町一丁目店", "lat": 35.6745869, "lon": 139.7614543 }, "geometry": { "type": "Point", "coordinates": [ 139.7614543, 35.6745869 ] } },
{ "type": "Feature", "properties": { "name": "ローソン 神田神保町二丁目店", "lat": 35.6963364, "lon": 139.7554238 }, "geometry": { "type": "Point", "coordinates": [ 139.755423799999988, 35.6963364 ] } },
{ "type": "Feature", "properties": { "name": "NewDaysミニ 東ホ5C", "lat": 35.6817646, "lon": 139.7689006 }, "geometry": { "type": "Point", "coordinates": [ 139.7689006, 35.6817646 ] } },
{ "type": "Feature", "properties": { "name": "ローソン 岩本町三丁目店", "lat": 35.6957284, "lon": 139.7778128 }, "geometry": { "type": "Point", "coordinates": [ 139.7778128, 35.6957284 ] } },
{ "type": "Feature", "properties": { "name": "ローソン 丸の内二重橋前店", "lat": 35.6807543, "lon": 139.7621981 }, "geometry": { "type": "Point", "coordinates": [ 139.7621981, 35.6807543 ] } },
{ "type": "Feature", "properties": { "name": "ローソン 秋葉原北口店", "lat": 35.7006136, "lon": 139.7747529 }, "geometry": { "type": "Point", "coordinates": [ 139.77475290000001, 35.7006136 ] } },
{ "type": "Feature", "properties": { "name": "ローソン 麹町二丁目店", "lat": 35.683519, "lon": 139.7411129 }, "geometry": { "type": "Point", "coordinates": [ 139.7411129, 35.683519 ] } },
{ "type": "Feature", "properties": { "name": "ローソン H神田駿河台店", "lat": 35.7000136, "lon": 139.7616651 }, "geometry": { "type": "Point", "coordinates": [ 139.761665099999988, 35.7000136 ] } },
{ "type": "Feature", "properties": { "name": "ナチュラルローソン NL神田鍛冶町二丁目店", "lat": 35.6911977, "lon": 139.7722779 }, "geometry": { "type": "Point", "coordinates": [ 139.7722779, 35.6911977 ] } },
{ "type": "Feature", "properties": { "name": "ローソンサテライト JA共済ビル店", "lat": 35.6802718, "lon": 139.7402148 }, "geometry": { "type": "Point", "coordinates": [ 139.7402148, 35.6802718 ] } },
{ "type": "Feature", "properties": { "name": "ナチュラルローソン NLS帝劇ビル店", "lat": 35.6767148, "lon": 139.7612147 }, "geometry": { "type": "Point", "coordinates": [ 139.761214700000011, 35.6767148 ] } },
{ "type": "Feature", "properties": { "name": "ナチュラルローソン NL大手町フィナンシャルシティノース店", "lat": 35.6880316, "lon": 139.7658683 }, "geometry": { "type": "Point", "coordinates": [ 139.7658683, 35.6880316 ] } },
{ "type": "Feature", "properties": { "name": "ナチュラルローソン NLTEKKOavenue店", "lat": 35.6830017, "lon": 139.7702356 }, "geometry": { "type": "Point", "coordinates": [ 139.7702356, 35.6830017 ] } },
{ "type": "Feature", "properties": { "name": "ナチュラルローソン NL丸の内ビルディング店", "lat": 35.6809759, "lon": 139.7637838 }, "geometry": { "type": "Point", "coordinates": [ 139.7637838, 35.6809759 ] } },
{ "type": "Feature", "properties": { "name": "ナチュラルローソン NL丸の内マイプラザ店", "lat": 35.6791077, "lon": 139.7621731 }, "geometry": { "type": "Point", "coordinates": [ 139.762173100000012, 35.6791077 ] } },
{ "type": "Feature", "properties": { "name": "ナチュラルローソン NL千代田三番町店", "lat": 35.6911759, "lon": 139.7453344 }, "geometry": { "type": "Point", "coordinates": [ 139.7453344, 35.6911759 ] } },
{ "type": "Feature", "properties": { "name": "ナチュラルローソン S大手町フィナンシャルシティサウス店", "lat": 35.687579, "lon": 139.7658224 }, "geometry": { "type": "Point", "coordinates": [ 139.7658224, 35.687579 ] } },
{ "type": "Feature", "properties": { "name": "ローソン 神田明神店", "lat": 35.7000333, "lon": 139.7688134 }, "geometry": { "type": "Point", "coordinates": [ 139.7688134, 35.7000333 ] } },
{ "type": "Feature", "properties": { "name": "ローソン 外神田三丁目店", "lat": 35.7001786, "lon": 139.7703307 }, "geometry": { "type": "Point", "coordinates": [ 139.770330699999988, 35.7001786 ] } },
{ "type": "Feature", "properties": { "name": "ナチュラルローソン NL新東京ビル店", "lat": 35.6773788, "lon": 139.7626874 }, "geometry": { "type": "Point", "coordinates": [ 139.7626874, 35.6773788 ] } },
{ "type": "Feature", "properties": { "name": "ナチュラルローソン NL平河町森タワー店", "lat": 35.6796445, "lon": 139.7414053 }, "geometry": { "type": "Point", "coordinates": [ 139.7414053, 35.6796445 ] } },
{ "type": "Feature", "properties": { "name": "ローソン 内神田二丁目店", "lat": 35.690762, "lon": 139.7679091 }, "geometry": { "type": "Point", "coordinates": [ 139.7679091, 35.690762 ] } },
{ "type": "Feature", "properties": { "name": "ナチュラルローソン 日比谷国際ビル店", "lat": 35.6698412, "lon": 139.7549727 }, "geometry": { "type": "Point", "coordinates": [ 139.7549727, 35.6698412 ] } },
{ "type": "Feature", "properties": { "name": "ローソン 神田神保町白山通り店", "lat": 35.6973332, "lon": 139.757112 }, "geometry": { "type": "Point", "coordinates": [ 139.757112, 35.6973332 ] } },
{ "type": "Feature", "properties": { "name": "ローソン 飯田橋サクラテラス店", "lat": 35.6992398, "lon": 139.7437917 }, "geometry": { "type": "Point", "coordinates": [ 139.7437917, 35.6992398 ] } },
{ "type": "Feature", "properties": { "name": "ローソン アーバンネット大手町店", "lat": 35.6858772, "lon": 139.7671082 }, "geometry": { "type": "Point", "coordinates": [ 139.7671082, 35.6858772 ] } },
{ "type": "Feature", "properties": { "name": "ローソン 千代田神田錦町三丁目店", "lat": 35.6931416, "lon": 139.7624554 }, "geometry": { "type": "Point", "coordinates": [ 139.7624554, 35.6931416 ] } },
{ "type": "Feature", "properties": { "name": "ローソン MC FOREST店", "lat": 35.6807543, "lon": 139.7621981 }, "geometry": { "type": "Point", "coordinates": [ 139.7621981, 35.6807543 ] } },
{ "type": "Feature", "properties": { "name": "ローソン 丸の内テラス店", "lat": 35.6812969, "lon": 139.766426 }, "geometry": { "type": "Point", "coordinates": [ 139.766426, 35.6812969 ] } },
{ "type": "Feature", "properties": { "name": "ローソン 内神田三丁目店", "lat": 35.6905562, "lon": 139.7692358 }, "geometry": { "type": "Point", "coordinates": [ 139.7692358, 35.6905562 ] } },
{ "type": "Feature", "properties": { "name": "ローソン 大手町フィナンシャルシティグランキューブ店", "lat": 35.6885692, "lon": 139.7647646 }, "geometry": { "type": "Point", "coordinates": [ 139.7647646, 35.6885692 ] } },
{ "type": "Feature", "properties": { "name": "ローソン 千代田富士見二丁目店", "lat": 35.6985839, "lon": 139.7440754 }, "geometry": { "type": "Point", "coordinates": [ 139.744075400000014, 35.6985839 ] } },
{ "type": "Feature", "properties": { "name": "ローソン 秋葉原スクエア店", "lat": 35.7013431, "lon": 139.7748727 }, "geometry": { "type": "Point", "coordinates": [ 139.7748727, 35.7013431 ] } },
{ "type": "Feature", "properties": { "name": "ローソン アキバ・トリム店", "lat": 35.697902, "lon": 139.7737145 }, "geometry": { "type": "Point", "coordinates": [ 139.773714500000011, 35.697902 ] } },
{ "type": "Feature", "properties": { "name": "ローソン JPローソン大手町プレイス地下2F店", "lat": 35.6868526, "lon": 139.7670773 }, "geometry": { "type": "Point", "coordinates": [ 139.767077300000011, 35.6868526 ] } },
{ "type": "Feature", "properties": { "name": "ローソン JPローソン大手町プレイス2F店", "lat": 35.6868526, "lon": 139.7670773 }, "geometry": { "type": "Point", "coordinates": [ 139.767077300000011, 35.6868526 ] } },
{ "type": "Feature", "properties": { "name": "ローソン 神田錦町店", "lat": 35.6917855, "lon": 139.7612064 }, "geometry": { "type": "Point", "coordinates": [ 139.7612064, 35.6917855 ] } },
{ "type": "Feature", "properties": { "name": "ファミリーマート 有楽町駅前店", "lat": 35.6744289, "lon": 139.7629618 }, "geometry": { "type": "Point", "coordinates": [ 139.7629618, 35.6744289 ] } },
{ "type": "Feature", "properties": { "name": "ファミリーマート 紀尾井町店", "lat": 35.6811765, "lon": 139.7380918 }, "geometry": { "type": "Point", "coordinates": [ 139.7380918, 35.6811765 ] } },
{ "type": "Feature", "properties": { "name": "ファミリーマート 御茶ノ水駅南店", "lat": 35.6990547, "lon": 139.7639942 }, "geometry": { "type": "Point", "coordinates": [ 139.763994200000013, 35.6990547 ] } },
{ "type": "Feature", "properties": { "name": "ローソン 神田スクエア店", "lat": 35.6931252, "lon": 139.7632042 }, "geometry": { "type": "Point", "coordinates": [ 139.7632042, 35.6931252 ] } },
{ "type": "Feature", "properties": { "name": "ファミリーマート 神田神保町一丁目店", "lat": 35.6949841, "lon": 139.7595086 }, "geometry": { "type": "Point", "coordinates": [ 139.7595086, 35.6949841 ] } },
{ "type": "Feature", "properties": { "name": "ファミリーマート 東京高等裁判所内店", "lat": 35.6751195, "lon": 139.7527599 }, "geometry": { "type": "Point", "coordinates": [ 139.7527599, 35.6751195 ] } },
{ "type": "Feature", "properties": { "name": "ファミリーマート 東京家庭裁判所内店", "lat": 35.674702, "lon": 139.753943 }, "geometry": { "type": "Point", "coordinates": [ 139.753943, 35.674702 ] } },
{ "type": "Feature", "properties": { "name": "ファミリーマート ファミマ東京ガーデンテラス店", "lat": 35.6799364, "lon": 139.7379442 }, "geometry": { "type": "Point", "coordinates": [ 139.737944199999987, 35.6799364 ] } },
{ "type": "Feature", "properties": { "name": "ファミリーマート ホテルマイステイズ御茶ノ水店", "lat": 35.6971201, "lon": 139.7684629 }, "geometry": { "type": "Point", "coordinates": [ 139.7684629, 35.6971201 ] } },
{ "type": "Feature", "properties": { "name": "ファミリーマート 薬ヒグチ淡路町店", "lat": 35.6948535, "lon": 139.76699 }, "geometry": { "type": "Point", "coordinates": [ 139.76699, 35.6948535 ] } },
{ "type": "Feature", "properties": { "name": "ローソン お茶の水サンクレール店", "lat": 35.6987986, "lon": 139.7651566 }, "geometry": { "type": "Point", "coordinates": [ 139.765156600000012, 35.6987986 ] } },
{ "type": "Feature", "properties": { "name": "ナチュラルローソン NL日本大学病院店", "lat": 35.697346, "lon": 139.762752 }, "geometry": { "type": "Point", "coordinates": [ 139.762752, 35.697346 ] } },
{ "type": "Feature", "properties": { "name": "ファミリーマート 内神田二丁目店", "lat": 35.692187, "lon": 139.7681241 }, "geometry": { "type": "Point", "coordinates": [ 139.7681241, 35.692187 ] } },
{ "type": "Feature", "properties": { "name": "ファミリーマート 神田神保町二丁目店", "lat": 35.6951716, "lon": 139.756312 }, "geometry": { "type": "Point", "coordinates": [ 139.756312, 35.6951716 ] } },
{ "type": "Feature", "properties": { "name": "ファミリーマート 日比谷シャンテ前店", "lat": 35.6731952, "lon": 139.7605159 }, "geometry": { "type": "Point", "coordinates": [ 139.7605159, 35.6731952 ] } },
{ "type": "Feature", "properties": { "name": "ファミリーマート ファミマ!!秋葉原UDX店", "lat": 35.7005495, "lon": 139.7726153 }, "geometry": { "type": "Point", "coordinates": [ 139.772615300000012, 35.7005495 ] } },
{ "type": "Feature", "properties": { "name": "ファミリーマート ファーマライズ薬局末広町店", "lat": 35.7041797, "lon": 139.7715745 }, "geometry": { "type": "Point", "coordinates": [ 139.771574500000014, 35.7041797 ] } },
{ "type": "Feature", "properties": { "name": "ファミリーマート 三崎神社通り店", "lat": 35.7003295, "lon": 139.7545467 }, "geometry": { "type": "Point", "coordinates": [ 139.7545467, 35.7003295 ] } },
{ "type": "Feature", "properties": { "name": "ファミリーマート 神田駿河台三丁目店", "lat": 35.6959916, "lon": 139.7639941 }, "geometry": { "type": "Point", "coordinates": [ 139.7639941, 35.6959916 ] } },
{ "type": "Feature", "properties": { "name": "ファミリーマート 飯田橋三丁目店", "lat": 35.7003937, "lon": 139.7486551 }, "geometry": { "type": "Point", "coordinates": [ 139.7486551, 35.7003937 ] } },
{ "type": "Feature", "properties": { "name": "ファミリーマート 水道橋西通り店", "lat": 35.701331, "lon": 139.7521722 }, "geometry": { "type": "Point", "coordinates": [ 139.7521722, 35.701331 ] } },
{ "type": "Feature", "properties": { "name": "ファミリーマート 飯田橋プラーノ店", "lat": 35.7010261, "lon": 139.7450049 }, "geometry": { "type": "Point", "coordinates": [ 139.7450049, 35.7010261 ] } },
{ "type": "Feature", "properties": { "name": "ファミリーマート ファミマサウスタワー店", "lat": 35.678574, "lon": 139.7672846 }, "geometry": { "type": "Point", "coordinates": [ 139.767284600000011, 35.678574 ] } },
{ "type": "Feature", "properties": { "name": "ファミリーマート テラススクエア店", "lat": 35.6935365, "lon": 139.7600094 }, "geometry": { "type": "Point", "coordinates": [ 139.7600094, 35.6935365 ] } },
{ "type": "Feature", "properties": { "name": "ファミリーマート 東神田二丁目店", "lat": 35.6955893, "lon": 139.7808274 }, "geometry": { "type": "Point", "coordinates": [ 139.7808274, 35.6955893 ] } },
{ "type": "Feature", "properties": { "name": "ファミリーマート パレスサイドビル店", "lat": 35.6909358, "lon": 139.7575803 }, "geometry": { "type": "Point", "coordinates": [ 139.7575803, 35.6909358 ] } },
{ "type": "Feature", "properties": { "name": "ファミリーマート 外神田一丁目店", "lat": 35.6995532, "lon": 139.7699603 }, "geometry": { "type": "Point", "coordinates": [ 139.7699603, 35.6995532 ] } },
{ "type": "Feature", "properties": { "name": "ファミリーマート 神田佐久間町店", "lat": 35.6974579, "lon": 139.7798156 }, "geometry": { "type": "Point", "coordinates": [ 139.7798156, 35.6974579 ] } },
{ "type": "Feature", "properties": { "name": "ファミリーマート 飯田橋二丁目店", "lat": 35.6990309, "lon": 139.7496559 }, "geometry": { "type": "Point", "coordinates": [ 139.7496559, 35.6990309 ] } },
{ "type": "Feature", "properties": { "name": "ファミリーマート 西神田二丁目店", "lat": 35.6990833, "lon": 139.7561687 }, "geometry": { "type": "Point", "coordinates": [ 139.756168699999989, 35.6990833 ] } },
{ "type": "Feature", "properties": { "name": "ファミリーマート 水道橋駅西口店", "lat": 35.7016236, "lon": 139.7531692 }, "geometry": { "type": "Point", "coordinates": [ 139.7531692, 35.7016236 ] } },
{ "type": "Feature", "properties": { "name": "ファミリーマート 神田西口店", "lat": 35.6909688, "lon": 139.7698293 }, "geometry": { "type": "Point", "coordinates": [ 139.7698293, 35.6909688 ] } },
{ "type": "Feature", "properties": { "name": "ファミリーマート 半蔵門駅南店", "lat": 35.6833053, "lon": 139.7418314 }, "geometry": { "type": "Point", "coordinates": [ 139.7418314, 35.6833053 ] } },
{ "type": "Feature", "properties": { "name": "ファミリーマート 神田駅北店", "lat": 35.6925279, "lon": 139.7696915 }, "geometry": { "type": "Point", "coordinates": [ 139.7696915, 35.6925279 ] } },
{ "type": "Feature", "properties": { "name": "ファミリーマート PCP丸の内店", "lat": 35.6782087, "lon": 139.7669714 }, "geometry": { "type": "Point", "coordinates": [ 139.766971399999989, 35.6782087 ] } },
{ "type": "Feature", "properties": { "name": "ファミリーマート 秋葉原駅前店", "lat": 35.6986098, "lon": 139.7763305 }, "geometry": { "type": "Point", "coordinates": [ 139.7763305, 35.6986098 ] } },
{ "type": "Feature", "properties": { "name": "ファミリーマート 千代田富士見二丁目店", "lat": 35.6992721, "lon": 139.7452745 }, "geometry": { "type": "Point", "coordinates": [ 139.7452745, 35.6992721 ] } },
{ "type": "Feature", "properties": { "name": "ファミリーマート 市ヶ谷店", "lat": 35.6916581, "lon": 139.7372533 }, "geometry": { "type": "Point", "coordinates": [ 139.7372533, 35.6916581 ] } },
{ "type": "Feature", "properties": { "name": "ファミリーマート 神田司町店", "lat": 35.6923842, "lon": 139.767644 }, "geometry": { "type": "Point", "coordinates": [ 139.767644, 35.6923842 ] } },
{ "type": "Feature", "properties": { "name": "ファミリーマート 飯田橋駅前店", "lat": 35.701394, "lon": 139.745983 }, "geometry": { "type": "Point", "coordinates": [ 139.745983, 35.701394 ] } },
{ "type": "Feature", "properties": { "name": "ファミリーマート 外神田三丁目東店", "lat": 35.7012631, "lon": 139.7711846 }, "geometry": { "type": "Point", "coordinates": [ 139.7711846, 35.7012631 ] } },
{ "type": "Feature", "properties": { "name": "ファミリーマート 神田和泉町店", "lat": 35.7003403, "lon": 139.7768897 }, "geometry": { "type": "Point", "coordinates": [ 139.7768897, 35.7003403 ] } },
{ "type": "Feature", "properties": { "name": "ファミリーマート ファミマ御茶ノ水ソラシティ店", "lat": 35.6985655, "lon": 139.7667214 }, "geometry": { "type": "Point", "coordinates": [ 139.7667214, 35.6985655 ] } },
{ "type": "Feature", "properties": { "name": "ファミリーマート 神田多町店", "lat": 35.6938363, "lon": 139.7697007 }, "geometry": { "type": "Point", "coordinates": [ 139.769700699999987, 35.6938363 ] } },
{ "type": "Feature", "properties": { "name": "ファミリーマート 秋葉原ラジオ会館店", "lat": 35.6979149, "lon": 139.7719571 }, "geometry": { "type": "Point", "coordinates": [ 139.7719571, 35.6979149 ] } },
{ "type": "Feature", "properties": { "name": "ファミリーマート 内神田一丁目店", "lat": 35.6915859, "lon": 139.765787 }, "geometry": { "type": "Point", "coordinates": [ 139.765787, 35.6915859 ] } },
{ "type": "Feature", "properties": { "name": "ファミリーマート 大手町ビル店", "lat": 35.6864055, "lon": 139.7648086 }, "geometry": { "type": "Point", "coordinates": [ 139.7648086, 35.6864055 ] } },
{ "type": "Feature", "properties": { "name": "ファミリーマート 神保町さくら通り店", "lat": 35.6951407, "lon": 139.7572039 }, "geometry": { "type": "Point", "coordinates": [ 139.7572039, 35.6951407 ] } },
{ "type": "Feature", "properties": { "name": "ファミリーマート ファーストスクエア店", "lat": 35.6859116, "lon": 139.7642044 }, "geometry": { "type": "Point", "coordinates": [ 139.764204400000011, 35.6859116 ] } },
{ "type": "Feature", "properties": { "name": "ファミリーマート 山王パークタワー店", "lat": 35.6730656, "lon": 139.740616 }, "geometry": { "type": "Point", "coordinates": [ 139.740616, 35.6730656 ] } },
{ "type": "Feature", "properties": { "name": "ファミリーマート 半蔵門駅前店", "lat": 35.6861064, "lon": 139.7425794 }, "geometry": { "type": "Point", "coordinates": [ 139.742579400000011, 35.6861064 ] } },
{ "type": "Feature", "properties": { "name": "ファミリーマート 九段下駅西店", "lat": 35.6943275, "lon": 139.7472289 }, "geometry": { "type": "Point", "coordinates": [ 139.74722890000001, 35.6943275 ] } },
{ "type": "Feature", "properties": { "name": "ファミリーマート 南山堂中央合同庁舎7号館店", "lat": 35.671849, "lon": 139.747976 }, "geometry": { "type": "Point", "coordinates": [ 139.747976, 35.671849 ] } },
{ "type": "Feature", "properties": { "name": "ファミリーマート 東京国際フォーラム店", "lat": 35.6774968, "lon": 139.7648069 }, "geometry": { "type": "Point", "coordinates": [ 139.7648069, 35.6774968 ] } },
{ "type": "Feature", "properties": { "name": "ファミリーマート 御茶ノ水とちの木通り店", "lat": 35.6987666, "lon": 139.7613835 }, "geometry": { "type": "Point", "coordinates": [ 139.7613835, 35.6987666 ] } },
{ "type": "Feature", "properties": { "name": "ファミリーマート 明大マート駿河台店", "lat": 35.6983536, "lon": 139.7621862 }, "geometry": { "type": "Point", "coordinates": [ 139.7621862, 35.6983536 ] } },
{ "type": "Feature", "properties": { "name": "ファミリーマート 九段会館テラス店", "lat": 35.6943111, "lon": 139.7514022 }, "geometry": { "type": "Point", "coordinates": [ 139.7514022, 35.6943111 ] } },
{ "type": "Feature", "properties": { "name": "ファミリーマート 千代田小川町店", "lat": 35.6947581, "lon": 139.7635907 }, "geometry": { "type": "Point", "coordinates": [ 139.7635907, 35.6947581 ] } },
{ "type": "Feature", "properties": { "name": "ファミリーマート 秋葉原駅中央口前店", "lat": 35.6979049, "lon": 139.7742137 }, "geometry": { "type": "Point", "coordinates": [ 139.7742137, 35.6979049 ] } },
{ "type": "Feature", "properties": { "name": "ファミリーマート 神田須田町二丁目店", "lat": 35.6960301, "lon": 139.7719971 }, "geometry": { "type": "Point", "coordinates": [ 139.7719971, 35.6960301 ] } },
{ "type": "Feature", "properties": { "name": "ファミリーマート FAMIMAfactory店", "lat": 35.6835045, "lon": 139.7665892 }, "geometry": { "type": "Point", "coordinates": [ 139.7665892, 35.6835045 ] } },
{ "type": "Feature", "properties": { "name": "ファミリーマート 水道橋駅東口店", "lat": 35.7013322, "lon": 139.7549209 }, "geometry": { "type": "Point", "coordinates": [ 139.7549209, 35.7013322 ] } },
{ "type": "Feature", "properties": { "name": "ファミリーマート 霞ヶ関合同庁舎店", "lat": 35.6739881, "lon": 139.7527367 }, "geometry": { "type": "Point", "coordinates": [ 139.752736700000014, 35.6739881 ] } },
{ "type": "Feature", "properties": { "name": "ファミリーマート 都道府県会館店", "lat": 35.6791752, "lon": 139.7389326 }, "geometry": { "type": "Point", "coordinates": [ 139.7389326, 35.6791752 ] } },
{ "type": "Feature", "properties": { "name": "ファミリーマート 神田淡路町二丁目店", "lat": 35.6969707, "lon": 139.766426 }, "geometry": { "type": "Point", "coordinates": [ 139.766426, 35.6969707 ] } },
{ "type": "Feature", "properties": { "name": "ファミリーマート 三崎町三丁目店", "lat": 35.7017753, "lon": 139.751245 }, "geometry": { "type": "Point", "coordinates": [ 139.751245, 35.7017753 ] } },
{ "type": "Feature", "properties": { "name": "ファミリーマート 秋葉原昭和通り店", "lat": 35.6990522, "lon": 139.7751523 }, "geometry": { "type": "Point", "coordinates": [ 139.7751523, 35.6990522 ] } },
{ "type": "Feature", "properties": { "name": "ファミリーマート 専大通り店", "lat": 35.6962848, "lon": 139.7549027 }, "geometry": { "type": "Point", "coordinates": [ 139.7549027, 35.6962848 ] } },
{ "type": "Feature", "properties": { "name": "ファミリーマート OOTEMORI店", "lat": 35.6858182, "lon": 139.7652112 }, "geometry": { "type": "Point", "coordinates": [ 139.76521120000001, 35.6858182 ] } },
{ "type": "Feature", "properties": { "name": "ファミリーマート 丸の内オアゾ店", "lat": 35.6835045, "lon": 139.7665892 }, "geometry": { "type": "Point", "coordinates": [ 139.7665892, 35.6835045 ] } },
{ "type": "Feature", "properties": { "name": "ファミリーマート 一番町店", "lat": 35.6868433, "lon": 139.7410165 }, "geometry": { "type": "Point", "coordinates": [ 139.7410165, 35.6868433 ] } },
{ "type": "Feature", "properties": { "name": "ファミリーマート 九段北一丁目店", "lat": 35.6960731, "lon": 139.7514225 }, "geometry": { "type": "Point", "coordinates": [ 139.7514225, 35.6960731 ] } },
{ "type": "Feature", "properties": { "name": "ファミリーマート 都営小川町店", "lat": 35.6951799, "lon": 139.7668774 }, "geometry": { "type": "Point", "coordinates": [ 139.7668774, 35.6951799 ] } },
{ "type": "Feature", "properties": { "name": "ファミリーマート TX秋葉原駅店", "lat": 35.698958, "lon": 139.7742547 }, "geometry": { "type": "Point", "coordinates": [ 139.7742547, 35.698958 ] } },
{ "type": "Feature", "properties": { "name": "ファミリーマート 神田鍛冶町三丁目店", "lat": 35.694241, "lon": 139.7709787 }, "geometry": { "type": "Point", "coordinates": [ 139.7709787, 35.694241 ] } },
{ "type": "Feature", "properties": { "name": "ファミリーマート 神田岩本町一丁目店", "lat": 35.6916635, "lon": 139.7751523 }, "geometry": { "type": "Point", "coordinates": [ 139.7751523, 35.6916635 ] } },
{ "type": "Feature", "properties": { "name": "セブンイレブン ワテラス店", "lat": 35.6975141, "lon": 139.7675829 }, "geometry": { "type": "Point", "coordinates": [ 139.7675829, 35.6975141 ] } },
{ "type": "Feature", "properties": { "name": "NEWDAYS MINI(ニューデイズミニ) 東ホ5C店", "lat": 35.6812362, "lon": 139.7671248 }, "geometry": { "type": "Point", "coordinates": [ 139.7671248, 35.6812362 ] } },
{ "type": "Feature", "properties": { "name": "デイリーヤマザキ 神田岩本町店", "lat": 35.6931483, "lon": 139.7789467 }, "geometry": { "type": "Point", "coordinates": [ 139.7789467, 35.6931483 ] } },
{ "type": "Feature", "properties": { "name": "デイリーヤマザキ 岩本町和泉橋店", "lat": 35.6963563, "lon": 139.7759189 }, "geometry": { "type": "Point", "coordinates": [ 139.7759189, 35.6963563 ] } },
{ "type": "Feature", "properties": { "name": "デイリーヤマザキ 岩本町3丁目店", "lat": 35.6951425, "lon": 139.7766696 }, "geometry": { "type": "Point", "coordinates": [ 139.7766696, 35.6951425 ] } },
{ "type": "Feature", "properties": { "name": "ニューヤマザキデイリーストア 九段坂病院店", "lat": 35.6937983, "lon": 139.7520633 }, "geometry": { "type": "Point", "coordinates": [ 139.7520633, 35.6937983 ] } },
{ "type": "Feature", "properties": { "name": "ファミリーマート 麹町二丁目店", "lat": 35.6835127, "lon": 139.7404044 }, "geometry": { "type": "Point", "coordinates": [ 139.740404399999989, 35.6835127 ] } },
{ "type": "Feature", "properties": { "name": "ファミリーマート 神田須田町一丁目店", "lat": 35.6953317, "lon": 139.7685325 }, "geometry": { "type": "Point", "coordinates": [ 139.7685325, 35.6953317 ] } },
{ "type": "Feature", "properties": { "name": "ファミリーマート 東京区政会館店", "lat": 35.7014445, "lon": 139.7473736 }, "geometry": { "type": "Point", "coordinates": [ 139.7473736, 35.7014445 ] } },
{ "type": "Feature", "properties": { "name": "ファミリーマート 財務省本庁舎店", "lat": 35.6731093, "lon": 139.7480227 }, "geometry": { "type": "Point", "coordinates": [ 139.7480227, 35.6731093 ] } },
{ "type": "Feature", "properties": { "name": "ファミリーマート 内幸町富国生命ビル店", "lat": 35.6706218, "lon": 139.7552022 }, "geometry": { "type": "Point", "coordinates": [ 139.755202200000014, 35.6706218 ] } },
{ "type": "Feature", "properties": { "name": "ファミリーマート 麹町三丁目店", "lat": 35.6843, "lon": 139.738824 }, "geometry": { "type": "Point", "coordinates": [ 139.738824, 35.6843 ] } },
{ "type": "Feature", "properties": { "name": "ファミリーマート 丸の内新国際ビル店", "lat": 35.6764213, "lon": 139.7620932 }, "geometry": { "type": "Point", "coordinates": [ 139.76209320000001, 35.6764213 ] } },
{ "type": "Feature", "properties": { "name": "NewDays(ニューデイズ) グランスタ丸の内北口店", "lat": 35.6818017, "lon": 139.7653891 }, "geometry": { "type": "Point", "coordinates": [ 139.7653891, 35.6818017 ] } },
{ "type": "Feature", "properties": { "name": "(株)オーキッド", "lat": 35.6936809, "lon": 139.7544922 }, "geometry": { "type": "Point", "coordinates": [ 139.754492199999987, 35.6936809 ] } },
{ "type": "Feature", "properties": { "name": "生活彩家 アーバンネット大手町店", "lat": 35.6858772, "lon": 139.7671082 }, "geometry": { "type": "Point", "coordinates": [ 139.7671082, 35.6858772 ] } },
{ "type": "Feature", "properties": { "name": "ニューデイズ秋葉原", "lat": 35.6979162, "lon": 139.772676 }, "geometry": { "type": "Point", "coordinates": [ 139.772676, 35.6979162 ] } },
{ "type": "Feature", "properties": { "name": "ニューデイズエキュートエディション有楽町日比谷口", "lat": 35.6747724, "lon": 139.762812 }, "geometry": { "type": "Point", "coordinates": [ 139.762812, 35.6747724 ] } },
{ "type": "Feature", "properties": { "name": "生活彩家 神田錦町店", "lat": 35.6917855, "lon": 139.7612064 }, "geometry": { "type": "Point", "coordinates": [ 139.7612064, 35.6917855 ] } },
{ "type": "Feature", "properties": { "name": "ニューデイズ東京八重洲南", "lat": 35.6817646, "lon": 139.7689006 }, "geometry": { "type": "Point", "coordinates": [ 139.7689006, 35.6817646 ] } },
{ "type": "Feature", "properties": { "name": "Mマート衆議院店", "lat": 35.6743713, "lon": 139.7429313 }, "geometry": { "type": "Point", "coordinates": [ 139.7429313, 35.6743713 ] } },
{ "type": "Feature", "properties": { "name": "リーベンハウス 秋葉原ファーストビル店", "lat": 35.69897, "lon": 139.769349 }, "geometry": { "type": "Point", "coordinates": [ 139.769349, 35.69897 ] } },
{ "type": "Feature", "properties": { "name": "生活彩家 秋葉原駅前店", "lat": 35.697902, "lon": 139.7737145 }, "geometry": { "type": "Point", "coordinates": [ 139.773714500000011, 35.697902 ] } },
{ "type": "Feature", "properties": { "name": "cisca霞が関コモンゲート店", "lat": 35.6714376, "lon": 139.7470935 }, "geometry": { "type": "Point", "coordinates": [ 139.7470935, 35.6714376 ] } },
{ "type": "Feature", "properties": { "name": "ニューデイズエキュートエディション御茶ノ水", "lat": 35.700322, "lon": 139.761055 }, "geometry": { "type": "Point", "coordinates": [ 139.761055, 35.700322 ] } },
{ "type": "Feature", "properties": { "name": "ニューデイズ東京新幹線ホ5A", "lat": 35.6817646, "lon": 139.7689006 }, "geometry": { "type": "Point", "coordinates": [ 139.7689006, 35.6817646 ] } },
{ "type": "Feature", "properties": { "name": "ニューデイズ飯田橋", "lat": 35.7021219, "lon": 139.7449152 }, "geometry": { "type": "Point", "coordinates": [ 139.7449152, 35.7021219 ] } },
{ "type": "Feature", "properties": { "name": "生活彩家神田東店", "lat": 35.6948457, "lon": 139.7734586 }, "geometry": { "type": "Point", "coordinates": [ 139.7734586, 35.6948457 ] } },
{ "type": "Feature", "properties": { "name": "ニューデイズ神田南口改札外", "lat": 35.6917479, "lon": 139.770799 }, "geometry": { "type": "Point", "coordinates": [ 139.770799, 35.6917479 ] } },
{ "type": "Feature", "properties": { "name": "ファミリーマート ホテルニュー神田店", "lat": 35.6971201, "lon": 139.7684629 }, "geometry": { "type": "Point", "coordinates": [ 139.7684629, 35.6971201 ] } },
{ "type": "Feature", "properties": { "name": "ニューヤマザキデイリーストア九段坂病院店", "lat": 35.6937983, "lon": 139.7520633 }, "geometry": { "type": "Point", "coordinates": [ 139.7520633, 35.6937983 ] } },
{ "type": "Feature", "properties": { "name": "シスカ(cisca)岩本町店", "lat": 35.6941792, "lon": 139.775488 }, "geometry": { "type": "Point", "coordinates": [ 139.775488, 35.6941792 ] } },
{ "type": "Feature", "properties": { "name": "ローソン 日本橋高島屋三井ビルディング店", "lat": 35.6814721, "lon": 139.7738269 }, "geometry": { "type": "Point", "coordinates": [ 139.773826899999989, 35.6814721 ] } },
{ "type": "Feature", "properties": { "name": "ファミリーマート 豊海町店", "lat": 35.6534719, "lon": 139.7697984 }, "geometry": { "type": "Point", "coordinates": [ 139.769798400000013, 35.6534719 ] } },
{ "type": "Feature", "properties": { "name": "ファミリーマート ヤエチカ店", "lat": 35.6802643, "lon": 139.7693083 }, "geometry": { "type": "Point", "coordinates": [ 139.7693083, 35.6802643 ] } },
{ "type": "Feature", "properties": { "name": "ナチュラルローソン 日本橋メトロピア店", "lat": 35.6821193, "lon": 139.7747086 }, "geometry": { "type": "Point", "coordinates": [ 139.7747086, 35.6821193 ] } },
{ "type": "Feature", "properties": { "name": "ローソン 築地四丁目店", "lat": 35.6661823, "lon": 139.7705593 }, "geometry": { "type": "Point", "coordinates": [ 139.7705593, 35.6661823 ] } },
{ "type": "Feature", "properties": { "name": "セブンイレブン 銀座8丁目店", "lat": 35.6684741, "lon": 139.759897 }, "geometry": { "type": "Point", "coordinates": [ 139.759897, 35.6684741 ] } },
{ "type": "Feature", "properties": { "name": "ファミリーマート IBM箱崎ビル店", "lat": 35.679294, "lon": 139.7867065 }, "geometry": { "type": "Point", "coordinates": [ 139.7867065, 35.679294 ] } },
{ "type": "Feature", "properties": { "name": "ファミリーマート 銀座御門通り店", "lat": 35.6679875, "lon": 139.7606142 }, "geometry": { "type": "Point", "coordinates": [ 139.7606142, 35.6679875 ] } },
{ "type": "Feature", "properties": { "name": "ローソン 銀座八丁目店", "lat": 35.6688505, "lon": 139.7597174 }, "geometry": { "type": "Point", "coordinates": [ 139.7597174, 35.6688505 ] } },
{ "type": "Feature", "properties": { "name": "ファミリーマート 水天宮前店", "lat": 35.6841407, "lon": 139.7845849 }, "geometry": { "type": "Point", "coordinates": [ 139.7845849, 35.6841407 ] } },
{ "type": "Feature", "properties": { "name": "セブンイレブン 歌舞伎座店", "lat": 35.6700095, "lon": 139.7679618 }, "geometry": { "type": "Point", "coordinates": [ 139.7679618, 35.6700095 ] } },
{ "type": "Feature", "properties": { "name": "ローソン ヤエチカ店", "lat": 35.6802643, "lon": 139.7693083 }, "geometry": { "type": "Point", "coordinates": [ 139.7693083, 35.6802643 ] } },
{ "type": "Feature", "properties": { "name": "セブンイレブン 日本橋室町3丁目店", "lat": 35.688285, "lon": 139.7734349 }, "geometry": { "type": "Point", "coordinates": [ 139.773434900000012, 35.688285 ] } },
{ "type": "Feature", "properties": { "name": "セブンイレブン 銀座地下街店", "lat": 35.6719859, "lon": 139.7635301 }, "geometry": { "type": "Point", "coordinates": [ 139.7635301, 35.6719859 ] } },
{ "type": "Feature", "properties": { "name": "セブンイレブン 京橋相互館110タワー店", "lat": 35.6757485, "lon": 139.7700801 }, "geometry": { "type": "Point", "coordinates": [ 139.7700801, 35.6757485 ] } },
{ "type": "Feature", "properties": { "name": "ローソン 八丁堀二丁目店", "lat": 35.6764105, "lon": 139.7782677 }, "geometry": { "type": "Point", "coordinates": [ 139.778267699999986, 35.6764105 ] } },
{ "type": "Feature", "properties": { "name": "ローソン 日本橋三丁目店", "lat": 35.6790006, "lon": 139.7730255 }, "geometry": { "type": "Point", "coordinates": [ 139.773025499999989, 35.6790006 ] } },
{ "type": "Feature", "properties": { "name": "ナチュラルローソン 佃二丁目店", "lat": 35.670408, "lon": 139.785025 }, "geometry": { "type": "Point", "coordinates": [ 139.785025, 35.670408 ] } },
{ "type": "Feature", "properties": { "name": "ナチュラルローソン NL銀座並木通店", "lat": 35.6695222, "lon": 139.7610351 }, "geometry": { "type": "Point", "coordinates": [ 139.761035099999987, 35.6695222 ] } },
{ "type": "Feature", "properties": { "name": "ファミリーマート K2銀座八丁目店", "lat": 35.6681854, "lon": 139.7601341 }, "geometry": { "type": "Point", "coordinates": [ 139.760134099999988, 35.6681854 ] } },
{ "type": "Feature", "properties": { "name": "ファミリーマート KABUTO ONE店", "lat": 35.68133, "lon": 139.7782611 }, "geometry": { "type": "Point", "coordinates": [ 139.7782611, 35.68133 ] } },
{ "type": "Feature", "properties": { "name": "ローソン 月島駅前店", "lat": 35.6640024, "lon": 139.7847954 }, "geometry": { "type": "Point", "coordinates": [ 139.7847954, 35.6640024 ] } },
{ "type": "Feature", "properties": { "name": "ローソン メトロス茅場町中央口店", "lat": 35.6802734, "lon": 139.7799069 }, "geometry": { "type": "Point", "coordinates": [ 139.779906899999986, 35.6802734 ] } },
{ "type": "Feature", "properties": { "name": "ミニストップ 宝町駅前店", "lat": 35.6754398, "lon": 139.7724731 }, "geometry": { "type": "Point", "coordinates": [ 139.772473100000013, 35.6754398 ] } },
{ "type": "Feature", "properties": { "name": "セブンイレブン 晴海店", "lat": 35.6527177, "lon": 139.7772643 }, "geometry": { "type": "Point", "coordinates": [ 139.777264300000013, 35.6527177 ] } },
{ "type": "Feature", "properties": { "name": "ファミリーマート 八丁堀駅前店", "lat": 35.6762955, "lon": 139.7775986 }, "geometry": { "type": "Point", "coordinates": [ 139.7775986, 35.6762955 ] } },
{ "type": "Feature", "properties": { "name": "セブンイレブン 晴海ウェーブガーデン店", "lat": 35.6556628, "lon": 139.78064 }, "geometry": { "type": "Point", "coordinates": [ 139.78064, 35.6556628 ] } },
{ "type": "Feature", "properties": { "name": "ファミリーマート 銀座桜通り店", "lat": 35.6753185, "lon": 139.7665458 }, "geometry": { "type": "Point", "coordinates": [ 139.766545799999989, 35.6753185 ] } },
{ "type": "Feature", "properties": { "name": "セブンイレブン TCAT2階店", "lat": 35.6822719, "lon": 139.7879338 }, "geometry": { "type": "Point", "coordinates": [ 139.7879338, 35.6822719 ] } },
{ "type": "Feature", "properties": { "name": "セブンイレブン 勝どきグロウスタウン店", "lat": 35.6607626, "lon": 139.7769579 }, "geometry": { "type": "Point", "coordinates": [ 139.776957900000014, 35.6607626 ] } },
{ "type": "Feature", "properties": { "name": "セブンイレブン 中央区新川2丁目店", "lat": 35.6753269, "lon": 139.7818577 }, "geometry": { "type": "Point", "coordinates": [ 139.781857699999989, 35.6753269 ] } },
{ "type": "Feature", "properties": { "name": "ローソン H入船一丁目店", "lat": 35.6728239, "lon": 139.7765462 }, "geometry": { "type": "Point", "coordinates": [ 139.776546200000013, 35.6728239 ] } },
{ "type": "Feature", "properties": { "name": "ローソン 東京日本橋店", "lat": 35.6835606, "lon": 139.7729193 }, "geometry": { "type": "Point", "coordinates": [ 139.772919300000012, 35.6835606 ] } },
{ "type": "Feature", "properties": { "name": "ローソン 築地二丁目店", "lat": 35.6671177, "lon": 139.7705282 }, "geometry": { "type": "Point", "coordinates": [ 139.7705282, 35.6671177 ] } },
{ "type": "Feature", "properties": { "name": "ファミリーマート HARUMI FLAG店", "lat": 35.6489011, "lon": 139.7729663 }, "geometry": { "type": "Point", "coordinates": [ 139.7729663, 35.6489011 ] } },
{ "type": "Feature", "properties": { "name": "ファミリーマート 日本橋浜町Fタワー店", "lat": 35.68557, "lon": 139.7886925 }, "geometry": { "type": "Point", "coordinates": [ 139.7886925, 35.68557 ] } },
{ "type": "Feature", "properties": { "name": "ローソン H銀座三丁目店", "lat": 35.6721033, "lon": 139.7678613 }, "geometry": { "type": "Point", "coordinates": [ 139.7678613, 35.6721033 ] } },
{ "type": "Feature", "properties": { "name": "セブンイレブン 日本橋TCAT店", "lat": 35.6815387, "lon": 139.7864911 }, "geometry": { "type": "Point", "coordinates": [ 139.7864911, 35.6815387 ] } },
{ "type": "Feature", "properties": { "name": "ミニストップ 日本橋本石町店", "lat": 35.6875489, "lon": 139.7704941 }, "geometry": { "type": "Point", "coordinates": [ 139.7704941, 35.6875489 ] } },
{ "type": "Feature", "properties": { "name": "ナチュラルローソン NL銀座三井ビル店", "lat": 35.6671058, "lon": 139.7632279 }, "geometry": { "type": "Point", "coordinates": [ 139.7632279, 35.6671058 ] } },
{ "type": "Feature", "properties": { "name": "ファミリーマート 銀座三丁目店", "lat": 35.6711196, "lon": 139.7690025 }, "geometry": { "type": "Point", "coordinates": [ 139.7690025, 35.6711196 ] } },
{ "type": "Feature", "properties": { "name": "ファミリーマート 築地市場前店", "lat": 35.6641635, "lon": 139.7718059 }, "geometry": { "type": "Point", "coordinates": [ 139.7718059, 35.6641635 ] } },
{ "type": "Feature", "properties": { "name": "ファミリーマート 宝町駅前店", "lat": 35.6747207, "lon": 139.7718015 }, "geometry": { "type": "Point", "coordinates": [ 139.7718015, 35.6747207 ] } },
{ "type": "Feature", "properties": { "name": "ローソン 東京ダイヤビルディング店", "lat": 35.6753368, "lon": 139.7839396 }, "geometry": { "type": "Point", "coordinates": [ 139.7839396, 35.6753368 ] } },
{ "type": "Feature", "properties": { "name": "ファミリーマート ホテルインターゲート東京 京橋店", "lat": 35.6754927, "lon": 139.7708075 }, "geometry": { "type": "Point", "coordinates": [ 139.770807499999989, 35.6754927 ] } },
{ "type": "Feature", "properties": { "name": "ナチュラルローソン 築地東劇ビル店", "lat": 35.6678242, "lon": 139.7686521 }, "geometry": { "type": "Point", "coordinates": [ 139.7686521, 35.6678242 ] } },
{ "type": "Feature", "properties": { "name": "ローソン 銀座四丁目昭和通店", "lat": 35.670226, "lon": 139.768273 }, "geometry": { "type": "Point", "coordinates": [ 139.768273, 35.670226 ] } },
{ "type": "Feature", "properties": { "name": "ローソン 築地六丁目店", "lat": 35.6639333, "lon": 139.7739996 }, "geometry": { "type": "Point", "coordinates": [ 139.7739996, 35.6639333 ] } },
{ "type": "Feature", "properties": { "name": "セブンイレブン 日本橋堀留町2丁目店", "lat": 35.6886051, "lon": 139.7805857 }, "geometry": { "type": "Point", "coordinates": [ 139.780585699999989, 35.6886051 ] } },
{ "type": "Feature", "properties": { "name": "セブンイレブン 銀座7丁目店", "lat": 35.6710638, "lon": 139.7604195 }, "geometry": { "type": "Point", "coordinates": [ 139.760419500000012, 35.6710638 ] } },
{ "type": "Feature", "properties": { "name": "セブンイレブン 晴海3丁目店", "lat": 35.6545919, "lon": 139.7785548 }, "geometry": { "type": "Point", "coordinates": [ 139.7785548, 35.6545919 ] } },
{ "type": "Feature", "properties": { "name": "セブンイレブン 八丁堀1丁目店", "lat": 35.6770352, "lon": 139.7786641 }, "geometry": { "type": "Point", "coordinates": [ 139.778664099999986, 35.6770352 ] } },
{ "type": "Feature", "properties": { "name": "ローソン 新富一丁目店", "lat": 35.6729899, "lon": 139.7738942 }, "geometry": { "type": "Point", "coordinates": [ 139.7738942, 35.6729899 ] } },
{ "type": "Feature", "properties": { "name": "ファミリーマート ファミマ東京ミッドタウン八重洲店", "lat": 35.6794084, "lon": 139.7689311 }, "geometry": { "type": "Point", "coordinates": [ 139.7689311, 35.6794084 ] } },
{ "type": "Feature", "properties": { "name": "ファミリーマート 銀座一丁目店", "lat": 35.6740541, "lon": 139.7705294 }, "geometry": { "type": "Point", "coordinates": [ 139.770529399999987, 35.6740541 ] } },
{ "type": "Feature", "properties": { "name": "ファミリーマート 銀座八丁目店", "lat": 35.6681009, "lon": 139.7625482 }, "geometry": { "type": "Point", "coordinates": [ 139.7625482, 35.6681009 ] } },
{ "type": "Feature", "properties": { "name": "ファミリーマート 八丁堀四丁目店", "lat": 35.6744456, "lon": 139.7764396 }, "geometry": { "type": "Point", "coordinates": [ 139.7764396, 35.6744456 ] } },
{ "type": "Feature", "properties": { "name": "セブンイレブン 勝どき5丁目店", "lat": 35.656267, "lon": 139.7727219 }, "geometry": { "type": "Point", "coordinates": [ 139.7727219, 35.656267 ] } },
{ "type": "Feature", "properties": { "name": "セブンイレブン 京橋1丁目店", "lat": 35.6783055, "lon": 139.7731263 }, "geometry": { "type": "Point", "coordinates": [ 139.7731263, 35.6783055 ] } },
{ "type": "Feature", "properties": { "name": "ファミリーマート 銀座二丁目店", "lat": 35.67476, "lon": 139.7657087 }, "geometry": { "type": "Point", "coordinates": [ 139.7657087, 35.67476 ] } },
{ "type": "Feature", "properties": { "name": "ファミリーマート 日本橋三井タワー店", "lat": 35.686898, "lon": 139.7730209 }, "geometry": { "type": "Point", "coordinates": [ 139.7730209, 35.686898 ] } },
{ "type": "Feature", "properties": { "name": "ファミリーマート 銀座松屋通り店", "lat": 35.6709259, "lon": 139.7678037 }, "geometry": { "type": "Point", "coordinates": [ 139.7678037, 35.6709259 ] } },
{ "type": "Feature", "properties": { "name": "セブンイレブン ベイシティ晴海店", "lat": 35.6557094, "lon": 139.779045 }, "geometry": { "type": "Point", "coordinates": [ 139.779045, 35.6557094 ] } },
{ "type": "Feature", "properties": { "name": "ファミリーマート 中央月島三丁目店", "lat": 35.6623318, "lon": 139.7815581 }, "geometry": { "type": "Point", "coordinates": [ 139.781558100000012, 35.6623318 ] } },
{ "type": "Feature", "properties": { "name": "ファミリーマート 茅場町駅東店", "lat": 35.6788067, "lon": 139.7825968 }, "geometry": { "type": "Point", "coordinates": [ 139.7825968, 35.6788067 ] } },
{ "type": "Feature", "properties": { "name": "ナチュラルローソン NL日本橋二丁目店", "lat": 35.682801, "lon": 139.772402 }, "geometry": { "type": "Point", "coordinates": [ 139.772402, 35.682801 ] } },
{ "type": "Feature", "properties": { "name": "ローソン 王子ホールディングス1号館店", "lat": 35.6693531, "lon": 139.7661429 }, "geometry": { "type": "Point", "coordinates": [ 139.7661429, 35.6693531 ] } },
{ "type": "Feature", "properties": { "name": "セブンイレブン 兜町東証前店", "lat": 35.6820945, "lon": 139.7788603 }, "geometry": { "type": "Point", "coordinates": [ 139.7788603, 35.6820945 ] } },
{ "type": "Feature", "properties": { "name": "セブンイレブン 銀座1丁目店", "lat": 35.6737081, "lon": 139.772041 }, "geometry": { "type": "Point", "coordinates": [ 139.772041, 35.6737081 ] } },
{ "type": "Feature", "properties": { "name": "ローソン 勝どき四丁目店", "lat": 35.6579213, "lon": 139.7759112 }, "geometry": { "type": "Point", "coordinates": [ 139.7759112, 35.6579213 ] } },
{ "type": "Feature", "properties": { "name": "ローソン 勝どき二丁目店", "lat": 35.6580977, "lon": 139.7784991 }, "geometry": { "type": "Point", "coordinates": [ 139.7784991, 35.6580977 ] } },
{ "type": "Feature", "properties": { "name": "ファミリーマート 勝どき駅前店", "lat": 35.6580701, "lon": 139.7769097 }, "geometry": { "type": "Point", "coordinates": [ 139.7769097, 35.6580701 ] } },
{ "type": "Feature", "properties": { "name": "セブンイレブン 中央区八丁堀4丁目店", "lat": 35.6745029, "lon": 139.7740356 }, "geometry": { "type": "Point", "coordinates": [ 139.7740356, 35.6745029 ] } },
{ "type": "Feature", "properties": { "name": "セブンイレブン 東銀座駅前店", "lat": 35.6690636, "lon": 139.7671765 }, "geometry": { "type": "Point", "coordinates": [ 139.7671765, 35.6690636 ] } },
{ "type": "Feature", "properties": { "name": "ファミリーマート 小伝馬町鞍掛橋店", "lat": 35.6921164, "lon": 139.7804446 }, "geometry": { "type": "Point", "coordinates": [ 139.78044460000001, 35.6921164 ] } },
{ "type": "Feature", "properties": { "name": "セブンイレブン 銀座3丁目店", "lat": 35.6697138, "lon": 139.7694675 }, "geometry": { "type": "Point", "coordinates": [ 139.7694675, 35.6697138 ] } },
{ "type": "Feature", "properties": { "name": "ミニストップ 新川1丁目店", "lat": 35.6762939, "lon": 139.784559 }, "geometry": { "type": "Point", "coordinates": [ 139.784559, 35.6762939 ] } },
{ "type": "Feature", "properties": { "name": "セブンイレブン 歌舞伎座タワー店", "lat": 35.6700095, "lon": 139.7679618 }, "geometry": { "type": "Point", "coordinates": [ 139.7679618, 35.6700095 ] } },
{ "type": "Feature", "properties": { "name": "セブンイレブン 日本橋人形町3丁目店", "lat": 35.6854873, "lon": 139.7799253 }, "geometry": { "type": "Point", "coordinates": [ 139.7799253, 35.6854873 ] } },
{ "type": "Feature", "properties": { "name": "セブンイレブン 日本橋小網町店", "lat": 35.6812364, "lon": 139.7814033 }, "geometry": { "type": "Point", "coordinates": [ 139.7814033, 35.6812364 ] } },
{ "type": "Feature", "properties": { "name": "セブンイレブン 東京住友ツインビル西館店", "lat": 35.6742729, "lon": 139.7843122 }, "geometry": { "type": "Point", "coordinates": [ 139.784312199999988, 35.6742729 ] } },
{ "type": "Feature", "properties": { "name": "セブンイレブン 日本橋小伝馬町店", "lat": 35.691341, "lon": 139.7790466 }, "geometry": { "type": "Point", "coordinates": [ 139.779046599999987, 35.691341 ] } },
{ "type": "Feature", "properties": { "name": "セブンイレブン 築地7丁目店", "lat": 35.6662506, "lon": 139.7745846 }, "geometry": { "type": "Point", "coordinates": [ 139.7745846, 35.6662506 ] } },
{ "type": "Feature", "properties": { "name": "セブンイレブン 銀座1丁目中央店", "lat": 35.6735585, "lon": 139.7690018 }, "geometry": { "type": "Point", "coordinates": [ 139.769001800000012, 35.6735585 ] } },
{ "type": "Feature", "properties": { "name": "セブンイレブン 人形町駅西店", "lat": 35.6855424, "lon": 139.7811093 }, "geometry": { "type": "Point", "coordinates": [ 139.7811093, 35.6855424 ] } },
{ "type": "Feature", "properties": { "name": "セブンイレブン 晴海2丁目店", "lat": 35.656888, "lon": 139.787052 }, "geometry": { "type": "Point", "coordinates": [ 139.787052, 35.656888 ] } },
{ "type": "Feature", "properties": { "name": "ローソン 銀座五丁目店", "lat": 35.6683215, "lon": 139.7667642 }, "geometry": { "type": "Point", "coordinates": [ 139.766764200000011, 35.6683215 ] } },
{ "type": "Feature", "properties": { "name": "セブンイレブン 中央区入船3丁目店", "lat": 35.6712566, "lon": 139.7757913 }, "geometry": { "type": "Point", "coordinates": [ 139.7757913, 35.6712566 ] } },
{ "type": "Feature", "properties": { "name": "セブンイレブン 勝どき駅前店", "lat": 35.6596412, "lon": 139.776622 }, "geometry": { "type": "Point", "coordinates": [ 139.776622, 35.6596412 ] } },
{ "type": "Feature", "properties": { "name": "セブンイレブン 銀座7丁目東店", "lat": 35.6671414, "lon": 139.7652553 }, "geometry": { "type": "Point", "coordinates": [ 139.7652553, 35.6671414 ] } },
{ "type": "Feature", "properties": { "name": "ファミリーマート 日本橋日銀通り店", "lat": 35.689095, "lon": 139.7714753 }, "geometry": { "type": "Point", "coordinates": [ 139.7714753, 35.689095 ] } },
{ "type": "Feature", "properties": { "name": "ファミリーマート 日本橋三越前店", "lat": 35.6850766, "lon": 139.774693 }, "geometry": { "type": "Point", "coordinates": [ 139.774693, 35.6850766 ] } },
{ "type": "Feature", "properties": { "name": "ファミリーマート 銀座木挽町通り店", "lat": 35.6686547, "lon": 139.7676775 }, "geometry": { "type": "Point", "coordinates": [ 139.7676775, 35.6686547 ] } },
{ "type": "Feature", "properties": { "name": "ローソン 東日本橋二丁目店", "lat": 35.6918814, "lon": 139.7856775 }, "geometry": { "type": "Point", "coordinates": [ 139.7856775, 35.6918814 ] } },
{ "type": "Feature", "properties": { "name": "ミニストップ 日本橋馬喰町2丁目店", "lat": 35.6954638, "lon": 139.7828075 }, "geometry": { "type": "Point", "coordinates": [ 139.7828075, 35.6954638 ] } },
{ "type": "Feature", "properties": { "name": "ファミリーマート 日本橋茅場町店", "lat": 35.6779178, "lon": 139.7792427 }, "geometry": { "type": "Point", "coordinates": [ 139.7792427, 35.6779178 ] } },
{ "type": "Feature", "properties": { "name": "ミニストップ 日本橋蛎殻町店", "lat": 35.682899, "lon": 139.7831805 }, "geometry": { "type": "Point", "coordinates": [ 139.783180499999986, 35.682899 ] } },
{ "type": "Feature", "properties": { "name": "セブンイレブン 日本橋1丁目昭和通り店", "lat": 35.6823393, "lon": 139.7765902 }, "geometry": { "type": "Point", "coordinates": [ 139.776590199999987, 35.6823393 ] } },
{ "type": "Feature", "properties": { "name": "ローソン パークタワー勝どきミッド店", "lat": 35.6571339, "lon": 139.7770555 }, "geometry": { "type": "Point", "coordinates": [ 139.777055499999989, 35.6571339 ] } },
{ "type": "Feature", "properties": { "name": "セブンイレブン 東京ミッドタウン八重洲店", "lat": 35.6794084, "lon": 139.7689311 }, "geometry": { "type": "Point", "coordinates": [ 139.7689311, 35.6794084 ] } },
{ "type": "Feature", "properties": { "name": "ナチュラルローソン 中央銀座一丁目店", "lat": 35.6731106, "lon": 139.7690179 }, "geometry": { "type": "Point", "coordinates": [ 139.7690179, 35.6731106 ] } },
{ "type": "Feature", "properties": { "name": "ファミリーマート 築地六丁目店", "lat": 35.6651627, "lon": 139.7723999 }, "geometry": { "type": "Point", "coordinates": [ 139.772399900000011, 35.6651627 ] } },
{ "type": "Feature", "properties": { "name": "ロボットマート 八丁堀店", "lat": 35.6742382, "lon": 139.7770095 }, "geometry": { "type": "Point", "coordinates": [ 139.7770095, 35.6742382 ] } },
{ "type": "Feature", "properties": { "name": "ミニストップ 東日本橋3丁目店", "lat": 35.6909254, "lon": 139.7843186 }, "geometry": { "type": "Point", "coordinates": [ 139.7843186, 35.6909254 ] } },
{ "type": "Feature", "properties": { "name": "生活彩家浜離宮三井ビル店", "lat": 35.6626906, "lon": 139.7649609 }, "geometry": { "type": "Point", "coordinates": [ 139.7649609, 35.6626906 ] } },
{ "type": "Feature", "properties": { "name": "セブンイレブン 築地日刊スポーツ本社店", "lat": 35.6679708, "lon": 139.7742568 }, "geometry": { "type": "Point", "coordinates": [ 139.774256799999989, 35.6679708 ] } },
{ "type": "Feature", "properties": { "name": "セブンイレブン 日本橋馬喰町店", "lat": 35.6941388, "lon": 139.7829481 }, "geometry": { "type": "Point", "coordinates": [ 139.7829481, 35.6941388 ] } },
{ "type": "Feature", "properties": { "name": "セブンイレブン 銀座2丁目店", "lat": 35.6714568, "lon": 139.7709188 }, "geometry": { "type": "Point", "coordinates": [ 139.7709188, 35.6714568 ] } },
{ "type": "Feature", "properties": { "name": "セブンイレブン 日本橋茅場町2丁目店", "lat": 35.6786679, "lon": 139.7790666 }, "geometry": { "type": "Point", "coordinates": [ 139.7790666, 35.6786679 ] } },
{ "type": "Feature", "properties": { "name": "セブンイレブン 小伝馬町駅前店", "lat": 35.690363, "lon": 139.7783518 }, "geometry": { "type": "Point", "coordinates": [ 139.7783518, 35.690363 ] } },
{ "type": "Feature", "properties": { "name": "セブンイレブン 日本橋蛎殻町店", "lat": 35.6833127, "lon": 139.7828924 }, "geometry": { "type": "Point", "coordinates": [ 139.7828924, 35.6833127 ] } },
{ "type": "Feature", "properties": { "name": "セブンイレブン 東日本橋3丁目店", "lat": 35.6912782, "lon": 139.7832207 }, "geometry": { "type": "Point", "coordinates": [ 139.783220699999987, 35.6912782 ] } },
{ "type": "Feature", "properties": { "name": "セブンイレブン 中央区新川1丁目店", "lat": 35.6769702, "lon": 139.7859599 }, "geometry": { "type": "Point", "coordinates": [ 139.7859599, 35.6769702 ] } },
{ "type": "Feature", "properties": { "name": "セブンイレブン 月島駅前店", "lat": 35.6638639, "lon": 139.7835803 }, "geometry": { "type": "Point", "coordinates": [ 139.783580300000011, 35.6638639 ] } },
{ "type": "Feature", "properties": { "name": "セブンイレブン 八丁堀2丁目店", "lat": 35.6762066, "lon": 139.7755015 }, "geometry": { "type": "Point", "coordinates": [ 139.7755015, 35.6762066 ] } },
{ "type": "Feature", "properties": { "name": "セブンイレブン 中央区佃2丁目店", "lat": 35.6661309, "lon": 139.7844453 }, "geometry": { "type": "Point", "coordinates": [ 139.784445299999987, 35.6661309 ] } },
{ "type": "Feature", "properties": { "name": "セブンイレブン 聖路加タワー店", "lat": 35.6666318, "lon": 139.7784923 }, "geometry": { "type": "Point", "coordinates": [ 139.778492300000011, 35.6666318 ] } },
{ "type": "Feature", "properties": { "name": "セブンイレブン 常盤橋店", "lat": 35.6849602, "lon": 139.7717899 }, "geometry": { "type": "Point", "coordinates": [ 139.771789899999987, 35.6849602 ] } },
{ "type": "Feature", "properties": { "name": "セブンイレブン 中央区役所前店", "lat": 35.6713546, "lon": 139.7725662 }, "geometry": { "type": "Point", "coordinates": [ 139.7725662, 35.6713546 ] } },
{ "type": "Feature", "properties": { "name": "セブンイレブン 日本橋浜町店", "lat": 35.6846354, "lon": 139.7866862 }, "geometry": { "type": "Point", "coordinates": [ 139.7866862, 35.6846354 ] } },
{ "type": "Feature", "properties": { "name": "セブンイレブン AIM太陽生命日本橋ビル店", "lat": 35.6804759, "lon": 139.7744393 }, "geometry": { "type": "Point", "coordinates": [ 139.774439300000012, 35.6804759 ] } },
{ "type": "Feature", "properties": { "name": "セブンイレブン 日本橋横山町店", "lat": 35.6945707, "lon": 139.7849584 }, "geometry": { "type": "Point", "coordinates": [ 139.7849584, 35.6945707 ] } },
{ "type": "Feature", "properties": { "name": "セブンイレブン 中央区築地2丁目店", "lat": 35.6698382, "lon": 139.7726944 }, "geometry": { "type": "Point", "coordinates": [ 139.7726944, 35.6698382 ] } },
{ "type": "Feature", "properties": { "name": "セブンイレブン 日本橋本町3丁目店", "lat": 35.6891307, "lon": 139.7763505 }, "geometry": { "type": "Point", "coordinates": [ 139.7763505, 35.6891307 ] } },
{ "type": "Feature", "properties": { "name": "セブンイレブン 晴海トリトンスクエア店", "lat": 35.6573718, "lon": 139.7827814 }, "geometry": { "type": "Point", "coordinates": [ 139.7827814, 35.6573718 ] } },
{ "type": "Feature", "properties": { "name": "セブンイレブン 中央区明石町店", "lat": 35.6688722, "lon": 139.7775188 }, "geometry": { "type": "Point", "coordinates": [ 139.7775188, 35.6688722 ] } },
{ "type": "Feature", "properties": { "name": "セブンイレブン 日本橋2丁目店", "lat": 35.6816953, "lon": 139.7718206 }, "geometry": { "type": "Point", "coordinates": [ 139.771820600000012, 35.6816953 ] } },
{ "type": "Feature", "properties": { "name": "セブンイレブン 馬喰町駅前店", "lat": 35.692577, "lon": 139.78181 }, "geometry": { "type": "Point", "coordinates": [ 139.78181, 35.692577 ] } },
{ "type": "Feature", "properties": { "name": "セブンイレブン 茅場町駅前店", "lat": 35.679976, "lon": 139.779466 }, "geometry": { "type": "Point", "coordinates": [ 139.779466, 35.679976 ] } },
{ "type": "Feature", "properties": { "name": "セブンイレブン 京橋駅前店", "lat": 35.6768755, "lon": 139.7705168 }, "geometry": { "type": "Point", "coordinates": [ 139.7705168, 35.6768755 ] } },
{ "type": "Feature", "properties": { "name": "セブンイレブン 日本橋兜町店", "lat": 35.6793571, "lon": 139.7763127 }, "geometry": { "type": "Point", "coordinates": [ 139.7763127, 35.6793571 ] } },
{ "type": "Feature", "properties": { "name": "セブンイレブン 中央区月島1丁目店", "lat": 35.6655577, "lon": 139.783061 }, "geometry": { "type": "Point", "coordinates": [ 139.783061, 35.6655577 ] } },
{ "type": "Feature", "properties": { "name": "セブンイレブン 京橋エドグランフロアスリー店", "lat": 35.6773026, "lon": 139.7698405 }, "geometry": { "type": "Point", "coordinates": [ 139.769840499999987, 35.6773026 ] } },
{ "type": "Feature", "properties": { "name": "セブンイレブン 銀座6丁目中央店", "lat": 35.6689975, "lon": 139.7644692 }, "geometry": { "type": "Point", "coordinates": [ 139.7644692, 35.6689975 ] } },
{ "type": "Feature", "properties": { "name": "セブンイレブン 馬喰横山駅前店", "lat": 35.6908278, "lon": 139.7838436 }, "geometry": { "type": "Point", "coordinates": [ 139.783843600000012, 35.6908278 ] } },
{ "type": "Feature", "properties": { "name": "セブンイレブン 銀座7丁目中央店", "lat": 35.6678667, "lon": 139.7635754 }, "geometry": { "type": "Point", "coordinates": [ 139.7635754, 35.6678667 ] } },
{ "type": "Feature", "properties": { "name": "セブンイレブン 銀座ファイブ店", "lat": 35.6697514, "lon": 139.7674243 }, "geometry": { "type": "Point", "coordinates": [ 139.767424299999988, 35.6697514 ] } },
{ "type": "Feature", "properties": { "name": "セブンイレブン KOYO聖路加国際病院店", "lat": 35.6673088, "lon": 139.7772975 }, "geometry": { "type": "Point", "coordinates": [ 139.7772975, 35.6673088 ] } },
{ "type": "Feature", "properties": { "name": "セブンイレブン 日本橋久松町店", "lat": 35.6894671, "lon": 139.7849805 }, "geometry": { "type": "Point", "coordinates": [ 139.784980499999989, 35.6894671 ] } },
{ "type": "Feature", "properties": { "name": "セブンイレブン DR東京京橋ロイネット店", "lat": 35.67737, "lon": 139.7708589 }, "geometry": { "type": "Point", "coordinates": [ 139.7708589, 35.67737 ] } },
{ "type": "Feature", "properties": { "name": "セブンイレブン 新川1丁目中央店", "lat": 35.6783527, "lon": 139.7816419 }, "geometry": { "type": "Point", "coordinates": [ 139.781641900000011, 35.6783527 ] } },
{ "type": "Feature", "properties": { "name": "セブンイレブン 銀座6丁目中央店", "lat": 35.6690745, "lon": 139.7648907 }, "geometry": { "type": "Point", "coordinates": [ 139.7648907, 35.6690745 ] } },
{ "type": "Feature", "properties": { "name": "セブンイレブン 中央区湊1丁目店", "lat": 35.6719372, "lon": 139.7806244 }, "geometry": { "type": "Point", "coordinates": [ 139.7806244, 35.6719372 ] } },
{ "type": "Feature", "properties": { "name": "セブンイレブン 水天宮前店", "lat": 35.6831929, "lon": 139.784776 }, "geometry": { "type": "Point", "coordinates": [ 139.784776, 35.6831929 ] } },
{ "type": "Feature", "properties": { "name": "セブンイレブン 日本橋人形町2丁目店", "lat": 35.6871259, "lon": 139.7839305 }, "geometry": { "type": "Point", "coordinates": [ 139.7839305, 35.6871259 ] } },
{ "type": "Feature", "properties": { "name": "セブンイレブン 日本橋本町1丁目店", "lat": 35.6851714, "lon": 139.7775644 }, "geometry": { "type": "Point", "coordinates": [ 139.777564399999989, 35.6851714 ] } },
{ "type": "Feature", "properties": { "name": "セブンイレブン 日本橋本石町3丁目店", "lat": 35.6878726, "lon": 139.7716676 }, "geometry": { "type": "Point", "coordinates": [ 139.7716676, 35.6878726 ] } },
{ "type": "Feature", "properties": { "name": "セブンイレブン 築地駅前店", "lat": 35.6680013, "lon": 139.7717816 }, "geometry": { "type": "Point", "coordinates": [ 139.7717816, 35.6680013 ] } },
{ "type": "Feature", "properties": { "name": "セブンイレブン 東日本橋駅前店", "lat": 35.6922186, "lon": 139.7846389 }, "geometry": { "type": "Point", "coordinates": [ 139.7846389, 35.6922186 ] } },
{ "type": "Feature", "properties": { "name": "セブンイレブン TODA BUILDING店", "lat": 35.6783071, "lon": 139.771662 }, "geometry": { "type": "Point", "coordinates": [ 139.771662, 35.6783071 ] } },
{ "type": "Feature", "properties": { "name": "ローソン 晴海トリトンスクエア店", "lat": 35.6573718, "lon": 139.7827814 }, "geometry": { "type": "Point", "coordinates": [ 139.7827814, 35.6573718 ] } },
{ "type": "Feature", "properties": { "name": "ローソン 入船店", "lat": 35.6712717, "lon": 139.7776505 }, "geometry": { "type": "Point", "coordinates": [ 139.7776505, 35.6712717 ] } },
{ "type": "Feature", "properties": { "name": "ローソン 日本橋茅場町店", "lat": 35.6788865, "lon": 139.7798007 }, "geometry": { "type": "Point", "coordinates": [ 139.77980070000001, 35.6788865 ] } },
{ "type": "Feature", "properties": { "name": "NewDaysミニ 馬喰町1号", "lat": 35.6929145, "lon": 139.782302 }, "geometry": { "type": "Point", "coordinates": [ 139.782302, 35.6929145 ] } },
{ "type": "Feature", "properties": { "name": "ローソン 八重洲一丁目店", "lat": 35.6829098, "lon": 139.7718373 }, "geometry": { "type": "Point", "coordinates": [ 139.771837299999987, 35.6829098 ] } },
{ "type": "Feature", "properties": { "name": "ローソン H八丁堀四丁目店", "lat": 35.6743931, "lon": 139.7787708 }, "geometry": { "type": "Point", "coordinates": [ 139.7787708, 35.6743931 ] } },
{ "type": "Feature", "properties": { "name": "ローソン 日本橋浜町二丁目店", "lat": 35.6876083, "lon": 139.7863049 }, "geometry": { "type": "Point", "coordinates": [ 139.7863049, 35.6876083 ] } },
{ "type": "Feature", "properties": { "name": "ローソン 築地五丁目店", "lat": 35.6623322, "lon": 139.7656073 }, "geometry": { "type": "Point", "coordinates": [ 139.7656073, 35.6623322 ] } },
{ "type": "Feature", "properties": { "name": "ナチュラルローソン 銀座二丁目店", "lat": 35.6708895, "lon": 139.7702063 }, "geometry": { "type": "Point", "coordinates": [ 139.770206300000012, 35.6708895 ] } },
{ "type": "Feature", "properties": { "name": "ナチュラルローソン 新川一丁目店", "lat": 35.6767456, "lon": 139.7852427 }, "geometry": { "type": "Point", "coordinates": [ 139.7852427, 35.6767456 ] } },
{ "type": "Feature", "properties": { "name": "ナチュラルローソン NL新川二丁目店", "lat": 35.6744861, "lon": 139.7818996 }, "geometry": { "type": "Point", "coordinates": [ 139.7818996, 35.6744861 ] } },
{ "type": "Feature", "properties": { "name": "ナチュラルローソン 京橋一丁目店", "lat": 35.6785268, "lon": 139.7726295 }, "geometry": { "type": "Point", "coordinates": [ 139.7726295, 35.6785268 ] } },
{ "type": "Feature", "properties": { "name": "ナチュラルローソン 東京スクエアガーデン3階店", "lat": 35.6758859, "lon": 139.7686226 }, "geometry": { "type": "Point", "coordinates": [ 139.768622599999986, 35.6758859 ] } },
{ "type": "Feature", "properties": { "name": "ローソン H月島四丁目店", "lat": 35.6611178, "lon": 139.7837142 }, "geometry": { "type": "Point", "coordinates": [ 139.7837142, 35.6611178 ] } },
{ "type": "Feature", "properties": { "name": "NewDaysミニ 新日本橋1号", "lat": 35.6890342, "lon": 139.773303 }, "geometry": { "type": "Point", "coordinates": [ 139.773303, 35.6890342 ] } },
{ "type": "Feature", "properties": { "name": "ローソン 日本橋本町二丁目店", "lat": 35.6874401, "lon": 139.7753047 }, "geometry": { "type": "Point", "coordinates": [ 139.7753047, 35.6874401 ] } },
{ "type": "Feature", "properties": { "name": "ローソン 東銀座駅前店", "lat": 35.6688349, "lon": 139.7684603 }, "geometry": { "type": "Point", "coordinates": [ 139.768460299999987, 35.6688349 ] } },
{ "type": "Feature", "properties": { "name": "ローソン 佃二丁目店", "lat": 35.6685409, "lon": 139.7855859 }, "geometry": { "type": "Point", "coordinates": [ 139.7855859, 35.6685409 ] } },
{ "type": "Feature", "properties": { "name": "ローソン 新富町メトロピア店", "lat": 35.6712335, "lon": 139.7726894 }, "geometry": { "type": "Point", "coordinates": [ 139.7726894, 35.6712335 ] } },
{ "type": "Feature", "properties": { "name": "ローソン 中央晴海三丁目店", "lat": 35.654995, "lon": 139.7806156 }, "geometry": { "type": "Point", "coordinates": [ 139.7806156, 35.654995 ] } },
{ "type": "Feature", "properties": { "name": "ローソン 日本橋蛎殻町一丁目店", "lat": 35.6837576, "lon": 139.7813833 }, "geometry": { "type": "Point", "coordinates": [ 139.781383299999987, 35.6837576 ] } },
{ "type": "Feature", "properties": { "name": "ローソン H月島勝どき店", "lat": 35.660619, "lon": 139.780961 }, "geometry": { "type": "Point", "coordinates": [ 139.780961, 35.660619 ] } },
{ "type": "Feature", "properties": { "name": "ローソン H新川二丁目店", "lat": 35.6751352, "lon": 139.7825666 }, "geometry": { "type": "Point", "coordinates": [ 139.7825666, 35.6751352 ] } },
{ "type": "Feature", "properties": { "name": "ローソン 日本橋横山町店", "lat": 35.6919928, "lon": 139.7817029 }, "geometry": { "type": "Point", "coordinates": [ 139.7817029, 35.6919928 ] } },
{ "type": "Feature", "properties": { "name": "ローソン H築地三丁目店", "lat": 35.6693441, "lon": 139.7744931 }, "geometry": { "type": "Point", "coordinates": [ 139.7744931, 35.6693441 ] } },
{ "type": "Feature", "properties": { "name": "ローソンサテライト 清水建設新社屋店", "lat": 35.6764487, "lon": 139.7730313 }, "geometry": { "type": "Point", "coordinates": [ 139.773031300000014, 35.6764487 ] } },
{ "type": "Feature", "properties": { "name": "ローソン 銀座七丁目店", "lat": 35.6665933, "lon": 139.7651297 }, "geometry": { "type": "Point", "coordinates": [ 139.765129699999989, 35.6665933 ] } },
{ "type": "Feature", "properties": { "name": "ローソン 日本橋箱崎店", "lat": 35.6799556, "lon": 139.7869602 }, "geometry": { "type": "Point", "coordinates": [ 139.78696020000001, 35.6799556 ] } },
{ "type": "Feature", "properties": { "name": "ローソン 東京スクエアガーデン店", "lat": 35.6759641, "lon": 139.7686818 }, "geometry": { "type": "Point", "coordinates": [ 139.7686818, 35.6759641 ] } },
{ "type": "Feature", "properties": { "name": "ローソン 箱崎湊橋店", "lat": 35.680024, "lon": 139.7851382 }, "geometry": { "type": "Point", "coordinates": [ 139.7851382, 35.680024 ] } },
{ "type": "Feature", "properties": { "name": "ファミリーマート 月島三丁目店", "lat": 35.6608355, "lon": 139.7787071 }, "geometry": { "type": "Point", "coordinates": [ 139.7787071, 35.6608355 ] } },
{ "type": "Feature", "properties": { "name": "ローソンストア100 LS築地七丁目店", "lat": 35.6656639, "lon": 139.774503 }, "geometry": { "type": "Point", "coordinates": [ 139.774503, 35.6656639 ] } },
{ "type": "Feature", "properties": { "name": "ファミリーマート 新川二丁目店", "lat": 35.6765523, "lon": 139.7813656 }, "geometry": { "type": "Point", "coordinates": [ 139.781365599999987, 35.6765523 ] } },
{ "type": "Feature", "properties": { "name": "ファミリーマート 日本橋かきがら町店", "lat": 35.682022, "lon": 139.7857374 }, "geometry": { "type": "Point", "coordinates": [ 139.785737399999988, 35.682022 ] } },
{ "type": "Feature", "properties": { "name": "ローソン 日本橋茅場町一丁目店", "lat": 35.6797228, "lon": 139.7811886 }, "geometry": { "type": "Point", "coordinates": [ 139.7811886, 35.6797228 ] } },
{ "type": "Feature", "properties": { "name": "ファミリーマート 八丁堀二丁目店", "lat": 35.6758924, "lon": 139.7768955 }, "geometry": { "type": "Point", "coordinates": [ 139.7768955, 35.6758924 ] } },
{ "type": "Feature", "properties": { "name": "ローソン GINZA SIX店", "lat": 35.6695455, "lon": 139.7640451 }, "geometry": { "type": "Point", "coordinates": [ 139.7640451, 35.6695455 ] } },