{
"type": "FeatureCollection",
"crs": { "type": "name", "properties": { "name": "urn:ogc:def:crs:OGC:1.3:CRS84" } },
"features": [
{ "type": "Feature", "properties": { "name": "東京ビッグサイト(東京国際展示場)", "lat": 35.62982, "lon": 139.79445 }, "geometry": { "type": "Point", "coordinates": [ 139.79445, 35.62982 ] } },
{ "type": "Feature", "properties": { "name": "東京ファッションタウン(TFT)ビル", "lat": 35.63063, "lon": 139.78513 }, "geometry": { "type": "Point", "coordinates": [ 139.78513, 35.63063 ] } },
{ "type": "Feature", "properties": { "name": "日本科学未来館", "lat": 35.61934, "lon": 139.77646 }, "geometry": { "type": "Point", "coordinates": [ 139.77646, 35.61934 ] } },
{ "type": "Feature", "properties": { "name": "ＴＯＣ有明Convention Hall", "lat": 35.63263, "lon": 139.78893 }, "geometry": { "type": "Point", "coordinates": [ 139.78893, 35.63263 ] } },
{ "type": "Feature", "properties": { "name": "東京国際交流館 プラザ平成", "lat": 35.6205, "lon": 139.77542 }, "geometry": { "type": "Point", "coordinates": [ 139.77542, 35.6205 ] } },
{ "type": "Feature", "properties": { "name": "タイム24ビル", "lat": 35.61745, "lon": 139.77708 }, "geometry": { "type": "Point", "coordinates": [ 139.77708, 35.61745 ] } },
{ "type": "Feature", "properties": { "name": "テレコムセンタービル", "lat": 35.61681, "lon": 139.78021 }, "geometry": { "type": "Point", "coordinates": [ 139.78021, 35.61681 ] } },
{ "type": "Feature", "properties": { "name": "有明コロシアム", "lat": 35.63533, "lon": 139.78816 }, "geometry": { "type": "Point", "coordinates": [ 139.78816, 35.63533 ] } },
{ "type": "Feature", "properties": { "name": "東京ベイ有明ワシントンホテル", "lat": 35.63363, "lon": 139.79247 }, "geometry": { "type": "Point", "coordinates": [ 139.79247, 35.63363 ] } },
{ "type": "Feature", "properties": { "name": "相鉄グランドフレッサ東京ベイ有明", "lat": 35.63221, "lon": 139.78952 }, "geometry": { "type": "Point", "coordinates": [ 139.78952, 35.63221 ] } },
{ "type": "Feature", "properties": { "name": "江東公会堂(ティアラこうとう)", "lat": 35.68848, "lon": 139.81819 }, "geometry": { "type": "Point", "coordinates": [ 139.81819, 35.68848 ] } },
{ "type": "Feature", "properties": { "name": "東京都現代美術館", "lat": 35.67979, "lon": 139.80807 }, "geometry": { "type": "Point", "coordinates": [ 139.80807, 35.67979 ] } },
{ "type": "Feature", "properties": { "name": "木材会館", "lat": 35.64397, "lon": 139.82684 }, "geometry": { "type": "Point", "coordinates": [ 139.82684, 35.64397 ] } },
{ "type": "Feature", "properties": { "name": "ホテル イースト21東京", "lat": 35.67483, "lon": 139.81483 }, "geometry": { "type": "Point", "coordinates": [ 139.81483, 35.67483 ] } },
{ "type": "Feature", "properties": { "name": "東京ガーデンシアター", "lat": 35.63832, "lon": 139.79355 }, "geometry": { "type": "Point", "coordinates": [ 139.79355, 35.63832 ] } },
{ "type": "Feature", "properties": { "name": "有明セントラルタワーホール＆カンファレンス", "lat": 35.63363, "lon": 139.79247 }, "geometry": { "type": "Point", "coordinates": [ 139.79247, 35.63363 ] } },
{ "type": "Feature", "properties": { "name": "有明GYM-EX（ジメックス）", "lat": 35.64157, "lon": 139.79213 }, "geometry": { "type": "Point", "coordinates": [ 139.79213, 35.64157 ] } },
{ "type": "Feature", "properties": { "name": "Zepp DiverCity(TOKYO)", "lat": 35.62326, "lon": 139.77377 }, "geometry": { "type": "Point", "coordinates": [ 139.77377, 35.62326 ] } },
{ "type": "Feature", "properties": { "name": "有明アリーナ", "lat": 35.6434, "lon": 139.79482 }, "geometry": { "type": "Point", "coordinates": [ 139.79482, 35.6434 ] } },
{ "type": "Feature", "properties": { "name": "ニッショーホール", "lat": 35.666, "lon": 139.76027 }, "geometry": { "type": "Point", "coordinates": [ 139.76027, 35.666 ] } },
{ "type": "Feature", "properties": { "name": "コンラッド東京", "lat": 35.6625, "lon": 139.76089 }, "geometry": { "type": "Point", "coordinates": [ 139.76089, 35.6625 ] } },
{ "type": "Feature", "properties": { "name": "第一ホテル東京", "lat": 35.66873, "lon": 139.75735 }, "geometry": { "type": "Point", "coordinates": [ 139.75735, 35.66873 ] } },
{ "type": "Feature", "properties": { "name": "東京ミッドタウン ホール& カンファレンス", "lat": 35.66602, "lon": 139.73221 }, "geometry": { "type": "Point", "coordinates": [ 139.73221, 35.66602 ] } },
{ "type": "Feature", "properties": { "name": "泉ガーデンギャラリー", "lat": 35.66464, "lon": 139.74081 }, "geometry": { "type": "Point", "coordinates": [ 139.74081, 35.66464 ] } },
{ "type": "Feature", "properties": { "name": "草月ホール", "lat": 35.67384, "lon": 139.72997 }, "geometry": { "type": "Point", "coordinates": [ 139.72997, 35.67384 ] } },
{ "type": "Feature", "properties": { "name": "国際文化会館", "lat": 35.65844, "lon": 139.7334 }, "geometry": { "type": "Point", "coordinates": [ 139.7334, 35.65844 ] } },
{ "type": "Feature", "properties": { "name": "オークラ東京", "lat": 35.66731, "lon": 139.74419 }, "geometry": { "type": "Point", "coordinates": [ 139.74419, 35.66731 ] } },
{ "type": "Feature", "properties": { "name": "ANAインターコンチネンタルホテル東京", "lat": 35.66734, "lon": 139.7413 }, "geometry": { "type": "Point", "coordinates": [ 139.7413, 35.66734 ] } },
{ "type": "Feature", "properties": { "name": "グランド ハイアット 東京", "lat": 35.66021, "lon": 139.7292 }, "geometry": { "type": "Point", "coordinates": [ 139.7292, 35.66021 ] } },
{ "type": "Feature", "properties": { "name": "ザ・リッツ・カールトン東京", "lat": 35.66602, "lon": 139.73221 }, "geometry": { "type": "Point", "coordinates": [ 139.73221, 35.66602 ] } },
{ "type": "Feature", "properties": { "name": "虎ノ門ヒルズフォーラム", "lat": 35.66683, "lon": 139.74921 }, "geometry": { "type": "Point", "coordinates": [ 139.74921, 35.66683 ] } },
{ "type": "Feature", "properties": { "name": "アンダーズ 東京", "lat": 35.66683, "lon": 139.74921 }, "geometry": { "type": "Point", "coordinates": [ 139.74921, 35.66683 ] } },
{ "type": "Feature", "properties": { "name": "グランドニッコー東京 台場", "lat": 35.6251, "lon": 139.7715 }, "geometry": { "type": "Point", "coordinates": [ 139.7715, 35.6251 ] } },
{ "type": "Feature", "properties": { "name": "ヒルトン東京お台場", "lat": 35.6262, "lon": 139.77065 }, "geometry": { "type": "Point", "coordinates": [ 139.77065, 35.6262 ] } },
{ "type": "Feature", "properties": { "name": "東京コンファレンスセンター・品川", "lat": 35.63068, "lon": 139.74197 }, "geometry": { "type": "Point", "coordinates": [ 139.74197, 35.63068 ] } },
{ "type": "Feature", "properties": { "name": "品川インターシティホール", "lat": 35.62634, "lon": 139.742 }, "geometry": { "type": "Point", "coordinates": [ 139.742, 35.62634 ] } },
{ "type": "Feature", "properties": { "name": "八芳園", "lat": 35.63879, "lon": 139.72981 }, "geometry": { "type": "Point", "coordinates": [ 139.72981, 35.63879 ] } },
{ "type": "Feature", "properties": { "name": "グランドプリンスホテル新高輪", "lat": 35.63071, "lon": 139.73395 }, "geometry": { "type": "Point", "coordinates": [ 139.73395, 35.63071 ] } },
{ "type": "Feature", "properties": { "name": "グランドプリンスホテル高輪", "lat": 35.63071, "lon": 139.73395 }, "geometry": { "type": "Point", "coordinates": [ 139.73395, 35.63071 ] } },
{ "type": "Feature", "properties": { "name": "品川プリンスホテル", "lat": 35.62857, "lon": 139.73698 }, "geometry": { "type": "Point", "coordinates": [ 139.73698, 35.62857 ] } },
{ "type": "Feature", "properties": { "name": "ザ・プリンス さくらタワー東京", "lat": 35.63071, "lon": 139.73395 }, "geometry": { "type": "Point", "coordinates": [ 139.73395, 35.63071 ] } },
{ "type": "Feature", "properties": { "name": "シェラトン都ホテル東京", "lat": 35.63879, "lon": 139.72981 }, "geometry": { "type": "Point", "coordinates": [ 139.72981, 35.63879 ] } },
{ "type": "Feature", "properties": { "name": "メルパルク東京", "lat": 35.65553, "lon": 139.75146 }, "geometry": { "type": "Point", "coordinates": [ 139.75146, 35.65553 ] } },
{ "type": "Feature", "properties": { "name": "建築会館ホール", "lat": 35.64751, "lon": 139.7459 }, "geometry": { "type": "Point", "coordinates": [ 139.7459, 35.64751 ] } },
{ "type": "Feature", "properties": { "name": "ニューピアホール", "lat": 35.65524, "lon": 139.76341 }, "geometry": { "type": "Point", "coordinates": [ 139.76341, 35.65524 ] } },
{ "type": "Feature", "properties": { "name": "ザ・プリンス パークタワー東京", "lat": 35.65598, "lon": 139.74625 }, "geometry": { "type": "Point", "coordinates": [ 139.74625, 35.65598 ] } },
{ "type": "Feature", "properties": { "name": "東京プリンスホテル", "lat": 35.65889, "lon": 139.74879 }, "geometry": { "type": "Point", "coordinates": [ 139.74879, 35.65889 ] } },
{ "type": "Feature", "properties": { "name": "ホテル インターコンチネンタル 東京ベイ", "lat": 35.6529, "lon": 139.76247 }, "geometry": { "type": "Point", "coordinates": [ 139.76247, 35.6529 ] } },
{ "type": "Feature", "properties": { "name": "芝パークホテル", "lat": 35.65853, "lon": 139.75154 }, "geometry": { "type": "Point", "coordinates": [ 139.75154, 35.65853 ] } },
{ "type": "Feature", "properties": { "name": "ベイサイドホテルアジュール竹芝", "lat": 35.65524, "lon": 139.76341 }, "geometry": { "type": "Point", "coordinates": [ 139.76341, 35.65524 ] } },
{ "type": "Feature", "properties": { "name": "TEPIA(TEPIA館)", "lat": 35.67275, "lon": 139.71803 }, "geometry": { "type": "Point", "coordinates": [ 139.71803, 35.67275 ] } },
{ "type": "Feature", "properties": { "name": "明治記念館", "lat": 35.67828, "lon": 139.72163 }, "geometry": { "type": "Point", "coordinates": [ 139.72163, 35.67828 ] } },
{ "type": "Feature", "properties": { "name": "赤坂インターシティコンファレンス", "lat": 35.66959, "lon": 139.74266 }, "geometry": { "type": "Point", "coordinates": [ 139.74266, 35.66959 ] } },
{ "type": "Feature", "properties": { "name": "TKP赤坂駅カンファレンスセンター", "lat": 35.67206, "lon": 139.73711 }, "geometry": { "type": "Point", "coordinates": [ 139.73711, 35.67206 ] } },
{ "type": "Feature", "properties": { "name": "フクラシア　品川クリスタルスクエア", "lat": 35.63041, "lon": 139.74547 }, "geometry": { "type": "Point", "coordinates": [ 139.74547, 35.63041 ] } },
{ "type": "Feature", "properties": { "name": "浜松町コンベンションホール", "lat": 35.65564, "lon": 139.75557 }, "geometry": { "type": "Point", "coordinates": [ 139.75557, 35.65564 ] } },
{ "type": "Feature", "properties": { "name": "THE GRAND HALL", "lat": 35.62649, "lon": 139.74068 }, "geometry": { "type": "Point", "coordinates": [ 139.74068, 35.62649 ] } },
{ "type": "Feature", "properties": { "name": "東京都立産業貿易センター 浜松町館（東京ポートシティ竹芝オフィスタワー内）", "lat": 35.65504, "lon": 139.76086 }, "geometry": { "type": "Point", "coordinates": [ 139.76086, 35.65504 ] } },
{ "type": "Feature", "properties": { "name": "東京ポートシティ竹芝ポートホール\/ポートスタジオ", "lat": 35.65504, "lon": 139.76086 }, "geometry": { "type": "Point", "coordinates": [ 139.76086, 35.65504 ] } },
{ "type": "Feature", "properties": { "name": "ハリウッド大学ホール", "lat": 35.66142, "lon": 139.72969 }, "geometry": { "type": "Point", "coordinates": [ 139.72969, 35.66142 ] } },
{ "type": "Feature", "properties": { "name": "TOKYO NODE", "lat": 35.66707, "lon": 139.74733 }, "geometry": { "type": "Point", "coordinates": [ 139.74733, 35.66707 ] } },
{ "type": "Feature", "properties": { "name": "TAKANAWA GATEWAY Convention Center", "lat": 35.63556, "lon": 139.73959 }, "geometry": { "type": "Point", "coordinates": [ 139.73959, 35.63556 ] } },
{ "type": "Feature", "properties": { "name": "ヒカリエホール・カンファレンス", "lat": 35.65894, "lon": 139.70341 }, "geometry": { "type": "Point", "coordinates": [ 139.70341, 35.65894 ] } },
{ "type": "Feature", "properties": { "name": "国連大学本部ビル", "lat": 35.66289, "lon": 139.70657 }, "geometry": { "type": "Point", "coordinates": [ 139.70657, 35.66289 ] } },
{ "type": "Feature", "properties": { "name": "LINE CUBE SHIBUYA(渋谷公会堂)", "lat": 35.66415, "lon": 139.69789 }, "geometry": { "type": "Point", "coordinates": [ 139.69789, 35.66415 ] } },
{ "type": "Feature", "properties": { "name": "東京体育館", "lat": 35.67936, "lon": 139.71217 }, "geometry": { "type": "Point", "coordinates": [ 139.71217, 35.67936 ] } },
{ "type": "Feature", "properties": { "name": "国立代々木競技場 第一体育館", "lat": 35.66766, "lon": 139.70209 }, "geometry": { "type": "Point", "coordinates": [ 139.70209, 35.66766 ] } },
{ "type": "Feature", "properties": { "name": "国立代々木競技場 第二体育館", "lat": 35.66766, "lon": 139.70209 }, "geometry": { "type": "Point", "coordinates": [ 139.70209, 35.66766 ] } },
{ "type": "Feature", "properties": { "name": "セルリアンタワー東急ホテル", "lat": 35.6563, "lon": 139.69917 }, "geometry": { "type": "Point", "coordinates": [ 139.69917, 35.6563 ] } },
{ "type": "Feature", "properties": { "name": "渋谷エクセルホテル東急", "lat": 35.65793, "lon": 139.698 }, "geometry": { "type": "Point", "coordinates": [ 139.698, 35.65793 ] } },
{ "type": "Feature", "properties": { "name": "あいおいニッセイ同和損保新宿ビル 新宿ホール・会議室", "lat": 35.68459, "lon": 139.6925 }, "geometry": { "type": "Point", "coordinates": [ 139.6925, 35.68459 ] } },
{ "type": "Feature", "properties": { "name": "こくみん共済 coop ホール\/スペース・ゼロ", "lat": 35.68684, "lon": 139.69753 }, "geometry": { "type": "Point", "coordinates": [ 139.69753, 35.68684 ] } },
{ "type": "Feature", "properties": { "name": "TRUNK(HOTEL)", "lat": 35.66444, "lon": 139.70398 }, "geometry": { "type": "Point", "coordinates": [ 139.70398, 35.66444 ] } },
{ "type": "Feature", "properties": { "name": "ホテル グランドヒル市ヶ谷", "lat": 35.6916, "lon": 139.73221 }, "geometry": { "type": "Point", "coordinates": [ 139.73221, 35.6916 ] } },
{ "type": "Feature", "properties": { "name": "ルーテル市ケ谷センター", "lat": 35.69409, "lon": 139.73599 }, "geometry": { "type": "Point", "coordinates": [ 139.73599, 35.69409 ] } },
{ "type": "Feature", "properties": { "name": "明治神宮野球場", "lat": 35.67506, "lon": 139.717 }, "geometry": { "type": "Point", "coordinates": [ 139.717, 35.67506 ] } },
{ "type": "Feature", "properties": { "name": "新宿NSビル", "lat": 35.68815, "lon": 139.69333 }, "geometry": { "type": "Point", "coordinates": [ 139.69333, 35.68815 ] } },
{ "type": "Feature", "properties": { "name": "ベルサール新宿グランド・新宿グランドコンファレンスセンター", "lat": 35.69588, "lon": 139.69044 }, "geometry": { "type": "Point", "coordinates": [ 139.69044, 35.69588 ] } },
{ "type": "Feature", "properties": { "name": "新宿文化センター", "lat": 35.69531, "lon": 139.70984 }, "geometry": { "type": "Point", "coordinates": [ 139.70984, 35.69531 ] } },
{ "type": "Feature", "properties": { "name": "新宿エルタワーサンスカイルーム", "lat": 35.69238, "lon": 139.69733 }, "geometry": { "type": "Point", "coordinates": [ 139.69733, 35.69238 ] } },
{ "type": "Feature", "properties": { "name": "新宿住友ホール・スカイルーム", "lat": 35.69202, "lon": 139.69246 }, "geometry": { "type": "Point", "coordinates": [ 139.69246, 35.69202 ] } },
{ "type": "Feature", "properties": { "name": "パークタワーホール", "lat": 35.68604, "lon": 139.68993 }, "geometry": { "type": "Point", "coordinates": [ 139.68993, 35.68604 ] } },
{ "type": "Feature", "properties": { "name": "京王プラザホテル", "lat": 35.68999, "lon": 139.69434 }, "geometry": { "type": "Point", "coordinates": [ 139.69434, 35.68999 ] } },
{ "type": "Feature", "properties": { "name": "ヒルトン東京", "lat": 35.69254, "lon": 139.69113 }, "geometry": { "type": "Point", "coordinates": [ 139.69113, 35.69254 ] } },
{ "type": "Feature", "properties": { "name": "ハイアットリージェンシー東京", "lat": 35.69125, "lon": 139.69138 }, "geometry": { "type": "Point", "coordinates": [ 139.69138, 35.69125 ] } },
{ "type": "Feature", "properties": { "name": "パークハイアット東京", "lat": 35.68604, "lon": 139.68993 }, "geometry": { "type": "Point", "coordinates": [ 139.68993, 35.68604 ] } },
{ "type": "Feature", "properties": { "name": "リーガロイヤルホテル東京", "lat": 35.71008, "lon": 139.72224 }, "geometry": { "type": "Point", "coordinates": [ 139.72224, 35.71008 ] } },
{ "type": "Feature", "properties": { "name": "ベルサール高田馬場", "lat": 35.70868, "lon": 139.70309 }, "geometry": { "type": "Point", "coordinates": [ 139.70309, 35.70868 ] } },
{ "type": "Feature", "properties": { "name": "日本青年館ホール", "lat": 35.67445, "lon": 139.71547 }, "geometry": { "type": "Point", "coordinates": [ 139.71547, 35.67445 ] } },
{ "type": "Feature", "properties": { "name": "ベルサール新宿セントラルパーク", "lat": 35.69297, "lon": 139.68872 }, "geometry": { "type": "Point", "coordinates": [ 139.68872, 35.69297 ] } },
{ "type": "Feature", "properties": { "name": "日本青年館ホテル", "lat": 35.67445, "lon": 139.71547 }, "geometry": { "type": "Point", "coordinates": [ 139.71547, 35.67445 ] } },
{ "type": "Feature", "properties": { "name": "新宿住友ビル 三角広場", "lat": 35.69202, "lon": 139.69246 }, "geometry": { "type": "Point", "coordinates": [ 139.69246, 35.69202 ] } },
{ "type": "Feature", "properties": { "name": "東京国際フォーラム", "lat": 35.67685, "lon": 139.76387 }, "geometry": { "type": "Point", "coordinates": [ 139.76387, 35.67685 ] } },
{ "type": "Feature", "properties": { "name": "JPタワー ホール&カンファレンス", "lat": 35.67908, "lon": 139.76468 }, "geometry": { "type": "Point", "coordinates": [ 139.76468, 35.67908 ] } },
{ "type": "Feature", "properties": { "name": "東京交通会館", "lat": 35.67495, "lon": 139.76436 }, "geometry": { "type": "Point", "coordinates": [ 139.76436, 35.67495 ] } },
{ "type": "Feature", "properties": { "name": "有楽町朝日ホール", "lat": 35.67358, "lon": 139.7628 }, "geometry": { "type": "Point", "coordinates": [ 139.7628, 35.67358 ] } },
{ "type": "Feature", "properties": { "name": "イイノホール&カンファレンスセンター", "lat": 35.67111, "lon": 139.75316 }, "geometry": { "type": "Point", "coordinates": [ 139.75316, 35.67111 ] } },
{ "type": "Feature", "properties": { "name": "丸ビルホール&コンファレンススクエア", "lat": 35.68105, "lon": 139.76379 }, "geometry": { "type": "Point", "coordinates": [ 139.76379, 35.68105 ] } },
{ "type": "Feature", "properties": { "name": "日比谷公会堂", "lat": 35.67276, "lon": 139.75409 }, "geometry": { "type": "Point", "coordinates": [ 139.75409, 35.67276 ] } },
{ "type": "Feature", "properties": { "name": "有楽町よみうりホール", "lat": 35.67539, "lon": 139.76288 }, "geometry": { "type": "Point", "coordinates": [ 139.76288, 35.67539 ] } },
{ "type": "Feature", "properties": { "name": "帝国ホテル東京", "lat": 35.67138, "lon": 139.75806 }, "geometry": { "type": "Point", "coordinates": [ 139.75806, 35.67138 ] } },
{ "type": "Feature", "properties": { "name": "パレスホテル東京", "lat": 35.68456, "lon": 139.76176 }, "geometry": { "type": "Point", "coordinates": [ 139.76176, 35.68456 ] } },
{ "type": "Feature", "properties": { "name": "東京ステーションホテル", "lat": 35.68125, "lon": 139.76724 }, "geometry": { "type": "Point", "coordinates": [ 139.76724, 35.68125 ] } },
{ "type": "Feature", "properties": { "name": "ザ・ペニンシュラ東京", "lat": 35.6747, "lon": 139.76044 }, "geometry": { "type": "Point", "coordinates": [ 139.76044, 35.6747 ] } },
{ "type": "Feature", "properties": { "name": "経団連会館カンファレンス", "lat": 35.69013, "lon": 139.76237 }, "geometry": { "type": "Point", "coordinates": [ 139.76237, 35.69013 ] } },
{ "type": "Feature", "properties": { "name": "日本教育会館", "lat": 35.69425, "lon": 139.75655 }, "geometry": { "type": "Point", "coordinates": [ 139.75655, 35.69425 ] } },
{ "type": "Feature", "properties": { "name": "如水会館", "lat": 35.69233, "lon": 139.75815 }, "geometry": { "type": "Point", "coordinates": [ 139.75815, 35.69233 ] } },
{ "type": "Feature", "properties": { "name": "大手町サンケイプラザ", "lat": 35.68707, "lon": 139.76505 }, "geometry": { "type": "Point", "coordinates": [ 139.76505, 35.68707 ] } },
{ "type": "Feature", "properties": { "name": "大手町サンスカイルーム", "lat": 35.68487, "lon": 139.76945 }, "geometry": { "type": "Point", "coordinates": [ 139.76945, 35.68487 ] } },
{ "type": "Feature", "properties": { "name": "ステーションコンファレンス東京", "lat": 35.6835, "lon": 139.76794 }, "geometry": { "type": "Point", "coordinates": [ 139.76794, 35.6835 ] } },
{ "type": "Feature", "properties": { "name": "トラストシティ カンファレンス・丸の内", "lat": 35.68267, "lon": 139.76956 }, "geometry": { "type": "Point", "coordinates": [ 139.76956, 35.68267 ] } },
{ "type": "Feature", "properties": { "name": "シャングリ・ラ ホテル 東京", "lat": 35.68267, "lon": 139.76956 }, "geometry": { "type": "Point", "coordinates": [ 139.76956, 35.68267 ] } },
{ "type": "Feature", "properties": { "name": "KKRホテル東京", "lat": 35.69045, "lon": 139.76003 }, "geometry": { "type": "Point", "coordinates": [ 139.76003, 35.69045 ] } },
{ "type": "Feature", "properties": { "name": "日経ホール＆カンファレンスルーム", "lat": 35.69013, "lon": 139.76237 }, "geometry": { "type": "Point", "coordinates": [ 139.76237, 35.69013 ] } },
{ "type": "Feature", "properties": { "name": "都市センターホテル", "lat": 35.68181, "lon": 139.73882 }, "geometry": { "type": "Point", "coordinates": [ 139.73882, 35.68181 ] } },
{ "type": "Feature", "properties": { "name": "砂防会館別館(シェーンバッハ・サボー)", "lat": 35.68022, "lon": 139.74014 }, "geometry": { "type": "Point", "coordinates": [ 139.74014, 35.68022 ] } },
{ "type": "Feature", "properties": { "name": "星陵会館", "lat": 35.67614, "lon": 139.74051 }, "geometry": { "type": "Point", "coordinates": [ 139.74051, 35.67614 ] } },
{ "type": "Feature", "properties": { "name": "海運クラブ", "lat": 35.67923, "lon": 139.7392 }, "geometry": { "type": "Point", "coordinates": [ 139.7392, 35.67923 ] } },
{ "type": "Feature", "properties": { "name": "スクワール麹町", "lat": 35.68566, "lon": 139.73174 }, "geometry": { "type": "Point", "coordinates": [ 139.73174, 35.68566 ] } },
{ "type": "Feature", "properties": { "name": "科学技術館", "lat": 35.69177, "lon": 139.75302 }, "geometry": { "type": "Point", "coordinates": [ 139.75302, 35.69177 ] } },
{ "type": "Feature", "properties": { "name": "日本武道館", "lat": 35.69177, "lon": 139.75302 }, "geometry": { "type": "Point", "coordinates": [ 139.75302, 35.69177 ] } },
{ "type": "Feature", "properties": { "name": "ホテルニューオータニ", "lat": 35.68044, "lon": 139.73428 }, "geometry": { "type": "Point", "coordinates": [ 139.73428, 35.68044 ] } },
{ "type": "Feature", "properties": { "name": "ザ・キャピトルホテル 東急", "lat": 35.67485, "lon": 139.73984 }, "geometry": { "type": "Point", "coordinates": [ 139.73984, 35.67485 ] } },
{ "type": "Feature", "properties": { "name": "ホテルグランドアーク半蔵門", "lat": 35.68295, "lon": 139.74278 }, "geometry": { "type": "Point", "coordinates": [ 139.74278, 35.68295 ] } },
{ "type": "Feature", "properties": { "name": "ホテル ルポール麹町", "lat": 35.68181, "lon": 139.73882 }, "geometry": { "type": "Point", "coordinates": [ 139.73882, 35.68181 ] } },
{ "type": "Feature", "properties": { "name": "アキバ・スクエア", "lat": 35.70058, "lon": 139.77257 }, "geometry": { "type": "Point", "coordinates": [ 139.77257, 35.70058 ] } },
{ "type": "Feature", "properties": { "name": "UDXカンファレンス", "lat": 35.70058, "lon": 139.77257 }, "geometry": { "type": "Point", "coordinates": [ 139.77257, 35.70058 ] } },
{ "type": "Feature", "properties": { "name": "アルカディア市ヶ谷(私学会館)", "lat": 35.69206, "lon": 139.73798 }, "geometry": { "type": "Point", "coordinates": [ 139.73798, 35.69206 ] } },
{ "type": "Feature", "properties": { "name": "秋葉原コンベンションホール", "lat": 35.69911, "lon": 139.77211 }, "geometry": { "type": "Point", "coordinates": [ 139.77211, 35.69911 ] } },
{ "type": "Feature", "properties": { "name": "全電通労働会館", "lat": 35.697, "lon": 139.76581 }, "geometry": { "type": "Point", "coordinates": [ 139.76581, 35.697 ] } },
{ "type": "Feature", "properties": { "name": "富士ソフト アキバプラザ", "lat": 35.69933, "lon": 139.77469 }, "geometry": { "type": "Point", "coordinates": [ 139.77469, 35.69933 ] } },
{ "type": "Feature", "properties": { "name": "東京しごとセンター", "lat": 35.70069, "lon": 139.74985 }, "geometry": { "type": "Point", "coordinates": [ 139.74985, 35.70069 ] } },
{ "type": "Feature", "properties": { "name": "ホテルメトロポリタン エドモント", "lat": 35.70069, "lon": 139.74985 }, "geometry": { "type": "Point", "coordinates": [ 139.74985, 35.70069 ] } },
{ "type": "Feature", "properties": { "name": "ソラシティカンファレンスセンター", "lat": 35.69867, "lon": 139.7664 }, "geometry": { "type": "Point", "coordinates": [ 139.7664, 35.69867 ] } },
{ "type": "Feature", "properties": { "name": "ステーションコンファレンス万世橋", "lat": 35.69735, "lon": 139.76994 }, "geometry": { "type": "Point", "coordinates": [ 139.76994, 35.69735 ] } },
{ "type": "Feature", "properties": { "name": "ベルサール秋葉原", "lat": 35.69997, "lon": 139.77089 }, "geometry": { "type": "Point", "coordinates": [ 139.77089, 35.69997 ] } },
{ "type": "Feature", "properties": { "name": "東京ガーデンテラス紀尾井町　紀尾井カンファレンス", "lat": 35.67992, "lon": 139.73718 }, "geometry": { "type": "Point", "coordinates": [ 139.73718, 35.67992 ] } },
{ "type": "Feature", "properties": { "name": "TKP Garden City Premium神保町", "lat": 35.6934, "lon": 139.76045 }, "geometry": { "type": "Point", "coordinates": [ 139.76045, 35.6934 ] } },
{ "type": "Feature", "properties": { "name": "TKP Garden City Premium秋葉原", "lat": 35.69957, "lon": 139.77014 }, "geometry": { "type": "Point", "coordinates": [ 139.77014, 35.69957 ] } },
{ "type": "Feature", "properties": { "name": "東京會舘", "lat": 35.67784, "lon": 139.76143 }, "geometry": { "type": "Point", "coordinates": [ 139.76143, 35.67784 ] } },
{ "type": "Feature", "properties": { "name": "日比谷三井カンファレンス", "lat": 35.67409, "lon": 139.75955 }, "geometry": { "type": "Point", "coordinates": [ 139.75955, 35.67409 ] } },
{ "type": "Feature", "properties": { "name": "ヒューリックホール東京", "lat": 35.67358, "lon": 139.7628 }, "geometry": { "type": "Point", "coordinates": [ 139.7628, 35.67358 ] } },
{ "type": "Feature", "properties": { "name": "大手町三井ホール", "lat": 35.68774, "lon": 139.76265 }, "geometry": { "type": "Point", "coordinates": [ 139.76265, 35.68774 ] } },
{ "type": "Feature", "properties": { "name": "フォーシーズンズホテル東京大手町", "lat": 35.68774, "lon": 139.76265 }, "geometry": { "type": "Point", "coordinates": [ 139.76265, 35.68774 ] } },
{ "type": "Feature", "properties": { "name": "東京商工会議所 Hall＆Conference Room", "lat": 35.67784, "lon": 139.76143 }, "geometry": { "type": "Point", "coordinates": [ 139.76143, 35.67784 ] } },
{ "type": "Feature", "properties": { "name": "銀座ブロッサム 中央会館", "lat": 35.67144, "lon": 139.77084 }, "geometry": { "type": "Point", "coordinates": [ 139.77084, 35.67144 ] } },
{ "type": "Feature", "properties": { "name": "ベルサール汐留", "lat": 35.66413, "lon": 139.7639 }, "geometry": { "type": "Point", "coordinates": [ 139.7639, 35.66413 ] } },
{ "type": "Feature", "properties": { "name": "銀座フェニックスプラザ", "lat": 35.67153, "lon": 139.76779 }, "geometry": { "type": "Point", "coordinates": [ 139.76779, 35.67153 ] } },
{ "type": "Feature", "properties": { "name": "浜離宮朝日ホール", "lat": 35.6642, "lon": 139.76624 }, "geometry": { "type": "Point", "coordinates": [ 139.76624, 35.6642 ] } },
{ "type": "Feature", "properties": { "name": "時事通信ホール", "lat": 35.6683, "lon": 139.76753 }, "geometry": { "type": "Point", "coordinates": [ 139.76753, 35.6683 ] } },
{ "type": "Feature", "properties": { "name": "コートヤード・マリオット銀座東武ホテル", "lat": 35.66837, "lon": 139.76503 }, "geometry": { "type": "Point", "coordinates": [ 139.76503, 35.66837 ] } },
{ "type": "Feature", "properties": { "name": "ベルサール八重洲", "lat": 35.68298, "lon": 139.77161 }, "geometry": { "type": "Point", "coordinates": [ 139.77161, 35.68298 ] } },
{ "type": "Feature", "properties": { "name": "野村コンファレンスプラザ日本橋", "lat": 35.6873, "lon": 139.7739 }, "geometry": { "type": "Point", "coordinates": [ 139.7739, 35.6873 ] } },
{ "type": "Feature", "properties": { "name": "日本橋プラザ展示ホール・会議室", "lat": 35.68136, "lon": 139.77216 }, "geometry": { "type": "Point", "coordinates": [ 139.77216, 35.68136 ] } },
{ "type": "Feature", "properties": { "name": "日本橋三井ホール", "lat": 35.68666, "lon": 139.77415 }, "geometry": { "type": "Point", "coordinates": [ 139.77415, 35.68666 ] } },
{ "type": "Feature", "properties": { "name": "ロイヤルパークホテル", "lat": 35.68217, "lon": 139.78632 }, "geometry": { "type": "Point", "coordinates": [ 139.78632, 35.68217 ] } },
{ "type": "Feature", "properties": { "name": "マンダリン オリエンタル 東京", "lat": 35.6867, "lon": 139.77303 }, "geometry": { "type": "Point", "coordinates": [ 139.77303, 35.6867 ] } },
{ "type": "Feature", "properties": { "name": "東京コンベンションホール", "lat": 35.67582, "lon": 139.76872 }, "geometry": { "type": "Point", "coordinates": [ 139.76872, 35.67582 ] } },
{ "type": "Feature", "properties": { "name": "コングレスクエア日本橋", "lat": 35.68299, "lon": 139.77318 }, "geometry": { "type": "Point", "coordinates": [ 139.77318, 35.68299 ] } },
{ "type": "Feature", "properties": { "name": "ホテルマリナーズコート東京", "lat": 35.65284, "lon": 139.77881 }, "geometry": { "type": "Point", "coordinates": [ 139.77881, 35.65284 ] } },
{ "type": "Feature", "properties": { "name": "ベルサール東京日本橋", "lat": 35.68193, "lon": 139.77417 }, "geometry": { "type": "Point", "coordinates": [ 139.77417, 35.68193 ] } },
{ "type": "Feature", "properties": { "name": "TKP Garden City Premium 京橋", "lat": 35.67731, "lon": 139.76965 }, "geometry": { "type": "Point", "coordinates": [ 139.76965, 35.67731 ] } },
{ "type": "Feature", "properties": { "name": "室町三井ホール＆カンファレンス", "lat": 35.68787, "lon": 139.77254 }, "geometry": { "type": "Point", "coordinates": [ 139.77254, 35.68787 ] } },
{ "type": "Feature", "properties": { "name": "東京ミッドタウン八重洲カンファレンス", "lat": 35.67934, "lon": 139.76909 }, "geometry": { "type": "Point", "coordinates": [ 139.76909, 35.67934 ] } },
{ "type": "Feature", "properties": { "name": "品川区立総合区民会館 きゅりあん", "lat": 35.60618, "lon": 139.73587 }, "geometry": { "type": "Point", "coordinates": [ 139.73587, 35.60618 ] } },
{ "type": "Feature", "properties": { "name": "東京マリオットホテル", "lat": 35.6227, "lon": 139.73563 }, "geometry": { "type": "Point", "coordinates": [ 139.73563, 35.6227 ] } },
{ "type": "Feature", "properties": { "name": "大崎ブライトコアホール", "lat": 35.62239, "lon": 139.73068 }, "geometry": { "type": "Point", "coordinates": [ 139.73068, 35.62239 ] } }
]
}
