{
"type": "FeatureCollection",
"crs": { "type": "name", "properties": { "name": "urn:ogc:def:crs:OGC:1.3:CRS84" } },
"features": [
{ "type": "Feature", "properties": { "name": "健ナビ薬樹薬局 人形町", "lat": 35.68467, "lon": 139.78236 }, "geometry": { "type": "Point", "coordinates": [ 139.78236, 35.68467 ] } },
{ "type": "Feature", "properties": { "name": "株式会社ファーマみらい 共創未来 築地場外市場薬局", "lat": 35.665, "lon": 139.77171 }, "geometry": { "type": "Point", "coordinates": [ 139.77171, 35.665 ] } },
{ "type": "Feature", "properties": { "name": "株式会社ファーマみらい 共創未来 築地4丁目薬局", "lat": 35.66687, "lon": 139.76825 }, "geometry": { "type": "Point", "coordinates": [ 139.76825, 35.66687 ] } },
{ "type": "Feature", "properties": { "name": "株式会社なの花 メトロファーマシー日本橋小伝馬町店", "lat": 35.69101, "lon": 139.7811 }, "geometry": { "type": "Point", "coordinates": [ 139.7811, 35.69101 ] } },
{ "type": "Feature", "properties": { "name": "フレンド薬局", "lat": 35.66504, "lon": 139.78189 }, "geometry": { "type": "Point", "coordinates": [ 139.78189, 35.66504 ] } },
{ "type": "Feature", "properties": { "name": "アイセイ薬局 日本橋室町店", "lat": 35.68733, "lon": 139.77391 }, "geometry": { "type": "Point", "coordinates": [ 139.77391, 35.68733 ] } },
{ "type": "Feature", "properties": { "name": "望星築地薬局", "lat": 35.66711, "lon": 139.77475 }, "geometry": { "type": "Point", "coordinates": [ 139.77475, 35.66711 ] } },
{ "type": "Feature", "properties": { "name": "銀座清水薬局", "lat": 35.6709, "lon": 139.76425 }, "geometry": { "type": "Point", "coordinates": [ 139.76425, 35.6709 ] } },
{ "type": "Feature", "properties": { "name": "桜川薬局", "lat": 35.67271, "lon": 139.77707 }, "geometry": { "type": "Point", "coordinates": [ 139.77707, 35.67271 ] } },
{ "type": "Feature", "properties": { "name": "アイセイ薬局 勝どき店", "lat": 35.65866, "lon": 139.77608 }, "geometry": { "type": "Point", "coordinates": [ 139.77608, 35.65866 ] } },
{ "type": "Feature", "properties": { "name": "ウイング薬局 茅場町店", "lat": 35.67981, "lon": 139.78094 }, "geometry": { "type": "Point", "coordinates": [ 139.78094, 35.67981 ] } },
{ "type": "Feature", "properties": { "name": "みらくる薬局 日本橋店", "lat": 35.68936, "lon": 139.7809 }, "geometry": { "type": "Point", "coordinates": [ 139.7809, 35.68936 ] } },
{ "type": "Feature", "properties": { "name": "れんげ薬局 日本橋店", "lat": 35.68818, "lon": 139.78003 }, "geometry": { "type": "Point", "coordinates": [ 139.78003, 35.68818 ] } },
{ "type": "Feature", "properties": { "name": "トモズ 茅場町店", "lat": 35.67848, "lon": 139.77878 }, "geometry": { "type": "Point", "coordinates": [ 139.77878, 35.67848 ] } },
{ "type": "Feature", "properties": { "name": "トモズ 銀座三丁目店", "lat": 35.67167, "lon": 139.76846 }, "geometry": { "type": "Point", "coordinates": [ 139.76846, 35.67167 ] } },
{ "type": "Feature", "properties": { "name": "トモズ トルナーレ浜町店", "lat": 35.68476, "lon": 139.78742 }, "geometry": { "type": "Point", "coordinates": [ 139.78742, 35.68476 ] } },
{ "type": "Feature", "properties": { "name": "トモズ コレド日本橋店", "lat": 35.68249, "lon": 139.77478 }, "geometry": { "type": "Point", "coordinates": [ 139.77478, 35.68249 ] } },
{ "type": "Feature", "properties": { "name": "トモズ 水天宮前店", "lat": 35.68399, "lon": 139.78394 }, "geometry": { "type": "Point", "coordinates": [ 139.78394, 35.68399 ] } },
{ "type": "Feature", "properties": { "name": "オーケー銀座店薬局", "lat": 35.67376, "lon": 139.76513 }, "geometry": { "type": "Point", "coordinates": [ 139.76513, 35.67376 ] } },
{ "type": "Feature", "properties": { "name": "ぱぱす薬局 小伝馬町店", "lat": 35.69156, "lon": 139.78049 }, "geometry": { "type": "Point", "coordinates": [ 139.78049, 35.69156 ] } },
{ "type": "Feature", "properties": { "name": "ソニック薬局", "lat": 35.69212, "lon": 139.78221 }, "geometry": { "type": "Point", "coordinates": [ 139.78221, 35.69212 ] } },
{ "type": "Feature", "properties": { "name": "日本調剤 パークタワー勝どき薬局", "lat": 35.65705, "lon": 139.77706 }, "geometry": { "type": "Point", "coordinates": [ 139.77706, 35.65705 ] } },
{ "type": "Feature", "properties": { "name": "au薬局", "lat": 35.69087, "lon": 139.78197 }, "geometry": { "type": "Point", "coordinates": [ 139.78197, 35.69087 ] } },
{ "type": "Feature", "properties": { "name": "晴海調剤薬局", "lat": 35.65547, "lon": 139.78286 }, "geometry": { "type": "Point", "coordinates": [ 139.78286, 35.65547 ] } },
{ "type": "Feature", "properties": { "name": "ミント薬局 銀座店", "lat": 35.66839, "lon": 139.76941 }, "geometry": { "type": "Point", "coordinates": [ 139.76941, 35.66839 ] } },
{ "type": "Feature", "properties": { "name": "一平薬局", "lat": 35.68305, "lon": 139.78152 }, "geometry": { "type": "Point", "coordinates": [ 139.78152, 35.68305 ] } },
{ "type": "Feature", "properties": { "name": "スギ薬局 銀座一丁目店", "lat": 35.67515, "lon": 139.7662 }, "geometry": { "type": "Point", "coordinates": [ 139.7662, 35.67515 ] } },
{ "type": "Feature", "properties": { "name": "スギ薬局 茅場町店", "lat": 35.6801, "lon": 139.7791 }, "geometry": { "type": "Point", "coordinates": [ 139.7791, 35.6801 ] } },
{ "type": "Feature", "properties": { "name": "人形町えきまえ薬局", "lat": 35.68668, "lon": 139.78242 }, "geometry": { "type": "Point", "coordinates": [ 139.78242, 35.68668 ] } },
{ "type": "Feature", "properties": { "name": "ファイン薬局 八重洲日本橋", "lat": 35.6801, "lon": 139.7733 }, "geometry": { "type": "Point", "coordinates": [ 139.7733, 35.6801 ] } },
{ "type": "Feature", "properties": { "name": "薬局トモズ 銀座八丁目店", "lat": 35.66765, "lon": 139.76322 }, "geometry": { "type": "Point", "coordinates": [ 139.76322, 35.66765 ] } },
{ "type": "Feature", "properties": { "name": "ウイング薬局 日本橋店", "lat": 35.68021, "lon": 139.77291 }, "geometry": { "type": "Point", "coordinates": [ 139.77291, 35.68021 ] } },
{ "type": "Feature", "properties": { "name": "メトロファーマシー新川(薬局)", "lat": 35.67339, "lon": 139.7829 }, "geometry": { "type": "Point", "coordinates": [ 139.7829, 35.67339 ] } },
{ "type": "Feature", "properties": { "name": "ウエルシア薬局 東京ミッドタウン八重洲店", "lat": 35.67941, "lon": 139.76893 }, "geometry": { "type": "Point", "coordinates": [ 139.76893, 35.67941 ] } },
{ "type": "Feature", "properties": { "name": "薬局トモズ 築地店", "lat": 35.66818, "lon": 139.77042 }, "geometry": { "type": "Point", "coordinates": [ 139.77042, 35.66818 ] } },
{ "type": "Feature", "properties": { "name": "つきじ調剤薬局", "lat": 35.66679, "lon": 139.7701 }, "geometry": { "type": "Point", "coordinates": [ 139.7701, 35.66679 ] } },
{ "type": "Feature", "properties": { "name": "ファーマライズ薬局 日本橋店", "lat": 35.68163, "lon": 139.77523 }, "geometry": { "type": "Point", "coordinates": [ 139.77523, 35.68163 ] } },
{ "type": "Feature", "properties": { "name": "ひかり薬局", "lat": 35.67918, "lon": 139.77121 }, "geometry": { "type": "Point", "coordinates": [ 139.77121, 35.67918 ] } },
{ "type": "Feature", "properties": { "name": "日本調剤 明石町薬局", "lat": 35.66703, "lon": 139.77546 }, "geometry": { "type": "Point", "coordinates": [ 139.77546, 35.66703 ] } },
{ "type": "Feature", "properties": { "name": "日本調剤 八重洲薬局", "lat": 35.68096, "lon": 139.77175 }, "geometry": { "type": "Point", "coordinates": [ 139.77175, 35.68096 ] } },
{ "type": "Feature", "properties": { "name": "ぱぱす薬局 勝どき5丁目店", "lat": 35.65602, "lon": 139.77223 }, "geometry": { "type": "Point", "coordinates": [ 139.77223, 35.65602 ] } },
{ "type": "Feature", "properties": { "name": "日本調剤 東日本橋薬局", "lat": 35.69231, "lon": 139.78468 }, "geometry": { "type": "Point", "coordinates": [ 139.78468, 35.69231 ] } },
{ "type": "Feature", "properties": { "name": "スギ薬局 八丁堀店", "lat": 35.67684, "lon": 139.77858 }, "geometry": { "type": "Point", "coordinates": [ 139.77858, 35.67684 ] } },
{ "type": "Feature", "properties": { "name": "日本調剤 馬喰町薬局", "lat": 35.69537, "lon": 139.78297 }, "geometry": { "type": "Point", "coordinates": [ 139.78297, 35.69537 ] } },
{ "type": "Feature", "properties": { "name": "日本調剤 馬喰町駅前薬局", "lat": 35.69275, "lon": 139.78239 }, "geometry": { "type": "Point", "coordinates": [ 139.78239, 35.69275 ] } },
{ "type": "Feature", "properties": { "name": "ぱぱす薬局 晴海店", "lat": 35.65459, "lon": 139.77855 }, "geometry": { "type": "Point", "coordinates": [ 139.77855, 35.65459 ] } },
{ "type": "Feature", "properties": { "name": "クオール薬局 日本橋店", "lat": 35.68639, "lon": 139.77543 }, "geometry": { "type": "Point", "coordinates": [ 139.77543, 35.68639 ] } },
{ "type": "Feature", "properties": { "name": "薬局マツモトキヨシ ヤエチカ店", "lat": 35.68026, "lon": 139.76931 }, "geometry": { "type": "Point", "coordinates": [ 139.76931, 35.68026 ] } },
{ "type": "Feature", "properties": { "name": "のぞみ薬局 勝どき店", "lat": 35.65627, "lon": 139.77272 }, "geometry": { "type": "Point", "coordinates": [ 139.77272, 35.65627 ] } },
{ "type": "Feature", "properties": { "name": "日本橋久松薬局", "lat": 35.68919, "lon": 139.78521 }, "geometry": { "type": "Point", "coordinates": [ 139.78521, 35.68919 ] } },
{ "type": "Feature", "properties": { "name": "さくらんぼ薬局", "lat": 35.67938, "lon": 139.77785 }, "geometry": { "type": "Point", "coordinates": [ 139.77785, 35.67938 ] } },
{ "type": "Feature", "properties": { "name": "銀座薬局", "lat": 35.66758, "lon": 139.76321 }, "geometry": { "type": "Point", "coordinates": [ 139.76321, 35.66758 ] } },
{ "type": "Feature", "properties": { "name": "ウエルシア薬局 日本橋1号店", "lat": 35.68253, "lon": 139.77327 }, "geometry": { "type": "Point", "coordinates": [ 139.77327, 35.68253 ] } },
{ "type": "Feature", "properties": { "name": "クオール薬局 京橋店", "lat": 35.67644, "lon": 139.77014 }, "geometry": { "type": "Point", "coordinates": [ 139.77014, 35.67644 ] } },
{ "type": "Feature", "properties": { "name": "アピス薬局 勝どき店", "lat": 35.65856, "lon": 139.77698 }, "geometry": { "type": "Point", "coordinates": [ 139.77698, 35.65856 ] } },
{ "type": "Feature", "properties": { "name": "ウエルシア薬局 東京スクエアガーデン店", "lat": 35.67606, "lon": 139.76888 }, "geometry": { "type": "Point", "coordinates": [ 139.76888, 35.67606 ] } },
{ "type": "Feature", "properties": { "name": "薬局マツモトキヨシ 銀座みゆきAve.店", "lat": 35.67015, "lon": 139.76461 }, "geometry": { "type": "Point", "coordinates": [ 139.76461, 35.67015 ] } },
{ "type": "Feature", "properties": { "name": "ぱぱす薬局 月島1丁目店", "lat": 35.65958, "lon": 139.69873 }, "geometry": { "type": "Point", "coordinates": [ 139.69873, 35.65958 ] } },
{ "type": "Feature", "properties": { "name": "ぱぱす薬局 銀座木挽町店", "lat": 35.67024, "lon": 139.76871 }, "geometry": { "type": "Point", "coordinates": [ 139.76871, 35.67024 ] } },
{ "type": "Feature", "properties": { "name": "日本調剤 勝どき薬局", "lat": 35.65797, "lon": 139.77621 }, "geometry": { "type": "Point", "coordinates": [ 139.77621, 35.65797 ] } },
{ "type": "Feature", "properties": { "name": "セイムス調剤薬局 人形町店", "lat": 35.68473, "lon": 139.78404 }, "geometry": { "type": "Point", "coordinates": [ 139.78404, 35.68473 ] } },
{ "type": "Feature", "properties": { "name": "パンダ薬局 勝どき店", "lat": 35.65684, "lon": 139.77586 }, "geometry": { "type": "Point", "coordinates": [ 139.77586, 35.65684 ] } },
{ "type": "Feature", "properties": { "name": "薬局トモズ 晴海トリトン店", "lat": 35.65737, "lon": 139.78278 }, "geometry": { "type": "Point", "coordinates": [ 139.78278, 35.65737 ] } },
{ "type": "Feature", "properties": { "name": "ぱぱす薬局 明石町店", "lat": 35.66768, "lon": 139.7787 }, "geometry": { "type": "Point", "coordinates": [ 139.7787, 35.66768 ] } },
{ "type": "Feature", "properties": { "name": "りんご薬局", "lat": 35.67166, "lon": 139.76795 }, "geometry": { "type": "Point", "coordinates": [ 139.76795, 35.67166 ] } },
{ "type": "Feature", "properties": { "name": "日生薬局 築地店", "lat": 35.66835, "lon": 139.7736 }, "geometry": { "type": "Point", "coordinates": [ 139.7736, 35.66835 ] } },
{ "type": "Feature", "properties": { "name": "テトラ薬局 人形町2丁目店", "lat": 35.68606, "lon": 139.78404 }, "geometry": { "type": "Point", "coordinates": [ 139.78404, 35.68606 ] } },
{ "type": "Feature", "properties": { "name": "アイン薬局 月島店", "lat": 35.66532, "lon": 139.78271 }, "geometry": { "type": "Point", "coordinates": [ 139.78271, 35.66532 ] } },
{ "type": "Feature", "properties": { "name": "日本橋休日応急薬局", "lat": 35.68874, "lon": 139.78392 }, "geometry": { "type": "Point", "coordinates": [ 139.78392, 35.68874 ] } },
{ "type": "Feature", "properties": { "name": "サンローズ薬局 日本橋店", "lat": 35.68943, "lon": 139.78202 }, "geometry": { "type": "Point", "coordinates": [ 139.78202, 35.68943 ] } },
{ "type": "Feature", "properties": { "name": "スギ薬局 新川一丁目店", "lat": 35.67851, "lon": 139.78339 }, "geometry": { "type": "Point", "coordinates": [ 139.78339, 35.67851 ] } },
{ "type": "Feature", "properties": { "name": "日本調剤 歌舞伎座タワー薬局", "lat": 35.6696, "lon": 139.76807 }, "geometry": { "type": "Point", "coordinates": [ 139.76807, 35.6696 ] } },
{ "type": "Feature", "properties": { "name": "中央区休日応急薬局", "lat": 35.66485, "lon": 139.78493 }, "geometry": { "type": "Point", "coordinates": [ 139.78493, 35.66485 ] } },
{ "type": "Feature", "properties": { "name": "玉置薬局", "lat": 35.69451, "lon": 139.78565 }, "geometry": { "type": "Point", "coordinates": [ 139.78565, 35.69451 ] } },
{ "type": "Feature", "properties": { "name": "アイ調剤薬局", "lat": 35.68919, "lon": 139.77148 }, "geometry": { "type": "Point", "coordinates": [ 139.77148, 35.68919 ] } },
{ "type": "Feature", "properties": { "name": "テトラ薬局 八丁堀店", "lat": 35.67544, "lon": 139.77686 }, "geometry": { "type": "Point", "coordinates": [ 139.77686, 35.67544 ] } },
{ "type": "Feature", "properties": { "name": "薬局マツモトキヨシ matsukiyoLAB 佃二丁目店", "lat": 35.66951, "lon": 139.78559 }, "geometry": { "type": "Point", "coordinates": [ 139.78559, 35.66951 ] } },
{ "type": "Feature", "properties": { "name": "ハッピー薬局", "lat": 35.69025, "lon": 139.77869 }, "geometry": { "type": "Point", "coordinates": [ 139.77869, 35.69025 ] } },
{ "type": "Feature", "properties": { "name": "アイファ薬局 日本橋久松町店", "lat": 35.68936, "lon": 139.78475 }, "geometry": { "type": "Point", "coordinates": [ 139.78475, 35.68936 ] } },
{ "type": "Feature", "properties": { "name": "テトラ薬局 新富町店", "lat": 35.67259, "lon": 139.77328 }, "geometry": { "type": "Point", "coordinates": [ 139.77328, 35.67259 ] } },
{ "type": "Feature", "properties": { "name": "ぱぱす薬局 月島店", "lat": 35.66345, "lon": 139.78446 }, "geometry": { "type": "Point", "coordinates": [ 139.78446, 35.66345 ] } },
{ "type": "Feature", "properties": { "name": "ぱぱす薬局 勝どき駅前店", "lat": 35.65974, "lon": 139.77769 }, "geometry": { "type": "Point", "coordinates": [ 139.77769, 35.65974 ] } },
{ "type": "Feature", "properties": { "name": "スギ薬局 日本橋横山町店", "lat": 35.6923, "lon": 139.78232 }, "geometry": { "type": "Point", "coordinates": [ 139.78232, 35.6923 ] } },
{ "type": "Feature", "properties": { "name": "テトラ薬局 中央店", "lat": 35.68675, "lon": 139.78347 }, "geometry": { "type": "Point", "coordinates": [ 139.78347, 35.68675 ] } },
{ "type": "Feature", "properties": { "name": "有限会社 吉田薬局", "lat": 35.69581, "lon": 139.78243 }, "geometry": { "type": "Point", "coordinates": [ 139.78243, 35.69581 ] } },
{ "type": "Feature", "properties": { "name": "さくら薬局 築地店", "lat": 35.66899, "lon": 139.77126 }, "geometry": { "type": "Point", "coordinates": [ 139.77126, 35.66899 ] } },
{ "type": "Feature", "properties": { "name": "薬局くすりの福太郎 銀座店", "lat": 35.66885, "lon": 139.76419 }, "geometry": { "type": "Point", "coordinates": [ 139.76419, 35.66885 ] } },
{ "type": "Feature", "properties": { "name": "テトラ薬局 小伝馬町店", "lat": 35.69143, "lon": 139.78009 }, "geometry": { "type": "Point", "coordinates": [ 139.78009, 35.69143 ] } },
{ "type": "Feature", "properties": { "name": "ウエルシア薬局 日本橋駅前店", "lat": 35.68253, "lon": 139.77327 }, "geometry": { "type": "Point", "coordinates": [ 139.77327, 35.68253 ] } },
{ "type": "Feature", "properties": { "name": "日本調剤日本橋室町薬局", "lat": 35.68688, "lon": 139.77311 }, "geometry": { "type": "Point", "coordinates": [ 139.77311, 35.68688 ] } },
{ "type": "Feature", "properties": { "name": "新川調剤薬局", "lat": 35.67525, "lon": 139.7828 }, "geometry": { "type": "Point", "coordinates": [ 139.7828, 35.67525 ] } },
{ "type": "Feature", "properties": { "name": "クオール薬局 兜町店", "lat": 35.6815, "lon": 139.77803 }, "geometry": { "type": "Point", "coordinates": [ 139.77803, 35.6815 ] } },
{ "type": "Feature", "properties": { "name": "しまづる浜町薬局", "lat": 35.68775, "lon": 139.78732 }, "geometry": { "type": "Point", "coordinates": [ 139.78732, 35.68775 ] } },
{ "type": "Feature", "properties": { "name": "日本調剤 築地薬局", "lat": 35.66608, "lon": 139.76957 }, "geometry": { "type": "Point", "coordinates": [ 139.76957, 35.66608 ] } },
{ "type": "Feature", "properties": { "name": "スター薬局", "lat": 35.6874, "lon": 139.77085 }, "geometry": { "type": "Point", "coordinates": [ 139.77085, 35.6874 ] } },
{ "type": "Feature", "properties": { "name": "ホリベ薬局 人形町店", "lat": 35.6833, "lon": 139.78389 }, "geometry": { "type": "Point", "coordinates": [ 139.78389, 35.6833 ] } },
{ "type": "Feature", "properties": { "name": "ファーコス薬局 京橋", "lat": 35.67748, "lon": 139.77094 }, "geometry": { "type": "Point", "coordinates": [ 139.77094, 35.67748 ] } },
{ "type": "Feature", "properties": { "name": "スギ薬局 日本橋三越前店", "lat": 35.68571, "lon": 139.77449 }, "geometry": { "type": "Point", "coordinates": [ 139.77449, 35.68571 ] } },
{ "type": "Feature", "properties": { "name": "さくら薬局 八重洲店", "lat": 35.68209, "lon": 139.77197 }, "geometry": { "type": "Point", "coordinates": [ 139.77197, 35.68209 ] } },
{ "type": "Feature", "properties": { "name": "テトラ薬局", "lat": 35.68549, "lon": 139.78151 }, "geometry": { "type": "Point", "coordinates": [ 139.78151, 35.68549 ] } },
{ "type": "Feature", "properties": { "name": "くま薬局", "lat": 35.68352, "lon": 139.78138 }, "geometry": { "type": "Point", "coordinates": [ 139.78138, 35.68352 ] } },
{ "type": "Feature", "properties": { "name": "日本調剤 銀座泰明薬局", "lat": 35.67217, "lon": 139.76081 }, "geometry": { "type": "Point", "coordinates": [ 139.76081, 35.67217 ] } },
{ "type": "Feature", "properties": { "name": "銀座ペンギン薬局", "lat": 35.66783, "lon": 139.76104 }, "geometry": { "type": "Point", "coordinates": [ 139.76104, 35.66783 ] } },
{ "type": "Feature", "properties": { "name": "すずらん薬局", "lat": 35.67525, "lon": 139.77599 }, "geometry": { "type": "Point", "coordinates": [ 139.77599, 35.67525 ] } },
{ "type": "Feature", "properties": { "name": "阪神調剤薬局 銀座店", "lat": 35.67085, "lon": 139.76058 }, "geometry": { "type": "Point", "coordinates": [ 139.76058, 35.67085 ] } },
{ "type": "Feature", "properties": { "name": "ココカラファイン薬局 ヤエチカ北口店", "lat": 35.67993, "lon": 139.77051 }, "geometry": { "type": "Point", "coordinates": [ 139.77051, 35.67993 ] } },
{ "type": "Feature", "properties": { "name": "アンソニーズ佃薬局", "lat": 35.66868, "lon": 139.78546 }, "geometry": { "type": "Point", "coordinates": [ 139.78546, 35.66868 ] } },
{ "type": "Feature", "properties": { "name": "恵愛堂薬局", "lat": 35.66134, "lon": 139.78364 }, "geometry": { "type": "Point", "coordinates": [ 139.78364, 35.66134 ] } },
{ "type": "Feature", "properties": { "name": "佐藤薬局", "lat": 35.67586, "lon": 139.77634 }, "geometry": { "type": "Point", "coordinates": [ 139.77634, 35.67586 ] } },
{ "type": "Feature", "properties": { "name": "銀座楽天堂薬局", "lat": 35.66997, "lon": 139.76921 }, "geometry": { "type": "Point", "coordinates": [ 139.76921, 35.66997 ] } },
{ "type": "Feature", "properties": { "name": "日野薬局", "lat": 35.65894, "lon": 139.78367 }, "geometry": { "type": "Point", "coordinates": [ 139.78367, 35.65894 ] } },
{ "type": "Feature", "properties": { "name": "川名薬局", "lat": 35.69112, "lon": 139.78415 }, "geometry": { "type": "Point", "coordinates": [ 139.78415, 35.69112 ] } },
{ "type": "Feature", "properties": { "name": "薬局アポック 銀座レンガ通り店", "lat": 35.67489, "lon": 139.76745 }, "geometry": { "type": "Point", "coordinates": [ 139.76745, 35.67489 ] } },
{ "type": "Feature", "properties": { "name": "クオール薬局 銀座店", "lat": 35.67325, "lon": 139.76927 }, "geometry": { "type": "Point", "coordinates": [ 139.76927, 35.67325 ] } },
{ "type": "Feature", "properties": { "name": "薬局マツモトキヨシ 銀座5thビル店", "lat": 35.67175, "lon": 139.76391 }, "geometry": { "type": "Point", "coordinates": [ 139.76391, 35.67175 ] } },
{ "type": "Feature", "properties": { "name": "銀座漢方天風堂薬局", "lat": 35.67045, "lon": 139.76987 }, "geometry": { "type": "Point", "coordinates": [ 139.76987, 35.67045 ] } },
{ "type": "Feature", "properties": { "name": "福むら薬局", "lat": 35.66514, "lon": 139.78274 }, "geometry": { "type": "Point", "coordinates": [ 139.78274, 35.66514 ] } },
{ "type": "Feature", "properties": { "name": "勝どき一丁目薬局", "lat": 35.66085, "lon": 139.77695 }, "geometry": { "type": "Point", "coordinates": [ 139.77695, 35.66085 ] } },
{ "type": "Feature", "properties": { "name": "つくだ調剤薬局", "lat": 35.66701, "lon": 139.77519 }, "geometry": { "type": "Point", "coordinates": [ 139.77519, 35.66701 ] } },
{ "type": "Feature", "properties": { "name": "田辺薬局築地市場店", "lat": 35.66639, "lon": 139.76881 }, "geometry": { "type": "Point", "coordinates": [ 139.76881, 35.66639 ] } },
{ "type": "Feature", "properties": { "name": "ヘルス薬局 新富店", "lat": 35.67055, "lon": 139.77493 }, "geometry": { "type": "Point", "coordinates": [ 139.77493, 35.67055 ] } },
{ "type": "Feature", "properties": { "name": "ウィルファーマ(株) アイリス調剤薬局", "lat": 35.66974, "lon": 139.7845 }, "geometry": { "type": "Point", "coordinates": [ 139.7845, 35.66974 ] } },
{ "type": "Feature", "properties": { "name": "きらり月島薬局", "lat": 35.66429, "lon": 139.78334 }, "geometry": { "type": "Point", "coordinates": [ 139.78334, 35.66429 ] } },
{ "type": "Feature", "properties": { "name": "阪神薬局", "lat": 35.67313, "lon": 139.776 }, "geometry": { "type": "Point", "coordinates": [ 139.776, 35.67313 ] } },
{ "type": "Feature", "properties": { "name": "薬局エスエルファーマシー", "lat": 35.66694, "lon": 139.77849 }, "geometry": { "type": "Point", "coordinates": [ 139.77849, 35.66694 ] } },
{ "type": "Feature", "properties": { "name": "ニックハート薬局", "lat": 35.67586, "lon": 139.7718 }, "geometry": { "type": "Point", "coordinates": [ 139.7718, 35.67586 ] } },
{ "type": "Feature", "properties": { "name": "みのり薬局", "lat": 35.66198, "lon": 139.78112 }, "geometry": { "type": "Point", "coordinates": [ 139.78112, 35.66198 ] } },
{ "type": "Feature", "properties": { "name": "チトセ薬局", "lat": 35.68186, "lon": 139.78332 }, "geometry": { "type": "Point", "coordinates": [ 139.78332, 35.68186 ] } },
{ "type": "Feature", "properties": { "name": "有限会社ホリベ商会 水天宮ファーマシィ", "lat": 35.68394, "lon": 139.78519 }, "geometry": { "type": "Point", "coordinates": [ 139.78519, 35.68394 ] } },
{ "type": "Feature", "properties": { "name": "越前堀薬局プッシュ", "lat": 35.67395, "lon": 139.78235 }, "geometry": { "type": "Point", "coordinates": [ 139.78235, 35.67395 ] } },
{ "type": "Feature", "properties": { "name": "ヘルス薬局日本橋店", "lat": 35.68883, "lon": 139.78164 }, "geometry": { "type": "Point", "coordinates": [ 139.78164, 35.68883 ] } },
{ "type": "Feature", "properties": { "name": "アポロ薬局", "lat": 35.66191, "lon": 139.78376 }, "geometry": { "type": "Point", "coordinates": [ 139.78376, 35.66191 ] } },
{ "type": "Feature", "properties": { "name": "ひまわり薬局茅場町店", "lat": 35.67936, "lon": 139.77866 }, "geometry": { "type": "Point", "coordinates": [ 139.77866, 35.67936 ] } },
{ "type": "Feature", "properties": { "name": "加健調剤薬局", "lat": 35.66695, "lon": 139.7757 }, "geometry": { "type": "Point", "coordinates": [ 139.7757, 35.66695 ] } },
{ "type": "Feature", "properties": { "name": "近藤薬局", "lat": 35.66916, "lon": 139.77203 }, "geometry": { "type": "Point", "coordinates": [ 139.77203, 35.66916 ] } },
{ "type": "Feature", "properties": { "name": "越前堀薬局", "lat": 35.67483, "lon": 139.7823 }, "geometry": { "type": "Point", "coordinates": [ 139.7823, 35.67483 ] } },
{ "type": "Feature", "properties": { "name": "清心丹薬局", "lat": 35.68578, "lon": 139.7818 }, "geometry": { "type": "Point", "coordinates": [ 139.7818, 35.68578 ] } },
{ "type": "Feature", "properties": { "name": "(有)トラヤ薬局", "lat": 35.66903, "lon": 139.77268 }, "geometry": { "type": "Point", "coordinates": [ 139.77268, 35.66903 ] } },
{ "type": "Feature", "properties": { "name": "オギムラ薬局", "lat": 35.69366, "lon": 139.74461 }, "geometry": { "type": "Point", "coordinates": [ 139.74461, 35.69366 ] } },
{ "type": "Feature", "properties": { "name": "みらくる薬局 神田店", "lat": 35.69085, "lon": 139.7726 }, "geometry": { "type": "Point", "coordinates": [ 139.7726, 35.69085 ] } },
{ "type": "Feature", "properties": { "name": "お茶の水駅前薬局", "lat": 35.70002, "lon": 139.76295 }, "geometry": { "type": "Point", "coordinates": [ 139.76295, 35.70002 ] } },
{ "type": "Feature", "properties": { "name": "新お茶の水薬局", "lat": 35.6988, "lon": 139.76516 }, "geometry": { "type": "Point", "coordinates": [ 139.76516, 35.6988 ] } },
{ "type": "Feature", "properties": { "name": "麹町調剤薬局", "lat": 35.68351, "lon": 139.73997 }, "geometry": { "type": "Point", "coordinates": [ 139.73997, 35.68351 ] } },
{ "type": "Feature", "properties": { "name": "調剤薬局丸の内ファーマシー", "lat": 35.68411, "lon": 139.76646 }, "geometry": { "type": "Point", "coordinates": [ 139.76646, 35.68411 ] } },
{ "type": "Feature", "properties": { "name": "アイセイ薬局 駿河台店", "lat": 35.69614, "lon": 139.76176 }, "geometry": { "type": "Point", "coordinates": [ 139.76176, 35.69614 ] } },
{ "type": "Feature", "properties": { "name": "田辺薬局 神田錦町店", "lat": 35.69177, "lon": 139.76363 }, "geometry": { "type": "Point", "coordinates": [ 139.76363, 35.69177 ] } },
{ "type": "Feature", "properties": { "name": "南山堂薬局 御茶ノ水店", "lat": 35.69774, "lon": 139.76556 }, "geometry": { "type": "Point", "coordinates": [ 139.76556, 35.69774 ] } },
{ "type": "Feature", "properties": { "name": "アイセイ薬局 九段南店", "lat": 35.69354, "lon": 139.75319 }, "geometry": { "type": "Point", "coordinates": [ 139.75319, 35.69354 ] } },
{ "type": "Feature", "properties": { "name": "雄飛堂薬局 飯田橋店", "lat": 35.69949, "lon": 139.74727 }, "geometry": { "type": "Point", "coordinates": [ 139.74727, 35.69949 ] } },
{ "type": "Feature", "properties": { "name": "あつみ調剤薬局", "lat": 35.69777, "lon": 139.77521 }, "geometry": { "type": "Point", "coordinates": [ 139.77521, 35.69777 ] } },
{ "type": "Feature", "properties": { "name": "神田登栄薬局", "lat": 35.69165, "lon": 139.7715 }, "geometry": { "type": "Point", "coordinates": [ 139.7715, 35.69165 ] } },
{ "type": "Feature", "properties": { "name": "水道橋薬局", "lat": 35.7013, "lon": 139.75317 }, "geometry": { "type": "Point", "coordinates": [ 139.75317, 35.7013 ] } },
{ "type": "Feature", "properties": { "name": "トモズ 秋葉原店", "lat": 35.69851, "lon": 139.77514 }, "geometry": { "type": "Point", "coordinates": [ 139.77514, 35.69851 ] } },
{ "type": "Feature", "properties": { "name": "アメリカンファーマシー 丸の内店", "lat": 35.68118, "lon": 139.76377 }, "geometry": { "type": "Point", "coordinates": [ 139.76377, 35.68118 ] } },
{ "type": "Feature", "properties": { "name": "トモズ 大手町カンファレンスセンター店", "lat": 35.68864, "lon": 139.76315 }, "geometry": { "type": "Point", "coordinates": [ 139.76315, 35.68864 ] } },
{ "type": "Feature", "properties": { "name": "トモズ 神田和泉町店", "lat": 35.6998, "lon": 139.77855 }, "geometry": { "type": "Point", "coordinates": [ 139.77855, 35.6998 ] } },
{ "type": "Feature", "properties": { "name": "株式会社サノ・ファーマシー まゆみ薬局 半蔵門店", "lat": 35.68293, "lon": 139.7419 }, "geometry": { "type": "Point", "coordinates": [ 139.7419, 35.68293 ] } },
{ "type": "Feature", "properties": { "name": "薬局日本メディカルシステム神田店", "lat": 35.69191, "lon": 139.77198 }, "geometry": { "type": "Point", "coordinates": [ 139.77198, 35.69191 ] } },
{ "type": "Feature", "properties": { "name": "薬局トモズ 竹橋パレスサイド店", "lat": 35.69092, "lon": 139.75746 }, "geometry": { "type": "Point", "coordinates": [ 139.75746, 35.69092 ] } },
{ "type": "Feature", "properties": { "name": "神田一心薬局", "lat": 35.6939, "lon": 139.77965 }, "geometry": { "type": "Point", "coordinates": [ 139.77965, 35.6939 ] } },
{ "type": "Feature", "properties": { "name": "スギ薬局 御茶ノ水店", "lat": 35.69899, "lon": 139.7626 }, "geometry": { "type": "Point", "coordinates": [ 139.7626, 35.69899 ] } },
{ "type": "Feature", "properties": { "name": "薬局お茶の水ファーマシー", "lat": 35.69621, "lon": 139.76 }, "geometry": { "type": "Point", "coordinates": [ 139.76, 35.69621 ] } },
{ "type": "Feature", "properties": { "name": "ウィーズファーマシー アキバ・トリム", "lat": 35.6979, "lon": 139.77367 }, "geometry": { "type": "Point", "coordinates": [ 139.77367, 35.6979 ] } },
{ "type": "Feature", "properties": { "name": "有楽町薬局", "lat": 35.67417, "lon": 139.76014 }, "geometry": { "type": "Point", "coordinates": [ 139.76014, 35.67417 ] } },
{ "type": "Feature", "properties": { "name": "コスモス調剤薬局 日大病院前店", "lat": 35.69787, "lon": 139.76253 }, "geometry": { "type": "Point", "coordinates": [ 139.76253, 35.69787 ] } },
{ "type": "Feature", "properties": { "name": "稲垣薬局 霞が関店", "lat": 35.67118, "lon": 139.74724 }, "geometry": { "type": "Point", "coordinates": [ 139.74724, 35.67118 ] } },
{ "type": "Feature", "properties": { "name": "末広町薬局", "lat": 35.70426, "lon": 139.77219 }, "geometry": { "type": "Point", "coordinates": [ 139.77219, 35.70426 ] } },
{ "type": "Feature", "properties": { "name": "日本調剤 秋葉原薬局", "lat": 35.69863, "lon": 139.77578 }, "geometry": { "type": "Point", "coordinates": [ 139.77578, 35.69863 ] } },
{ "type": "Feature", "properties": { "name": "メトロファーマシー神田", "lat": 35.69261, "lon": 139.77265 }, "geometry": { "type": "Point", "coordinates": [ 139.77265, 35.69261 ] } },
{ "type": "Feature", "properties": { "name": "ぱぱす薬局 妻恋坂店", "lat": 35.70346, "lon": 139.76997 }, "geometry": { "type": "Point", "coordinates": [ 139.76997, 35.70346 ] } },
{ "type": "Feature", "properties": { "name": "日本調剤 飯田橋駅前薬局", "lat": 35.69944, "lon": 139.74342 }, "geometry": { "type": "Point", "coordinates": [ 139.74342, 35.69944 ] } },
{ "type": "Feature", "properties": { "name": "スギ薬局 水道橋店", "lat": 35.70194, "lon": 139.75185 }, "geometry": { "type": "Point", "coordinates": [ 139.75185, 35.70194 ] } },
{ "type": "Feature", "properties": { "name": "エース薬局 神保町店", "lat": 35.69579, "lon": 139.7592 }, "geometry": { "type": "Point", "coordinates": [ 139.7592, 35.69579 ] } },
{ "type": "Feature", "properties": { "name": "レジーナ薬局 神保町店", "lat": 35.69614, "lon": 139.75435 }, "geometry": { "type": "Point", "coordinates": [ 139.75435, 35.69614 ] } },
{ "type": "Feature", "properties": { "name": "神田東松下町薬局", "lat": 35.69419, "lon": 139.77449 }, "geometry": { "type": "Point", "coordinates": [ 139.77449, 35.69419 ] } },
{ "type": "Feature", "properties": { "name": "たかしん薬局 九段会館テラス店", "lat": 35.69431, "lon": 139.7514 }, "geometry": { "type": "Point", "coordinates": [ 139.7514, 35.69431 ] } },
{ "type": "Feature", "properties": { "name": "イオックス薬局 麹町店", "lat": 35.68439, "lon": 139.73601 }, "geometry": { "type": "Point", "coordinates": [ 139.73601, 35.68439 ] } },
{ "type": "Feature", "properties": { "name": "スギ薬局 市ケ谷店", "lat": 35.69016, "lon": 139.7353 }, "geometry": { "type": "Point", "coordinates": [ 139.7353, 35.69016 ] } },
{ "type": "Feature", "properties": { "name": "オレンジ薬局 秋葉原店", "lat": 35.6979, "lon": 139.77421 }, "geometry": { "type": "Point", "coordinates": [ 139.77421, 35.6979 ] } },
{ "type": "Feature", "properties": { "name": "日本調剤 東京逓信病院前薬局", "lat": 35.69695, "lon": 139.74249 }, "geometry": { "type": "Point", "coordinates": [ 139.74249, 35.69695 ] } },
{ "type": "Feature", "properties": { "name": "あつみ薬局 岩本町店", "lat": 35.6967, "lon": 139.77492 }, "geometry": { "type": "Point", "coordinates": [ 139.77492, 35.6967 ] } },
{ "type": "Feature", "properties": { "name": "そうごう薬局 Otemachi One店", "lat": 35.68766, "lon": 139.76325 }, "geometry": { "type": "Point", "coordinates": [ 139.76325, 35.68766 ] } },
{ "type": "Feature", "properties": { "name": "スギ薬局 九段下店", "lat": 35.69587, "lon": 139.75189 }, "geometry": { "type": "Point", "coordinates": [ 139.75189, 35.69587 ] } },
{ "type": "Feature", "properties": { "name": "アガペ 岩本町薬局", "lat": 35.69154, "lon": 139.77583 }, "geometry": { "type": "Point", "coordinates": [ 139.77583, 35.69154 ] } },
{ "type": "Feature", "properties": { "name": "神保町1丁目薬局", "lat": 35.69484, "lon": 139.76088 }, "geometry": { "type": "Point", "coordinates": [ 139.76088, 35.69484 ] } },
{ "type": "Feature", "properties": { "name": "ウエルシア薬局 千代田麹町店", "lat": 35.68493, "lon": 139.73762 }, "geometry": { "type": "Point", "coordinates": [ 139.73762, 35.68493 ] } },
{ "type": "Feature", "properties": { "name": "アピス薬局 麹町店", "lat": 35.68355, "lon": 139.73831 }, "geometry": { "type": "Point", "coordinates": [ 139.73831, 35.68355 ] } },
{ "type": "Feature", "properties": { "name": "スギ薬局 神田駅北口店", "lat": 35.69407, "lon": 139.77044 }, "geometry": { "type": "Point", "coordinates": [ 139.77044, 35.69407 ] } },
{ "type": "Feature", "properties": { "name": "ウエルシア薬局 神田小川町2号店", "lat": 35.69476, "lon": 139.76665 }, "geometry": { "type": "Point", "coordinates": [ 139.76665, 35.69476 ] } },
{ "type": "Feature", "properties": { "name": "スギ薬局 神田淡路町店", "lat": 35.69584, "lon": 139.76789 }, "geometry": { "type": "Point", "coordinates": [ 139.76789, 35.69584 ] } },
{ "type": "Feature", "properties": { "name": "薬のヒグチ薬局 新飯田橋店", "lat": 35.70089, "lon": 139.74683 }, "geometry": { "type": "Point", "coordinates": [ 139.74683, 35.70089 ] } },
{ "type": "Feature", "properties": { "name": "ウエルシア薬局 秋葉原駅前店", "lat": 35.69875, "lon": 139.7723 }, "geometry": { "type": "Point", "coordinates": [ 139.7723, 35.69875 ] } },
{ "type": "Feature", "properties": { "name": "友林薬局", "lat": 35.7031, "lon": 139.76869 }, "geometry": { "type": "Point", "coordinates": [ 139.76869, 35.7031 ] } },
{ "type": "Feature", "properties": { "name": "ファミリーマート+ファーマライズ薬局 末広町店", "lat": 35.70418, "lon": 139.77157 }, "geometry": { "type": "Point", "coordinates": [ 139.77157, 35.70418 ] } },
{ "type": "Feature", "properties": { "name": "All in One薬局", "lat": 35.69429, "lon": 139.76259 }, "geometry": { "type": "Point", "coordinates": [ 139.76259, 35.69429 ] } },
{ "type": "Feature", "properties": { "name": "コトブキ調剤薬局 日大前店", "lat": 35.69778, "lon": 139.76248 }, "geometry": { "type": "Point", "coordinates": [ 139.76248, 35.69778 ] } },
{ "type": "Feature", "properties": { "name": "クオール薬局 ビックカメラ有楽町店", "lat": 35.67543, "lon": 139.76295 }, "geometry": { "type": "Point", "coordinates": [ 139.76295, 35.67543 ] } },
{ "type": "Feature", "properties": { "name": "フォレスト薬局 秋葉原店", "lat": 35.69744, "lon": 139.77579 }, "geometry": { "type": "Point", "coordinates": [ 139.77579, 35.69744 ] } },
{ "type": "Feature", "properties": { "name": "お茶の水調剤薬局 本店", "lat": 35.69889, "lon": 139.76392 }, "geometry": { "type": "Point", "coordinates": [ 139.76392, 35.69889 ] } },
{ "type": "Feature", "properties": { "name": "ナチュラルローソンクオール薬局 神田鍛冶町二丁目店", "lat": 35.6912, "lon": 139.77228 }, "geometry": { "type": "Point", "coordinates": [ 139.77228, 35.6912 ] } },
{ "type": "Feature", "properties": { "name": "クオール薬局 四谷店", "lat": 35.68503, "lon": 139.73399 }, "geometry": { "type": "Point", "coordinates": [ 139.73399, 35.68503 ] } },
{ "type": "Feature", "properties": { "name": "達生堂薬局", "lat": 35.69496, "lon": 139.78055 }, "geometry": { "type": "Point", "coordinates": [ 139.78055, 35.69496 ] } },
{ "type": "Feature", "properties": { "name": "アイン薬局 グランスタ丸の内店", "lat": 35.68245, "lon": 139.76828 }, "geometry": { "type": "Point", "coordinates": [ 139.76828, 35.68245 ] } },
{ "type": "Feature", "properties": { "name": "クオール薬局 丸の内店", "lat": 35.68501, "lon": 139.76705 }, "geometry": { "type": "Point", "coordinates": [ 139.76705, 35.68501 ] } },
{ "type": "Feature", "properties": { "name": "東商ビル薬局", "lat": 35.67778, "lon": 139.76151 }, "geometry": { "type": "Point", "coordinates": [ 139.76151, 35.67778 ] } },
{ "type": "Feature", "properties": { "name": "ウエルシア薬局 神田小川町店", "lat": 35.69548, "lon": 139.76675 }, "geometry": { "type": "Point", "coordinates": [ 139.76675, 35.69548 ] } },
{ "type": "Feature", "properties": { "name": "竹内薬局 神田須田町店", "lat": 35.69504, "lon": 139.77057 }, "geometry": { "type": "Point", "coordinates": [ 139.77057, 35.69504 ] } },
{ "type": "Feature", "properties": { "name": "クオール薬局 読売新聞東京本社店", "lat": 35.68721, "lon": 139.76451 }, "geometry": { "type": "Point", "coordinates": [ 139.76451, 35.68721 ] } },
{ "type": "Feature", "properties": { "name": "スギ薬局 岩本町店", "lat": 35.69576, "lon": 139.77731 }, "geometry": { "type": "Point", "coordinates": [ 139.77731, 35.69576 ] } },
{ "type": "Feature", "properties": { "name": "薬局トモズ 大手町プレイス店", "lat": 35.68696, "lon": 139.76707 }, "geometry": { "type": "Point", "coordinates": [ 139.76707, 35.68696 ] } },
{ "type": "Feature", "properties": { "name": "薬局マツモトキヨシ 御茶ノ水駿河台店", "lat": 35.69922, "lon": 139.7627 }, "geometry": { "type": "Point", "coordinates": [ 139.7627, 35.69922 ] } },
{ "type": "Feature", "properties": { "name": "さくら薬局 駿河台店", "lat": 35.69806, "lon": 139.76293 }, "geometry": { "type": "Point", "coordinates": [ 139.76293, 35.69806 ] } },
{ "type": "Feature", "properties": { "name": "スギ薬局 一番町店", "lat": 35.68761, "lon": 139.74183 }, "geometry": { "type": "Point", "coordinates": [ 139.74183, 35.68761 ] } },
{ "type": "Feature", "properties": { "name": "アイン薬局 八重洲口店", "lat": 35.683, "lon": 139.77024 }, "geometry": { "type": "Point", "coordinates": [ 139.77024, 35.683 ] } },
{ "type": "Feature", "properties": { "name": "アイン薬局 大手町店", "lat": 35.68758, "lon": 139.76582 }, "geometry": { "type": "Point", "coordinates": [ 139.76582, 35.68758 ] } },
{ "type": "Feature", "properties": { "name": "ココカラファイン薬局飯田橋店", "lat": 35.70118, "lon": 139.75001 }, "geometry": { "type": "Point", "coordinates": [ 139.75001, 35.70118 ] } },
{ "type": "Feature", "properties": { "name": "日本調剤 神田駿河台薬局", "lat": 35.69956, "lon": 139.76346 }, "geometry": { "type": "Point", "coordinates": [ 139.76346, 35.69956 ] } },
{ "type": "Feature", "properties": { "name": "さくら薬局 大手町店", "lat": 35.68582, "lon": 139.76521 }, "geometry": { "type": "Point", "coordinates": [ 139.76521, 35.68582 ] } },
{ "type": "Feature", "properties": { "name": "薬局マツモトキヨシ ワテラスモール店", "lat": 35.69757, "lon": 139.76792 }, "geometry": { "type": "Point", "coordinates": [ 139.76792, 35.69757 ] } },
{ "type": "Feature", "properties": { "name": "日本調剤 九段下薬局", "lat": 35.69576, "lon": 139.75153 }, "geometry": { "type": "Point", "coordinates": [ 139.75153, 35.69576 ] } },
{ "type": "Feature", "properties": { "name": "日本調剤 御茶ノ水橋口薬局", "lat": 35.6997, "lon": 139.76378 }, "geometry": { "type": "Point", "coordinates": [ 139.76378, 35.6997 ] } },
{ "type": "Feature", "properties": { "name": "ウエルシア薬局 千代田御茶ノ水店", "lat": 35.69938, "lon": 139.76785 }, "geometry": { "type": "Point", "coordinates": [ 139.76785, 35.69938 ] } },
{ "type": "Feature", "properties": { "name": "薬局マツモトキヨシ 岩本町駅前店", "lat": 35.69615, "lon": 139.77507 }, "geometry": { "type": "Point", "coordinates": [ 139.77507, 35.69615 ] } },
{ "type": "Feature", "properties": { "name": "そうごう薬局 東京サンケイビル店", "lat": 35.687, "lon": 139.76547 }, "geometry": { "type": "Point", "coordinates": [ 139.76547, 35.687 ] } },
{ "type": "Feature", "properties": { "name": "メトグリーン3号館薬局", "lat": 35.67599, "lon": 139.75018 }, "geometry": { "type": "Point", "coordinates": [ 139.75018, 35.67599 ] } },
{ "type": "Feature", "properties": { "name": "アガペ飯田橋薬局", "lat": 35.70052, "lon": 139.75054 }, "geometry": { "type": "Point", "coordinates": [ 139.75054, 35.70052 ] } },
{ "type": "Feature", "properties": { "name": "日本調剤 駿河台薬局", "lat": 35.70023, "lon": 139.76183 }, "geometry": { "type": "Point", "coordinates": [ 139.76183, 35.70023 ] } },
{ "type": "Feature", "properties": { "name": "千代田区薬剤師会 会営調剤薬局", "lat": 35.69606, "lon": 139.75209 }, "geometry": { "type": "Point", "coordinates": [ 139.75209, 35.69606 ] } },
{ "type": "Feature", "properties": { "name": "アサヒ薬局", "lat": 35.69372, "lon": 139.76893 }, "geometry": { "type": "Point", "coordinates": [ 139.76893, 35.69372 ] } },
{ "type": "Feature", "properties": { "name": "株式会社 薬局淡路町ファーマシー", "lat": 35.69697, "lon": 139.76643 }, "geometry": { "type": "Point", "coordinates": [ 139.76643, 35.69697 ] } },
{ "type": "Feature", "properties": { "name": "マルマツ薬局", "lat": 35.70013, "lon": 139.74845 }, "geometry": { "type": "Point", "coordinates": [ 139.74845, 35.70013 ] } },
{ "type": "Feature", "properties": { "name": "レモン薬局 秋葉原店", "lat": 35.69814, "lon": 139.77739 }, "geometry": { "type": "Point", "coordinates": [ 139.77739, 35.69814 ] } },
{ "type": "Feature", "properties": { "name": "五番町はるかぜ薬局", "lat": 35.69064, "lon": 139.73523 }, "geometry": { "type": "Point", "coordinates": [ 139.73523, 35.69064 ] } },
{ "type": "Feature", "properties": { "name": "マルマツ薬局 九段店", "lat": 35.69867, "lon": 139.74927 }, "geometry": { "type": "Point", "coordinates": [ 139.74927, 35.69867 ] } },
{ "type": "Feature", "properties": { "name": "わたなべ調剤薬局", "lat": 35.6711, "lon": 139.75427 }, "geometry": { "type": "Point", "coordinates": [ 139.75427, 35.6711 ] } },
{ "type": "Feature", "properties": { "name": "薬局タワードラッグ", "lat": 35.67212, "lon": 139.75938 }, "geometry": { "type": "Point", "coordinates": [ 139.75938, 35.67212 ] } },
{ "type": "Feature", "properties": { "name": "日生薬局 飯田橋店", "lat": 35.69895, "lon": 139.74387 }, "geometry": { "type": "Point", "coordinates": [ 139.74387, 35.69895 ] } },
{ "type": "Feature", "properties": { "name": "日本調剤飯田橋薬局", "lat": 35.69963, "lon": 139.74455 }, "geometry": { "type": "Point", "coordinates": [ 139.74455, 35.69963 ] } },
{ "type": "Feature", "properties": { "name": "小池薬局", "lat": 35.69898, "lon": 139.74517 }, "geometry": { "type": "Point", "coordinates": [ 139.74517, 35.69898 ] } },
{ "type": "Feature", "properties": { "name": "さくら薬局 内神田店", "lat": 35.6899, "lon": 139.76871 }, "geometry": { "type": "Point", "coordinates": [ 139.76871, 35.6899 ] } },
{ "type": "Feature", "properties": { "name": "永田町薬局", "lat": 35.68027, "lon": 139.74021 }, "geometry": { "type": "Point", "coordinates": [ 139.74021, 35.68027 ] } },
{ "type": "Feature", "properties": { "name": "アイン薬局 三崎店", "lat": 35.69895, "lon": 139.76353 }, "geometry": { "type": "Point", "coordinates": [ 139.76353, 35.69895 ] } },
{ "type": "Feature", "properties": { "name": "コトブキ調剤薬局", "lat": 35.69883, "lon": 139.7641 }, "geometry": { "type": "Point", "coordinates": [ 139.7641, 35.69883 ] } },
{ "type": "Feature", "properties": { "name": "いまくま薬局", "lat": 35.68385, "lon": 139.74211 }, "geometry": { "type": "Point", "coordinates": [ 139.74211, 35.68385 ] } },
{ "type": "Feature", "properties": { "name": "茅沼順子薬局", "lat": 35.68245, "lon": 139.74161 }, "geometry": { "type": "Point", "coordinates": [ 139.74161, 35.68245 ] } },
{ "type": "Feature", "properties": { "name": "小西三誠堂薬局", "lat": 35.68435, "lon": 139.7398 }, "geometry": { "type": "Point", "coordinates": [ 139.7398, 35.68435 ] } },
{ "type": "Feature", "properties": { "name": "ツイン薬局 半蔵門店", "lat": 35.68506, "lon": 139.74206 }, "geometry": { "type": "Point", "coordinates": [ 139.74206, 35.68506 ] } },
{ "type": "Feature", "properties": { "name": "有美薬局", "lat": 35.69278, "lon": 139.7707 }, "geometry": { "type": "Point", "coordinates": [ 139.7707, 35.69278 ] } },
{ "type": "Feature", "properties": { "name": "キク調剤薬局", "lat": 35.69879, "lon": 139.76306 }, "geometry": { "type": "Point", "coordinates": [ 139.76306, 35.69879 ] } },
{ "type": "Feature", "properties": { "name": "スギ薬局 神田西口通り店", "lat": 35.6911, "lon": 139.76801 }, "geometry": { "type": "Point", "coordinates": [ 139.76801, 35.6911 ] } },
{ "type": "Feature", "properties": { "name": "さくら薬局 御茶ノ水駅前店", "lat": 35.69962, "lon": 139.7635 }, "geometry": { "type": "Point", "coordinates": [ 139.7635, 35.69962 ] } },
{ "type": "Feature", "properties": { "name": "ニシザワ薬局", "lat": 35.69171, "lon": 139.76993 }, "geometry": { "type": "Point", "coordinates": [ 139.76993, 35.69171 ] } },
{ "type": "Feature", "properties": { "name": "日本調剤 お茶の水中央薬局", "lat": 35.69974, "lon": 139.76313 }, "geometry": { "type": "Point", "coordinates": [ 139.76313, 35.69974 ] } },
{ "type": "Feature", "properties": { "name": "バンビー薬局 一番町店", "lat": 35.68556, "lon": 139.74199 }, "geometry": { "type": "Point", "coordinates": [ 139.74199, 35.68556 ] } },
{ "type": "Feature", "properties": { "name": "第一薬局", "lat": 35.70116, "lon": 139.75568 }, "geometry": { "type": "Point", "coordinates": [ 139.75568, 35.70116 ] } },
{ "type": "Feature", "properties": { "name": "江川薬局", "lat": 35.70314, "lon": 139.77041 }, "geometry": { "type": "Point", "coordinates": [ 139.77041, 35.70314 ] } },
{ "type": "Feature", "properties": { "name": "そうごう薬局 有楽町店", "lat": 35.67503, "lon": 139.76296 }, "geometry": { "type": "Point", "coordinates": [ 139.76296, 35.67503 ] } },
{ "type": "Feature", "properties": { "name": "小川町薬局", "lat": 35.69469, "lon": 139.76331 }, "geometry": { "type": "Point", "coordinates": [ 139.76331, 35.69469 ] } },
{ "type": "Feature", "properties": { "name": "エール薬局 日比谷店", "lat": 35.67459, "lon": 139.76145 }, "geometry": { "type": "Point", "coordinates": [ 139.76145, 35.67459 ] } },
{ "type": "Feature", "properties": { "name": "日比谷プラザ薬局", "lat": 35.67365, "lon": 139.76078 }, "geometry": { "type": "Point", "coordinates": [ 139.76078, 35.67365 ] } },
{ "type": "Feature", "properties": { "name": "十字堂薬局", "lat": 35.69369, "lon": 139.76588 }, "geometry": { "type": "Point", "coordinates": [ 139.76588, 35.69369 ] } },
{ "type": "Feature", "properties": { "name": "興生堂薬局", "lat": 35.69809, "lon": 139.75884 }, "geometry": { "type": "Point", "coordinates": [ 139.75884, 35.69809 ] } },
{ "type": "Feature", "properties": { "name": "ココカラファイン薬局神保町店", "lat": 35.69541, "lon": 139.75583 }, "geometry": { "type": "Point", "coordinates": [ 139.75583, 35.69541 ] } },
{ "type": "Feature", "properties": { "name": "ファーコス薬局 アキバ", "lat": 35.69955, "lon": 139.77454 }, "geometry": { "type": "Point", "coordinates": [ 139.77454, 35.69955 ] } },
{ "type": "Feature", "properties": { "name": "エフエル薬局", "lat": 35.67649, "lon": 139.7383 }, "geometry": { "type": "Point", "coordinates": [ 139.7383, 35.67649 ] } },
{ "type": "Feature", "properties": { "name": "調剤薬局霞が関ファーマシー", "lat": 35.671, "lon": 139.7503 }, "geometry": { "type": "Point", "coordinates": [ 139.7503, 35.671 ] } },
{ "type": "Feature", "properties": { "name": "スギ薬局 神田駅東口店", "lat": 35.69137, "lon": 139.77156 }, "geometry": { "type": "Point", "coordinates": [ 139.77156, 35.69137 ] } },
{ "type": "Feature", "properties": { "name": "神田薬局", "lat": 35.69296, "lon": 139.76467 }, "geometry": { "type": "Point", "coordinates": [ 139.76467, 35.69296 ] } },
{ "type": "Feature", "properties": { "name": "ロイヤル薬局 神田淡路町店 健康サポート薬局", "lat": 35.69673, "lon": 139.76795 }, "geometry": { "type": "Point", "coordinates": [ 139.76795, 35.69673 ] } },
{ "type": "Feature", "properties": { "name": "薬ヒグチ調剤薬局 ニューオータニ店", "lat": 35.67946, "lon": 139.73567 }, "geometry": { "type": "Point", "coordinates": [ 139.73567, 35.67946 ] } },
{ "type": "Feature", "properties": { "name": "クローバー薬局", "lat": 35.68179, "lon": 139.73809 }, "geometry": { "type": "Point", "coordinates": [ 139.73809, 35.68179 ] } },
{ "type": "Feature", "properties": { "name": "大手町調剤薬局", "lat": 35.68559, "lon": 139.76385 }, "geometry": { "type": "Point", "coordinates": [ 139.76385, 35.68559 ] } },
{ "type": "Feature", "properties": { "name": "二六堂調剤薬局", "lat": 35.69963, "lon": 139.77817 }, "geometry": { "type": "Point", "coordinates": [ 139.77817, 35.69963 ] } },
{ "type": "Feature", "properties": { "name": "タンシ薬局", "lat": 35.70064, "lon": 139.74639 }, "geometry": { "type": "Point", "coordinates": [ 139.74639, 35.70064 ] } },
{ "type": "Feature", "properties": { "name": "いけだ薬局 駅前店", "lat": 35.69045, "lon": 139.7359 }, "geometry": { "type": "Point", "coordinates": [ 139.7359, 35.69045 ] } },
{ "type": "Feature", "properties": { "name": "有限会社 フジモト薬局", "lat": 35.67311, "lon": 139.74068 }, "geometry": { "type": "Point", "coordinates": [ 139.74068, 35.67311 ] } },
{ "type": "Feature", "properties": { "name": "龍閑堂薬局", "lat": 35.69501, "lon": 139.77701 }, "geometry": { "type": "Point", "coordinates": [ 139.77701, 35.69501 ] } },
{ "type": "Feature", "properties": { "name": "有限会社 東京薬局", "lat": 35.69528, "lon": 139.76085 }, "geometry": { "type": "Point", "coordinates": [ 139.76085, 35.69528 ] } },
{ "type": "Feature", "properties": { "name": "和同会薬局駿河台店", "lat": 35.70089, "lon": 139.7614 }, "geometry": { "type": "Point", "coordinates": [ 139.7614, 35.70089 ] } },
{ "type": "Feature", "properties": { "name": "いちご薬局神保町", "lat": 35.69477, "lon": 139.75928 }, "geometry": { "type": "Point", "coordinates": [ 139.75928, 35.69477 ] } },
{ "type": "Feature", "properties": { "name": "いずみ薬局 麹町店", "lat": 35.6844, "lon": 139.7347 }, "geometry": { "type": "Point", "coordinates": [ 139.7347, 35.6844 ] } },
{ "type": "Feature", "properties": { "name": "アップル薬局六番町店", "lat": 35.68736, "lon": 139.73353 }, "geometry": { "type": "Point", "coordinates": [ 139.73353, 35.68736 ] } },
{ "type": "Feature", "properties": { "name": "池田薬局", "lat": 35.69192, "lon": 139.74002 }, "geometry": { "type": "Point", "coordinates": [ 139.74002, 35.69192 ] } },
{ "type": "Feature", "properties": { "name": "神田いちご薬局", "lat": 35.69188, "lon": 139.77399 }, "geometry": { "type": "Point", "coordinates": [ 139.77399, 35.69188 ] } },
{ "type": "Feature", "properties": { "name": "いけだ薬局番町店", "lat": 35.68746, "lon": 139.74272 }, "geometry": { "type": "Point", "coordinates": [ 139.74272, 35.68746 ] } },
{ "type": "Feature", "properties": { "name": "株式会社ファーマみらい 共創未来 中落合薬局", "lat": 35.72087, "lon": 139.69435 }, "geometry": { "type": "Point", "coordinates": [ 139.69435, 35.72087 ] } },
{ "type": "Feature", "properties": { "name": "株式会社ファーマみらい 共創未来 左門町薬局", "lat": 35.68524, "lon": 139.72042 }, "geometry": { "type": "Point", "coordinates": [ 139.72042, 35.68524 ] } },
{ "type": "Feature", "properties": { "name": "株式会社ファーマみらい 共創未来 中井駅前薬局", "lat": 35.71449, "lon": 139.68711 }, "geometry": { "type": "Point", "coordinates": [ 139.68711, 35.71449 ] } },
{ "type": "Feature", "properties": { "name": "(有)博愛堂薬局", "lat": 35.68857, "lon": 139.69819 }, "geometry": { "type": "Point", "coordinates": [ 139.69819, 35.68857 ] } },
{ "type": "Feature", "properties": { "name": "共創未来 新宿西口薬局", "lat": 35.69251, "lon": 139.69856 }, "geometry": { "type": "Point", "coordinates": [ 139.69856, 35.69251 ] } },
{ "type": "Feature", "properties": { "name": "株式会社WinStar サンライズ薬局", "lat": 35.70269, "lon": 139.74315 }, "geometry": { "type": "Point", "coordinates": [ 139.74315, 35.70269 ] } },
{ "type": "Feature", "properties": { "name": "シナノ薬局", "lat": 35.68394, "lon": 139.71972 }, "geometry": { "type": "Point", "coordinates": [ 139.71972, 35.68394 ] } },
{ "type": "Feature", "properties": { "name": "GOOD AID株式会社 セルフケア薬局北新宿店", "lat": 35.69823, "lon": 139.697 }, "geometry": { "type": "Point", "coordinates": [ 139.697, 35.69823 ] } },
{ "type": "Feature", "properties": { "name": "つくし薬局", "lat": 35.70199, "lon": 139.70725 }, "geometry": { "type": "Point", "coordinates": [ 139.70725, 35.70199 ] } },
{ "type": "Feature", "properties": { "name": "たから薬局 江戸川橋店", "lat": 35.70814, "lon": 139.73716 }, "geometry": { "type": "Point", "coordinates": [ 139.73716, 35.70814 ] } },
{ "type": "Feature", "properties": { "name": "田辺薬局 新宿西口店", "lat": 35.69164, "lon": 139.69111 }, "geometry": { "type": "Point", "coordinates": [ 139.69111, 35.69164 ] } },
{ "type": "Feature", "properties": { "name": "ケアマーク百人町薬局", "lat": 35.70244, "lon": 139.69968 }, "geometry": { "type": "Point", "coordinates": [ 139.69968, 35.70244 ] } },
{ "type": "Feature", "properties": { "name": "地蔵通り薬局", "lat": 35.70767, "lon": 139.73525 }, "geometry": { "type": "Point", "coordinates": [ 139.73525, 35.70767 ] } },
{ "type": "Feature", "properties": { "name": "コスガ薬局", "lat": 35.70854, "lon": 139.70513 }, "geometry": { "type": "Point", "coordinates": [ 139.70513, 35.70854 ] } },
{ "type": "Feature", "properties": { "name": "富士薬局", "lat": 35.7227, "lon": 139.70176 }, "geometry": { "type": "Point", "coordinates": [ 139.70176, 35.7227 ] } },
{ "type": "Feature", "properties": { "name": "戸山薬局", "lat": 35.70108, "lon": 139.71595 }, "geometry": { "type": "Point", "coordinates": [ 139.71595, 35.70108 ] } },
{ "type": "Feature", "properties": { "name": "ワカマツ薬局", "lat": 35.70085, "lon": 139.71704 }, "geometry": { "type": "Point", "coordinates": [ 139.71704, 35.70085 ] } },
{ "type": "Feature", "properties": { "name": "アイセイ薬局 富久店", "lat": 35.69262, "lon": 139.71314 }, "geometry": { "type": "Point", "coordinates": [ 139.71314, 35.69262 ] } },
{ "type": "Feature", "properties": { "name": "アーク薬局 新宿御苑店", "lat": 35.68877, "lon": 139.70826 }, "geometry": { "type": "Point", "coordinates": [ 139.70826, 35.68877 ] } },
{ "type": "Feature", "properties": { "name": "新宿3丁目薬局", "lat": 35.69033, "lon": 139.70404 }, "geometry": { "type": "Point", "coordinates": [ 139.70404, 35.69033 ] } },
{ "type": "Feature", "properties": { "name": "西新宿5丁目薬局", "lat": 35.69153, "lon": 139.68643 }, "geometry": { "type": "Point", "coordinates": [ 139.68643, 35.69153 ] } },
{ "type": "Feature", "properties": { "name": "株式会社日本メディケートプラン 上落合2丁目薬局", "lat": 35.71103, "lon": 139.68689 }, "geometry": { "type": "Point", "coordinates": [ 139.68689, 35.71103 ] } },
{ "type": "Feature", "properties": { "name": "トモズ 女子医大前2号店", "lat": 35.69872, "lon": 139.71897 }, "geometry": { "type": "Point", "coordinates": [ 139.71897, 35.69872 ] } },
{ "type": "Feature", "properties": { "name": "トモズ 女子医大前1号店", "lat": 35.6986, "lon": 139.71906 }, "geometry": { "type": "Point", "coordinates": [ 139.71906, 35.6986 ] } },
{ "type": "Feature", "properties": { "name": "トモズ 新宿二丁目店", "lat": 35.68957, "lon": 139.70706 }, "geometry": { "type": "Point", "coordinates": [ 139.70706, 35.68957 ] } },
{ "type": "Feature", "properties": { "name": "(株)新宿調剤薬局", "lat": 35.70146, "lon": 139.71755 }, "geometry": { "type": "Point", "coordinates": [ 139.71755, 35.70146 ] } },
{ "type": "Feature", "properties": { "name": "アクア薬局 四ツ谷駅前店", "lat": 35.68628, "lon": 139.72929 }, "geometry": { "type": "Point", "coordinates": [ 139.72929, 35.68628 ] } },
{ "type": "Feature", "properties": { "name": "快生堂小林薬局", "lat": 35.68789, "lon": 139.7217 }, "geometry": { "type": "Point", "coordinates": [ 139.7217, 35.68789 ] } },
{ "type": "Feature", "properties": { "name": "ケイワ薬局 落合店(株)エスシーグループ", "lat": 35.71463, "lon": 139.69324 }, "geometry": { "type": "Point", "coordinates": [ 139.69324, 35.71463 ] } },
{ "type": "Feature", "properties": { "name": "和泉薬局", "lat": 35.71135, "lon": 139.71933 }, "geometry": { "type": "Point", "coordinates": [ 139.71933, 35.71135 ] } },
{ "type": "Feature", "properties": { "name": "薬局くすりの福太郎 飯田橋2号店", "lat": 35.70278, "lon": 139.74247 }, "geometry": { "type": "Point", "coordinates": [ 139.74247, 35.70278 ] } },
{ "type": "Feature", "properties": { "name": "東洋薬局", "lat": 35.70257, "lon": 139.69683 }, "geometry": { "type": "Point", "coordinates": [ 139.69683, 35.70257 ] } },
{ "type": "Feature", "properties": { "name": "スギ薬局 西新宿一丁目店", "lat": 35.69383, "lon": 139.70336 }, "geometry": { "type": "Point", "coordinates": [ 139.70336, 35.69383 ] } },
{ "type": "Feature", "properties": { "name": "ココカラファイン薬局 西新宿5丁目店", "lat": 35.69177, "lon": 139.6869 }, "geometry": { "type": "Point", "coordinates": [ 139.6869, 35.69177 ] } },
{ "type": "Feature", "properties": { "name": "あけぼの薬局 西新宿店", "lat": 35.69512, "lon": 139.68701 }, "geometry": { "type": "Point", "coordinates": [ 139.68701, 35.69512 ] } },
{ "type": "Feature", "properties": { "name": "ひつじ薬局 新宿西口店", "lat": 35.68871, "lon": 139.69731 }, "geometry": { "type": "Point", "coordinates": [ 139.69731, 35.68871 ] } },
{ "type": "Feature", "properties": { "name": "ウェルパーク調剤薬局 高田馬場駅前店", "lat": 35.71352, "lon": 139.70524 }, "geometry": { "type": "Point", "coordinates": [ 139.70524, 35.71352 ] } },
{ "type": "Feature", "properties": { "name": "ニュクス薬局", "lat": 35.69769, "lon": 139.70222 }, "geometry": { "type": "Point", "coordinates": [ 139.70222, 35.69769 ] } },
{ "type": "Feature", "properties": { "name": "西戸山みどり薬局", "lat": 35.70767, "lon": 139.69758 }, "geometry": { "type": "Point", "coordinates": [ 139.69758, 35.70767 ] } },
{ "type": "Feature", "properties": { "name": "スギ薬局 四谷三丁目店", "lat": 35.68824, "lon": 139.72317 }, "geometry": { "type": "Point", "coordinates": [ 139.72317, 35.68824 ] } },
{ "type": "Feature", "properties": { "name": "田辺薬局 新大久保店", "lat": 35.69984, "lon": 139.69925 }, "geometry": { "type": "Point", "coordinates": [ 139.69925, 35.69984 ] } },
{ "type": "Feature", "properties": { "name": "龍生堂薬局 新宿明治通り店", "lat": 35.69676, "lon": 139.70697 }, "geometry": { "type": "Point", "coordinates": [ 139.70697, 35.69676 ] } },
{ "type": "Feature", "properties": { "name": "龍生堂薬局 松岡セントラルビル店", "lat": 35.69179, "lon": 139.69776 }, "geometry": { "type": "Point", "coordinates": [ 139.69776, 35.69179 ] } },
{ "type": "Feature", "properties": { "name": "カムシティHIT調製薬局", "lat": 35.70088, "lon": 139.71769 }, "geometry": { "type": "Point", "coordinates": [ 139.71769, 35.70088 ] } },
{ "type": "Feature", "properties": { "name": "ココカラファイン薬局 小田急エース店", "lat": 35.69137, "lon": 139.69935 }, "geometry": { "type": "Point", "coordinates": [ 139.69935, 35.69137 ] } },
{ "type": "Feature", "properties": { "name": "高田馬場南薬局", "lat": 35.71063, "lon": 139.70367 }, "geometry": { "type": "Point", "coordinates": [ 139.70367, 35.71063 ] } },
{ "type": "Feature", "properties": { "name": "一丁目いまくま薬局", "lat": 35.68914, "lon": 139.71114 }, "geometry": { "type": "Point", "coordinates": [ 139.71114, 35.68914 ] } },
{ "type": "Feature", "properties": { "name": "ウイング薬局 四谷店", "lat": 35.68746, "lon": 139.7239 }, "geometry": { "type": "Point", "coordinates": [ 139.7239, 35.68746 ] } },
{ "type": "Feature", "properties": { "name": "新宿かぶきちょう薬局", "lat": 35.69367, "lon": 139.70221 }, "geometry": { "type": "Point", "coordinates": [ 139.70221, 35.69367 ] } },
{ "type": "Feature", "properties": { "name": "みずもと薬局", "lat": 35.72242, "lon": 139.70008 }, "geometry": { "type": "Point", "coordinates": [ 139.70008, 35.72242 ] } },
{ "type": "Feature", "properties": { "name": "すみれ薬局", "lat": 35.71284, "lon": 139.70633 }, "geometry": { "type": "Point", "coordinates": [ 139.70633, 35.71284 ] } },
{ "type": "Feature", "properties": { "name": "ユーアイ薬局 早稲田店", "lat": 35.70646, "lon": 139.71936 }, "geometry": { "type": "Point", "coordinates": [ 139.71936, 35.70646 ] } },
{ "type": "Feature", "properties": { "name": "新宿駅前薬局", "lat": 35.68997, "lon": 139.69715 }, "geometry": { "type": "Point", "coordinates": [ 139.69715, 35.68997 ] } },
{ "type": "Feature", "properties": { "name": "薬局くすりの福太郎 西早稲田店", "lat": 35.70972, "lon": 139.70973 }, "geometry": { "type": "Point", "coordinates": [ 139.70973, 35.70972 ] } },
{ "type": "Feature", "properties": { "name": "薬局くすりの福太郎 高田馬場駅西口店", "lat": 35.71347, "lon": 139.70298 }, "geometry": { "type": "Point", "coordinates": [ 139.70298, 35.71347 ] } },
{ "type": "Feature", "properties": { "name": "日本調剤 曙橋薬局", "lat": 35.69458, "lon": 139.72441 }, "geometry": { "type": "Point", "coordinates": [ 139.72441, 35.69458 ] } },
{ "type": "Feature", "properties": { "name": "あつみ薬局 早稲田店", "lat": 35.70997, "lon": 139.71491 }, "geometry": { "type": "Point", "coordinates": [ 139.71491, 35.70997 ] } },
{ "type": "Feature", "properties": { "name": "ウエルシア薬局 西新宿三井ビル店", "lat": 35.69495, "lon": 139.68898 }, "geometry": { "type": "Point", "coordinates": [ 139.68898, 35.69495 ] } },
{ "type": "Feature", "properties": { "name": "面影橋薬局", "lat": 35.71295, "lon": 139.71384 }, "geometry": { "type": "Point", "coordinates": [ 139.71384, 35.71295 ] } },
{ "type": "Feature", "properties": { "name": "アガペ四谷薬局", "lat": 35.68768, "lon": 139.7289 }, "geometry": { "type": "Point", "coordinates": [ 139.7289, 35.68768 ] } },
{ "type": "Feature", "properties": { "name": "日本調剤 牛込天神薬局", "lat": 35.70455, "lon": 139.73135 }, "geometry": { "type": "Point", "coordinates": [ 139.73135, 35.70455 ] } },
{ "type": "Feature", "properties": { "name": "薬局マツモトキヨシ 西新宿一丁目店", "lat": 35.68901, "lon": 139.69803 }, "geometry": { "type": "Point", "coordinates": [ 139.69803, 35.68901 ] } },
{ "type": "Feature", "properties": { "name": "スギ薬局 新宿三丁目店", "lat": 35.69163, "lon": 139.70559 }, "geometry": { "type": "Point", "coordinates": [ 139.70559, 35.69163 ] } },
{ "type": "Feature", "properties": { "name": "新宿東口駅前薬局", "lat": 35.69265, "lon": 139.70165 }, "geometry": { "type": "Point", "coordinates": [ 139.70165, 35.69265 ] } },
{ "type": "Feature", "properties": { "name": "ウエルシア薬局 新宿大久保一丁目店", "lat": 35.70033, "lon": 139.70755 }, "geometry": { "type": "Point", "coordinates": [ 139.70755, 35.70033 ] } },
{ "type": "Feature", "properties": { "name": "なつめ薬局 高田馬場店", "lat": 35.71304, "lon": 139.70727 }, "geometry": { "type": "Point", "coordinates": [ 139.70727, 35.71304 ] } },
{ "type": "Feature", "properties": { "name": "大久保薬局", "lat": 35.70331, "lon": 139.70871 }, "geometry": { "type": "Point", "coordinates": [ 139.70871, 35.70331 ] } },
{ "type": "Feature", "properties": { "name": "クオール薬局 ビックカメラ新宿東口店", "lat": 35.69135, "lon": 139.70301 }, "geometry": { "type": "Point", "coordinates": [ 139.70301, 35.69135 ] } },
{ "type": "Feature", "properties": { "name": "ナチュラルローソンクオール薬局 新宿駅西店", "lat": 35.68988, "lon": 139.69664 }, "geometry": { "type": "Point", "coordinates": [ 139.69664, 35.68988 ] } },
{ "type": "Feature", "properties": { "name": "スギ薬局 新宿御苑店", "lat": 35.68934, "lon": 139.70878 }, "geometry": { "type": "Point", "coordinates": [ 139.70878, 35.68934 ] } },
{ "type": "Feature", "properties": { "name": "ことぶき薬局 新宿余丁町店", "lat": 35.69832, "lon": 139.7164 }, "geometry": { "type": "Point", "coordinates": [ 139.7164, 35.69832 ] } },
{ "type": "Feature", "properties": { "name": "薬ヒグチ調剤薬局 パークタワー店", "lat": 35.68547, "lon": 139.69081 }, "geometry": { "type": "Point", "coordinates": [ 139.69081, 35.68547 ] } },
{ "type": "Feature", "properties": { "name": "ことぶき薬局 目白店", "lat": 35.72107, "lon": 139.69812 }, "geometry": { "type": "Point", "coordinates": [ 139.69812, 35.72107 ] } },
{ "type": "Feature", "properties": { "name": "スギ薬局 大久保二丁目店", "lat": 35.70276, "lon": 139.70809 }, "geometry": { "type": "Point", "coordinates": [ 139.70809, 35.70276 ] } },
{ "type": "Feature", "properties": { "name": "薬ヒグチ薬局 新宿御苑前店", "lat": 35.68962, "lon": 139.71238 }, "geometry": { "type": "Point", "coordinates": [ 139.71238, 35.68962 ] } },
{ "type": "Feature", "properties": { "name": "あるも薬局 山吹町店", "lat": 35.70772, "lon": 139.72942 }, "geometry": { "type": "Point", "coordinates": [ 139.72942, 35.70772 ] } },
{ "type": "Feature", "properties": { "name": "ひまわり薬局", "lat": 35.68793, "lon": 139.71182 }, "geometry": { "type": "Point", "coordinates": [ 139.71182, 35.68793 ] } },
{ "type": "Feature", "properties": { "name": "北町薬局", "lat": 35.70005, "lon": 139.73324 }, "geometry": { "type": "Point", "coordinates": [ 139.73324, 35.70005 ] } },
{ "type": "Feature", "properties": { "name": "スギ薬局 新宿二丁目店", "lat": 35.69075, "lon": 139.70994 }, "geometry": { "type": "Point", "coordinates": [ 139.70994, 35.69075 ] } },
{ "type": "Feature", "properties": { "name": "薬ヒグチ調剤薬局 四谷駅前店", "lat": 35.68579, "lon": 139.72888 }, "geometry": { "type": "Point", "coordinates": [ 139.72888, 35.68579 ] } },
{ "type": "Feature", "properties": { "name": "ウエルシア薬局 O-GUARD新宿店", "lat": 35.69391, "lon": 139.69874 }, "geometry": { "type": "Point", "coordinates": [ 139.69874, 35.69391 ] } },
{ "type": "Feature", "properties": { "name": "たんぽぽ薬局 神楽坂店", "lat": 35.70755, "lon": 139.73793 }, "geometry": { "type": "Point", "coordinates": [ 139.73793, 35.70755 ] } },
{ "type": "Feature", "properties": { "name": "ヤマグチ薬局 西新宿店", "lat": 35.69295, "lon": 139.69537 }, "geometry": { "type": "Point", "coordinates": [ 139.69537, 35.69295 ] } },
{ "type": "Feature", "properties": { "name": "フィレールメディカル早稲田薬局", "lat": 35.70594, "lon": 139.71955 }, "geometry": { "type": "Point", "coordinates": [ 139.71955, 35.70594 ] } },
{ "type": "Feature", "properties": { "name": "薬局マツモトキヨシ 新宿三丁目Part2店", "lat": 35.69182, "lon": 139.70365 }, "geometry": { "type": "Point", "coordinates": [ 139.70365, 35.69182 ] } },
{ "type": "Feature", "properties": { "name": "そうごう薬局 東新宿駅前店", "lat": 35.69914, "lon": 139.70802 }, "geometry": { "type": "Point", "coordinates": [ 139.70802, 35.69914 ] } },
{ "type": "Feature", "properties": { "name": "クリエイト薬局 新宿若松町店", "lat": 35.70017, "lon": 139.72044 }, "geometry": { "type": "Point", "coordinates": [ 139.72044, 35.70017 ] } },
{ "type": "Feature", "properties": { "name": "龍生堂薬局 アイランドタワー店", "lat": 35.69313, "lon": 139.69314 }, "geometry": { "type": "Point", "coordinates": [ 139.69314, 35.69313 ] } },
{ "type": "Feature", "properties": { "name": "日本調剤 四谷薬局", "lat": 35.68585, "lon": 139.72869 }, "geometry": { "type": "Point", "coordinates": [ 139.72869, 35.68585 ] } },
{ "type": "Feature", "properties": { "name": "東新宿クリア薬局", "lat": 35.69606, "lon": 139.70743 }, "geometry": { "type": "Point", "coordinates": [ 139.70743, 35.69606 ] } },
{ "type": "Feature", "properties": { "name": "アイランド薬局 西早稲田店", "lat": 35.70862, "lon": 139.70866 }, "geometry": { "type": "Point", "coordinates": [ 139.70866, 35.70862 ] } },
{ "type": "Feature", "properties": { "name": "ミキ薬局 本店", "lat": 35.69901, "lon": 139.71888 }, "geometry": { "type": "Point", "coordinates": [ 139.71888, 35.69901 ] } },
{ "type": "Feature", "properties": { "name": "調剤薬局ツルハドラッグ 新宿上落合店", "lat": 35.71089, "lon": 139.68436 }, "geometry": { "type": "Point", "coordinates": [ 139.68436, 35.71089 ] } },
{ "type": "Feature", "properties": { "name": "薬局くすりの福太郎 市谷田町店", "lat": 35.69392, "lon": 139.73714 }, "geometry": { "type": "Point", "coordinates": [ 139.73714, 35.69392 ] } },
{ "type": "Feature", "properties": { "name": "薬局くすりの福太郎 高田馬場店", "lat": 35.71147, "lon": 139.70398 }, "geometry": { "type": "Point", "coordinates": [ 139.70398, 35.71147 ] } },
{ "type": "Feature", "properties": { "name": "日本調剤 神楽坂薬局", "lat": 35.70358, "lon": 139.73509 }, "geometry": { "type": "Point", "coordinates": [ 139.73509, 35.70358 ] } },
{ "type": "Feature", "properties": { "name": "薬局マツモトキヨシ 中井駅前店", "lat": 35.71472, "lon": 139.68724 }, "geometry": { "type": "Point", "coordinates": [ 139.68724, 35.71472 ] } },
{ "type": "Feature", "properties": { "name": "クリエイト薬局 新宿市ヶ谷店", "lat": 35.69392, "lon": 139.7366 }, "geometry": { "type": "Point", "coordinates": [ 139.7366, 35.69392 ] } },
{ "type": "Feature", "properties": { "name": "スギ薬局 新宿若松町店", "lat": 35.70075, "lon": 139.71878 }, "geometry": { "type": "Point", "coordinates": [ 139.71878, 35.70075 ] } },
{ "type": "Feature", "properties": { "name": "レジーナ薬局 新宿店", "lat": 35.68894, "lon": 139.70333 }, "geometry": { "type": "Point", "coordinates": [ 139.70333, 35.68894 ] } },
{ "type": "Feature", "properties": { "name": "一般社団法人新宿区薬剤師会会営センター薬局", "lat": 35.6981, "lon": 139.70969 }, "geometry": { "type": "Point", "coordinates": [ 139.70969, 35.6981 ] } },
{ "type": "Feature", "properties": { "name": "ウエルシア薬局 新宿牛込店", "lat": 35.69973, "lon": 139.73198 }, "geometry": { "type": "Point", "coordinates": [ 139.73198, 35.69973 ] } },
{ "type": "Feature", "properties": { "name": "薬局マツモトキヨシ 神楽坂店", "lat": 35.70086, "lon": 139.7423 }, "geometry": { "type": "Point", "coordinates": [ 139.7423, 35.70086 ] } },
{ "type": "Feature", "properties": { "name": "薬局トモズ 高田馬場店", "lat": 35.71337, "lon": 139.70126 }, "geometry": { "type": "Point", "coordinates": [ 139.70126, 35.71337 ] } },
{ "type": "Feature", "properties": { "name": "アイン薬局 NEWoMan新宿店", "lat": 35.68874, "lon": 139.70183 }, "geometry": { "type": "Point", "coordinates": [ 139.70183, 35.68874 ] } },
{ "type": "Feature", "properties": { "name": "四谷いちょう薬局", "lat": 35.68731, "lon": 139.71625 }, "geometry": { "type": "Point", "coordinates": [ 139.71625, 35.68731 ] } },
{ "type": "Feature", "properties": { "name": "クリエイト薬局 新宿市谷田町店", "lat": 35.69255, "lon": 139.73536 }, "geometry": { "type": "Point", "coordinates": [ 139.73536, 35.69255 ] } },
{ "type": "Feature", "properties": { "name": "アイン薬局 大久保店", "lat": 35.69711, "lon": 139.70196 }, "geometry": { "type": "Point", "coordinates": [ 139.70196, 35.69711 ] } },
{ "type": "Feature", "properties": { "name": "ファーコス薬局 新宿", "lat": 35.70125, "lon": 139.70501 }, "geometry": { "type": "Point", "coordinates": [ 139.70501, 35.70125 ] } },
{ "type": "Feature", "properties": { "name": "西新宿薬局", "lat": 35.69827, "lon": 139.69751 }, "geometry": { "type": "Point", "coordinates": [ 139.69751, 35.69827 ] } },
{ "type": "Feature", "properties": { "name": "西垣薬局", "lat": 35.69258, "lon": 139.69119 }, "geometry": { "type": "Point", "coordinates": [ 139.69119, 35.69258 ] } },
{ "type": "Feature", "properties": { "name": "ぱぱす薬局 新宿イーストサイドスクエア店", "lat": 35.69659, "lon": 139.70887 }, "geometry": { "type": "Point", "coordinates": [ 139.70887, 35.69659 ] } },
{ "type": "Feature", "properties": { "name": "クリエイト薬局 新宿早稲田店", "lat": 35.7056, "lon": 139.7207 }, "geometry": { "type": "Point", "coordinates": [ 139.7207, 35.7056 ] } },
{ "type": "Feature", "properties": { "name": "かちどき薬局 落合店パート2", "lat": 35.72081, "lon": 139.69439 }, "geometry": { "type": "Point", "coordinates": [ 139.69439, 35.72081 ] } },
{ "type": "Feature", "properties": { "name": "さくら薬局 四谷店", "lat": 35.68843, "lon": 139.72733 }, "geometry": { "type": "Point", "coordinates": [ 139.72733, 35.68843 ] } },
{ "type": "Feature", "properties": { "name": "ミネ薬局 新宿若松町店", "lat": 35.70105, "lon": 139.71648 }, "geometry": { "type": "Point", "coordinates": [ 139.71648, 35.70105 ] } },
{ "type": "Feature", "properties": { "name": "薬局くすりの福太郎 飯田橋店", "lat": 35.70278, "lon": 139.74247 }, "geometry": { "type": "Point", "coordinates": [ 139.74247, 35.70278 ] } },
{ "type": "Feature", "properties": { "name": "ココカラファイン薬局 曙橋店", "lat": 35.69396, "lon": 139.7207 }, "geometry": { "type": "Point", "coordinates": [ 139.7207, 35.69396 ] } },
{ "type": "Feature", "properties": { "name": "若草薬局", "lat": 35.71305, "lon": 139.70316 }, "geometry": { "type": "Point", "coordinates": [ 139.70316, 35.71305 ] } },
{ "type": "Feature", "properties": { "name": "ヨシキ薬局 山吹町店", "lat": 35.70844, "lon": 139.73062 }, "geometry": { "type": "Point", "coordinates": [ 139.73062, 35.70844 ] } },
{ "type": "Feature", "properties": { "name": "フリージア薬局 北新宿店", "lat": 35.7035, "lon": 139.68856 }, "geometry": { "type": "Point", "coordinates": [ 139.68856, 35.7035 ] } },
{ "type": "Feature", "properties": { "name": "なの花薬局たまち店", "lat": 35.69392, "lon": 139.7366 }, "geometry": { "type": "Point", "coordinates": [ 139.7366, 35.69392 ] } },
{ "type": "Feature", "properties": { "name": "日生薬局 新若松町店", "lat": 35.69999, "lon": 139.7182 }, "geometry": { "type": "Point", "coordinates": [ 139.7182, 35.69999 ] } },
{ "type": "Feature", "properties": { "name": "日生薬局 西新宿店", "lat": 35.6944, "lon": 139.6935 }, "geometry": { "type": "Point", "coordinates": [ 139.6935, 35.6944 ] } },
{ "type": "Feature", "properties": { "name": "中川薬局 西落合店", "lat": 35.72282, "lon": 139.68416 }, "geometry": { "type": "Point", "coordinates": [ 139.68416, 35.72282 ] } },
{ "type": "Feature", "properties": { "name": "アイ薬局 神楽坂店", "lat": 35.70285, "lon": 139.73767 }, "geometry": { "type": "Point", "coordinates": [ 139.73767, 35.70285 ] } },
{ "type": "Feature", "properties": { "name": "稲垣薬局", "lat": 35.69993, "lon": 139.72074 }, "geometry": { "type": "Point", "coordinates": [ 139.72074, 35.69993 ] } },
{ "type": "Feature", "properties": { "name": "ヤマグチ薬局 オペラシティ店", "lat": 35.68296, "lon": 139.68672 }, "geometry": { "type": "Point", "coordinates": [ 139.68672, 35.68296 ] } },
{ "type": "Feature", "properties": { "name": "だいまる薬局 抜弁天", "lat": 35.69759, "lon": 139.71377 }, "geometry": { "type": "Point", "coordinates": [ 139.71377, 35.69759 ] } },
{ "type": "Feature", "properties": { "name": "中西薬局 2丁目店", "lat": 35.71205, "lon": 139.70786 }, "geometry": { "type": "Point", "coordinates": [ 139.70786, 35.71205 ] } },
{ "type": "Feature", "properties": { "name": "ツイン薬局 神楽坂店", "lat": 35.70075, "lon": 139.741 }, "geometry": { "type": "Point", "coordinates": [ 139.741, 35.70075 ] } },
{ "type": "Feature", "properties": { "name": "龍生堂薬局 大久保店", "lat": 35.70138, "lon": 139.69877 }, "geometry": { "type": "Point", "coordinates": [ 139.69877, 35.70138 ] } },
{ "type": "Feature", "properties": { "name": "うさぎ薬局", "lat": 35.71031, "lon": 139.68342 }, "geometry": { "type": "Point", "coordinates": [ 139.68342, 35.71031 ] } },
{ "type": "Feature", "properties": { "name": "本田薬局 中落合店", "lat": 35.72087, "lon": 139.69438 }, "geometry": { "type": "Point", "coordinates": [ 139.69438, 35.72087 ] } },
{ "type": "Feature", "properties": { "name": "ケイワ薬局 高田馬場店", "lat": 35.71266, "lon": 139.70141 }, "geometry": { "type": "Point", "coordinates": [ 139.70141, 35.71266 ] } },
{ "type": "Feature", "properties": { "name": "日本調剤 新飯田橋薬局", "lat": 35.70313, "lon": 139.74329 }, "geometry": { "type": "Point", "coordinates": [ 139.74329, 35.70313 ] } },
{ "type": "Feature", "properties": { "name": "龍生堂薬局 四谷三丁目店", "lat": 35.68755, "lon": 139.71962 }, "geometry": { "type": "Point", "coordinates": [ 139.71962, 35.68755 ] } },
{ "type": "Feature", "properties": { "name": "ミキ薬局 第二女子医大通り店", "lat": 35.69866, "lon": 139.71899 }, "geometry": { "type": "Point", "coordinates": [ 139.71899, 35.69866 ] } },
{ "type": "Feature", "properties": { "name": "たけのこ薬局", "lat": 35.7217, "lon": 139.69617 }, "geometry": { "type": "Point", "coordinates": [ 139.69617, 35.7217 ] } },
{ "type": "Feature", "properties": { "name": "日本調剤 慶應堂薬局", "lat": 35.68074, "lon": 139.71966 }, "geometry": { "type": "Point", "coordinates": [ 139.71966, 35.68074 ] } },
{ "type": "Feature", "properties": { "name": "ツイン薬局", "lat": 35.70336, "lon": 139.74098 }, "geometry": { "type": "Point", "coordinates": [ 139.74098, 35.70336 ] } },
{ "type": "Feature", "properties": { "name": "だいまる薬局 余丁町", "lat": 35.69699, "lon": 139.71362 }, "geometry": { "type": "Point", "coordinates": [ 139.71362, 35.69699 ] } },
{ "type": "Feature", "properties": { "name": "フクロ薬局 早稲田店", "lat": 35.70589, "lon": 139.72177 }, "geometry": { "type": "Point", "coordinates": [ 139.72177, 35.70589 ] } },
{ "type": "Feature", "properties": { "name": "クレヨン薬局 神楽坂店", "lat": 35.70402, "lon": 139.73243 }, "geometry": { "type": "Point", "coordinates": [ 139.73243, 35.70402 ] } },
{ "type": "Feature", "properties": { "name": "ナカ薬局", "lat": 35.68537, "lon": 139.7288 }, "geometry": { "type": "Point", "coordinates": [ 139.7288, 35.68537 ] } },
{ "type": "Feature", "properties": { "name": "日本調剤 女子医大通り薬局", "lat": 35.69887, "lon": 139.71885 }, "geometry": { "type": "Point", "coordinates": [ 139.71885, 35.69887 ] } },
{ "type": "Feature", "properties": { "name": "ミキ薬局 若松町店", "lat": 35.6992, "lon": 139.71886 }, "geometry": { "type": "Point", "coordinates": [ 139.71886, 35.6992 ] } },
{ "type": "Feature", "properties": { "name": "コクミン薬局 国際医療センター前店", "lat": 35.70109, "lon": 139.71635 }, "geometry": { "type": "Point", "coordinates": [ 139.71635, 35.70109 ] } },
{ "type": "Feature", "properties": { "name": "紫山堂薬局 若松町店", "lat": 35.70104, "lon": 139.71658 }, "geometry": { "type": "Point", "coordinates": [ 139.71658, 35.70104 ] } },
{ "type": "Feature", "properties": { "name": "コスモス薬局", "lat": 35.69995, "lon": 139.72001 }, "geometry": { "type": "Point", "coordinates": [ 139.72001, 35.69995 ] } },
{ "type": "Feature", "properties": { "name": "スミダ薬局 高田馬場店", "lat": 35.712, "lon": 139.70312 }, "geometry": { "type": "Point", "coordinates": [ 139.70312, 35.712 ] } },
{ "type": "Feature", "properties": { "name": "花梨堂薬局", "lat": 35.70545, "lon": 139.72284 }, "geometry": { "type": "Point", "coordinates": [ 139.72284, 35.70545 ] } },
{ "type": "Feature", "properties": { "name": "日生薬局 牛込店", "lat": 35.69951, "lon": 139.7219 }, "geometry": { "type": "Point", "coordinates": [ 139.7219, 35.69951 ] } },
{ "type": "Feature", "properties": { "name": "けやき薬局", "lat": 35.70818, "lon": 139.72242 }, "geometry": { "type": "Point", "coordinates": [ 139.72242, 35.70818 ] } },
{ "type": "Feature", "properties": { "name": "ミキ薬局 女子医大通り店", "lat": 35.69882, "lon": 139.71895 }, "geometry": { "type": "Point", "coordinates": [ 139.71895, 35.69882 ] } },
{ "type": "Feature", "properties": { "name": "きぼう堂薬局 四谷店", "lat": 35.68696, "lon": 139.72789 }, "geometry": { "type": "Point", "coordinates": [ 139.72789, 35.68696 ] } },
{ "type": "Feature", "properties": { "name": "フラワー薬局 新宿店", "lat": 35.69217, "lon": 139.71511 }, "geometry": { "type": "Point", "coordinates": [ 139.71511, 35.69217 ] } },
{ "type": "Feature", "properties": { "name": "エアロ調剤薬局", "lat": 35.69009, "lon": 139.70777 }, "geometry": { "type": "Point", "coordinates": [ 139.70777, 35.69009 ] } },
{ "type": "Feature", "properties": { "name": "龍生堂薬局 ワセダ東店", "lat": 35.71164, "lon": 139.70791 }, "geometry": { "type": "Point", "coordinates": [ 139.70791, 35.71164 ] } },
{ "type": "Feature", "properties": { "name": "龍生堂薬局 東新宿店", "lat": 35.69209, "lon": 139.70799 }, "geometry": { "type": "Point", "coordinates": [ 139.70799, 35.69209 ] } },
{ "type": "Feature", "properties": { "name": "カワダ薬局", "lat": 35.69907, "lon": 139.71818 }, "geometry": { "type": "Point", "coordinates": [ 139.71818, 35.69907 ] } },
{ "type": "Feature", "properties": { "name": "はしむら薬局", "lat": 35.71357, "lon": 139.70674 }, "geometry": { "type": "Point", "coordinates": [ 139.70674, 35.71357 ] } },
{ "type": "Feature", "properties": { "name": "ミキ薬局 河田町店", "lat": 35.69903, "lon": 139.71855 }, "geometry": { "type": "Point", "coordinates": [ 139.71855, 35.69903 ] } },
{ "type": "Feature", "properties": { "name": "薬樹薬局 高田馬場", "lat": 35.71097, "lon": 139.7078 }, "geometry": { "type": "Point", "coordinates": [ 139.7078, 35.71097 ] } },
{ "type": "Feature", "properties": { "name": "スギ薬局 高田馬場店", "lat": 35.7114, "lon": 139.7092 }, "geometry": { "type": "Point", "coordinates": [ 139.7092, 35.7114 ] } },
{ "type": "Feature", "properties": { "name": "日生薬局 若松河田駅前店", "lat": 35.6991, "lon": 139.71827 }, "geometry": { "type": "Point", "coordinates": [ 139.71827, 35.6991 ] } },
{ "type": "Feature", "properties": { "name": "日生薬局 河田町店", "lat": 35.69605, "lon": 139.71976 }, "geometry": { "type": "Point", "coordinates": [ 139.71976, 35.69605 ] } },
{ "type": "Feature", "properties": { "name": "中西薬局", "lat": 35.71401, "lon": 139.70323 }, "geometry": { "type": "Point", "coordinates": [ 139.70323, 35.71401 ] } },
{ "type": "Feature", "properties": { "name": "薬局わたなべファーマシー", "lat": 35.71145, "lon": 139.7048 }, "geometry": { "type": "Point", "coordinates": [ 139.7048, 35.71145 ] } },
{ "type": "Feature", "properties": { "name": "新宿ヒカリ薬局", "lat": 35.69086, "lon": 139.70986 }, "geometry": { "type": "Point", "coordinates": [ 139.70986, 35.69086 ] } },
{ "type": "Feature", "properties": { "name": "龍生堂薬局 新宿店", "lat": 35.69319, "lon": 139.70233 }, "geometry": { "type": "Point", "coordinates": [ 139.70233, 35.69319 ] } },
{ "type": "Feature", "properties": { "name": "ユーアイ薬局 新宿店", "lat": 35.68941, "lon": 139.69665 }, "geometry": { "type": "Point", "coordinates": [ 139.69665, 35.68941 ] } },
{ "type": "Feature", "properties": { "name": "アイ薬局", "lat": 35.70706, "lon": 139.74303 }, "geometry": { "type": "Point", "coordinates": [ 139.74303, 35.70706 ] } },
{ "type": "Feature", "properties": { "name": "マミー薬局 新宿御苑店", "lat": 35.68864, "lon": 139.71174 }, "geometry": { "type": "Point", "coordinates": [ 139.71174, 35.68864 ] } },
{ "type": "Feature", "properties": { "name": "ミキ調剤薬局", "lat": 35.68813, "lon": 139.69349 }, "geometry": { "type": "Point", "coordinates": [ 139.69349, 35.68813 ] } },
{ "type": "Feature", "properties": { "name": "新星堂薬局", "lat": 35.70976, "lon": 139.7154 }, "geometry": { "type": "Point", "coordinates": [ 139.7154, 35.70976 ] } },
{ "type": "Feature", "properties": { "name": "かちどき薬局 センター店", "lat": 35.69171, "lon": 139.69546 }, "geometry": { "type": "Point", "coordinates": [ 139.69546, 35.69171 ] } },
{ "type": "Feature", "properties": { "name": "龍生堂薬局 アイランド店", "lat": 35.69391, "lon": 139.69325 }, "geometry": { "type": "Point", "coordinates": [ 139.69325, 35.69391 ] } },
{ "type": "Feature", "properties": { "name": "かちどき薬局 三井店", "lat": 35.69192, "lon": 139.69389 }, "geometry": { "type": "Point", "coordinates": [ 139.69389, 35.69192 ] } },
{ "type": "Feature", "properties": { "name": "有限会社 伊賀薬局", "lat": 35.69379, "lon": 139.68675 }, "geometry": { "type": "Point", "coordinates": [ 139.68675, 35.69379 ] } },
{ "type": "Feature", "properties": { "name": "ドラッグセイムス西新宿6丁目薬局", "lat": 35.69172, "lon": 139.68775 }, "geometry": { "type": "Point", "coordinates": [ 139.68775, 35.69172 ] } },
{ "type": "Feature", "properties": { "name": "ナチュラルローソンクオール薬局 西新宿七丁目店", "lat": 35.69394, "lon": 139.69524 }, "geometry": { "type": "Point", "coordinates": [ 139.69524, 35.69394 ] } },
{ "type": "Feature", "properties": { "name": "西新宿調剤薬局", "lat": 35.68545, "lon": 139.68857 }, "geometry": { "type": "Point", "coordinates": [ 139.68857, 35.68545 ] } },
{ "type": "Feature", "properties": { "name": "オーエス薬局 新宿西口店", "lat": 35.69085, "lon": 139.69687 }, "geometry": { "type": "Point", "coordinates": [ 139.69687, 35.69085 ] } },
{ "type": "Feature", "properties": { "name": "スギ薬局 西新宿医大前店", "lat": 35.69465, "lon": 139.69306 }, "geometry": { "type": "Point", "coordinates": [ 139.69306, 35.69465 ] } },
{ "type": "Feature", "properties": { "name": "アイン薬局 西新宿店", "lat": 35.69334, "lon": 139.69271 }, "geometry": { "type": "Point", "coordinates": [ 139.69271, 35.69334 ] } },
{ "type": "Feature", "properties": { "name": "アイン薬局 新大久保店", "lat": 35.70441, "lon": 139.69987 }, "geometry": { "type": "Point", "coordinates": [ 139.69987, 35.70441 ] } },
{ "type": "Feature", "properties": { "name": "サノ薬局", "lat": 35.70749, "lon": 139.69755 }, "geometry": { "type": "Point", "coordinates": [ 139.69755, 35.70749 ] } },
{ "type": "Feature", "properties": { "name": "龍生堂薬局 新大久保店", "lat": 35.70303, "lon": 139.70008 }, "geometry": { "type": "Point", "coordinates": [ 139.70008, 35.70303 ] } },
{ "type": "Feature", "properties": { "name": "プラス薬局", "lat": 35.72136, "lon": 139.68294 }, "geometry": { "type": "Point", "coordinates": [ 139.68294, 35.72136 ] } },
{ "type": "Feature", "properties": { "name": "市ヶ谷ファマシー薬局 あけぼの橋通り店", "lat": 35.69472, "lon": 139.72037 }, "geometry": { "type": "Point", "coordinates": [ 139.72037, 35.69472 ] } },
{ "type": "Feature", "properties": { "name": "やまぶき薬局", "lat": 35.70771, "lon": 139.72907 }, "geometry": { "type": "Point", "coordinates": [ 139.72907, 35.70771 ] } },
{ "type": "Feature", "properties": { "name": "ヤマグチ薬局 哲学堂店", "lat": 35.72019, "lon": 139.6752 }, "geometry": { "type": "Point", "coordinates": [ 139.6752, 35.72019 ] } },
{ "type": "Feature", "properties": { "name": "ユーアイ薬局 新大久保店", "lat": 35.7042, "lon": 139.69916 }, "geometry": { "type": "Point", "coordinates": [ 139.69916, 35.7042 ] } },
{ "type": "Feature", "properties": { "name": "フロンティア薬局 新大久保店", "lat": 35.70413, "lon": 139.69955 }, "geometry": { "type": "Point", "coordinates": [ 139.69955, 35.70413 ] } },
{ "type": "Feature", "properties": { "name": "レジーナ薬局 東新宿店", "lat": 35.69758, "lon": 139.71349 }, "geometry": { "type": "Point", "coordinates": [ 139.71349, 35.69758 ] } },
{ "type": "Feature", "properties": { "name": "アイファ薬局 神楽坂店", "lat": 35.70099, "lon": 139.74041 }, "geometry": { "type": "Point", "coordinates": [ 139.74041, 35.70099 ] } },
{ "type": "Feature", "properties": { "name": "ひな薬局", "lat": 35.70405, "lon": 139.70021 }, "geometry": { "type": "Point", "coordinates": [ 139.70021, 35.70405 ] } },
{ "type": "Feature", "properties": { "name": "抜弁天薬局", "lat": 35.6978, "lon": 139.71516 }, "geometry": { "type": "Point", "coordinates": [ 139.71516, 35.6978 ] } },
{ "type": "Feature", "properties": { "name": "さくら薬局 神楽坂店", "lat": 35.70343, "lon": 139.73644 }, "geometry": { "type": "Point", "coordinates": [ 139.73644, 35.70343 ] } },
{ "type": "Feature", "properties": { "name": "あかぎ薬局", "lat": 35.70504, "lon": 139.73422 }, "geometry": { "type": "Point", "coordinates": [ 139.73422, 35.70504 ] } },
{ "type": "Feature", "properties": { "name": "さくら薬局 目白店", "lat": 35.72208, "lon": 139.69551 }, "geometry": { "type": "Point", "coordinates": [ 139.69551, 35.72208 ] } },
{ "type": "Feature", "properties": { "name": "グラム薬局 下落合店", "lat": 35.71965, "lon": 139.69487 }, "geometry": { "type": "Point", "coordinates": [ 139.69487, 35.71965 ] } },
{ "type": "Feature", "properties": { "name": "スギ薬局 北新宿3丁目店", "lat": 35.70212, "lon": 139.69397 }, "geometry": { "type": "Point", "coordinates": [ 139.69397, 35.70212 ] } },
{ "type": "Feature", "properties": { "name": "有限会社 萱沼薬局", "lat": 35.69778, "lon": 139.73449 }, "geometry": { "type": "Point", "coordinates": [ 139.73449, 35.69778 ] } },
{ "type": "Feature", "properties": { "name": "さくら薬局 飯田橋駅前店", "lat": 35.70301, "lon": 139.7431 }, "geometry": { "type": "Point", "coordinates": [ 139.7431, 35.70301 ] } },
{ "type": "Feature", "properties": { "name": "あいの薬局", "lat": 35.701, "lon": 139.70853 }, "geometry": { "type": "Point", "coordinates": [ 139.70853, 35.701 ] } },
{ "type": "Feature", "properties": { "name": "目白薬局", "lat": 35.72246, "lon": 139.70381 }, "geometry": { "type": "Point", "coordinates": [ 139.70381, 35.72246 ] } },
{ "type": "Feature", "properties": { "name": "ほほえみ薬局", "lat": 35.70089, "lon": 139.70643 }, "geometry": { "type": "Point", "coordinates": [ 139.70643, 35.70089 ] } },
{ "type": "Feature", "properties": { "name": "中里薬局", "lat": 35.70549, "lon": 139.73189 }, "geometry": { "type": "Point", "coordinates": [ 139.73189, 35.70549 ] } },
{ "type": "Feature", "properties": { "name": "健康プラザ薬局", "lat": 35.69668, "lon": 139.70116 }, "geometry": { "type": "Point", "coordinates": [ 139.70116, 35.69668 ] } },
{ "type": "Feature", "properties": { "name": "カラサワ薬局", "lat": 35.70774, "lon": 139.73503 }, "geometry": { "type": "Point", "coordinates": [ 139.73503, 35.70774 ] } },
{ "type": "Feature", "properties": { "name": "丸美屋薬局 北新宿店", "lat": 35.70676, "lon": 139.68922 }, "geometry": { "type": "Point", "coordinates": [ 139.68922, 35.70676 ] } },
{ "type": "Feature", "properties": { "name": "かちどき薬局", "lat": 35.72076, "lon": 139.69441 }, "geometry": { "type": "Point", "coordinates": [ 139.69441, 35.72076 ] } },
{ "type": "Feature", "properties": { "name": "訪問薬樹薬局 飯田橋", "lat": 35.70297, "lon": 139.74331 }, "geometry": { "type": "Point", "coordinates": [ 139.74331, 35.70297 ] } },
{ "type": "Feature", "properties": { "name": "薬王堂薬局", "lat": 35.71585, "lon": 139.68852 }, "geometry": { "type": "Point", "coordinates": [ 139.68852, 35.71585 ] } },
{ "type": "Feature", "properties": { "name": "パール薬局", "lat": 35.69961, "lon": 139.72794 }, "geometry": { "type": "Point", "coordinates": [ 139.72794, 35.69961 ] } },
{ "type": "Feature", "properties": { "name": "レジーナ薬局 上落合店", "lat": 35.71098, "lon": 139.69132 }, "geometry": { "type": "Point", "coordinates": [ 139.69132, 35.71098 ] } },
{ "type": "Feature", "properties": { "name": "オリーブ薬局", "lat": 35.71557, "lon": 139.7007 }, "geometry": { "type": "Point", "coordinates": [ 139.7007, 35.71557 ] } },
{ "type": "Feature", "properties": { "name": "さくら薬局 中井店", "lat": 35.71456, "lon": 139.68738 }, "geometry": { "type": "Point", "coordinates": [ 139.68738, 35.71456 ] } },
{ "type": "Feature", "properties": { "name": "ウエルシア薬局 新宿目白店", "lat": 35.72191, "lon": 139.69942 }, "geometry": { "type": "Point", "coordinates": [ 139.69942, 35.72191 ] } },
{ "type": "Feature", "properties": { "name": "(株)エスシーグループ 鈴薬局市ヶ谷店", "lat": 35.69517, "lon": 139.73708 }, "geometry": { "type": "Point", "coordinates": [ 139.73708, 35.69517 ] } },
{ "type": "Feature", "properties": { "name": "アイセイ薬局 江戸川橋店", "lat": 35.7084, "lon": 139.73634 }, "geometry": { "type": "Point", "coordinates": [ 139.73634, 35.7084 ] } },
{ "type": "Feature", "properties": { "name": "みらくる薬局 新宿三丁目店", "lat": 35.69062, "lon": 139.70736 }, "geometry": { "type": "Point", "coordinates": [ 139.70736, 35.69062 ] } },
{ "type": "Feature", "properties": { "name": "つばさ薬局 新宿店", "lat": 35.69049, "lon": 139.70985 }, "geometry": { "type": "Point", "coordinates": [ 139.70985, 35.69049 ] } },
{ "type": "Feature", "properties": { "name": "ヒカリ薬局信濃町店", "lat": 35.67966, "lon": 139.72012 }, "geometry": { "type": "Point", "coordinates": [ 139.72012, 35.67966 ] } },
{ "type": "Feature", "properties": { "name": "ハラダ薬局 西新宿店", "lat": 35.69091, "lon": 139.68651 }, "geometry": { "type": "Point", "coordinates": [ 139.68651, 35.69091 ] } },
{ "type": "Feature", "properties": { "name": "エムエム株式会社 こぐま薬局", "lat": 35.71482, "lon": 139.69203 }, "geometry": { "type": "Point", "coordinates": [ 139.69203, 35.71482 ] } },
{ "type": "Feature", "properties": { "name": "矢来町薬局", "lat": 35.70383, "lon": 139.73402 }, "geometry": { "type": "Point", "coordinates": [ 139.73402, 35.70383 ] } },
{ "type": "Feature", "properties": { "name": "吉村薬局", "lat": 35.70605, "lon": 139.72031 }, "geometry": { "type": "Point", "coordinates": [ 139.72031, 35.70605 ] } },
{ "type": "Feature", "properties": { "name": "薬局ラクトファーマシー", "lat": 35.69834, "lon": 139.73411 }, "geometry": { "type": "Point", "coordinates": [ 139.73411, 35.69834 ] } },
{ "type": "Feature", "properties": { "name": "(株)プラノ メディカル薬局", "lat": 35.71269, "lon": 139.58688 }, "geometry": { "type": "Point", "coordinates": [ 139.58688, 35.71269 ] } },
{ "type": "Feature", "properties": { "name": "土方薬局", "lat": 35.70176, "lon": 139.69491 }, "geometry": { "type": "Point", "coordinates": [ 139.69491, 35.70176 ] } },
{ "type": "Feature", "properties": { "name": "あけぼの薬局", "lat": 35.69208, "lon": 139.72166 }, "geometry": { "type": "Point", "coordinates": [ 139.72166, 35.69208 ] } },
{ "type": "Feature", "properties": { "name": "千代田薬局", "lat": 35.70242, "lon": 139.73287 }, "geometry": { "type": "Point", "coordinates": [ 139.73287, 35.70242 ] } },
{ "type": "Feature", "properties": { "name": "サン薬局", "lat": 35.68744, "lon": 139.72205 }, "geometry": { "type": "Point", "coordinates": [ 139.72205, 35.68744 ] } },
{ "type": "Feature", "properties": { "name": "ひかり薬局 (株)エスシーグループ", "lat": 35.70127, "lon": 139.70786 }, "geometry": { "type": "Point", "coordinates": [ 139.70786, 35.70127 ] } },
{ "type": "Feature", "properties": { "name": "アガペ新宿薬局", "lat": 35.69616, "lon": 139.68942 }, "geometry": { "type": "Point", "coordinates": [ 139.68942, 35.69616 ] } },
{ "type": "Feature", "properties": { "name": "松濤薬局", "lat": 35.65831, "lon": 139.69158 }, "geometry": { "type": "Point", "coordinates": [ 139.69158, 35.65831 ] } },
{ "type": "Feature", "properties": { "name": "薬樹薬局北参道", "lat": 35.67739, "lon": 139.7081 }, "geometry": { "type": "Point", "coordinates": [ 139.7081, 35.67739 ] } },
{ "type": "Feature", "properties": { "name": "新宿薬局", "lat": 35.68798, "lon": 139.69902 }, "geometry": { "type": "Point", "coordinates": [ 139.69902, 35.68798 ] } },
{ "type": "Feature", "properties": { "name": "城南薬局", "lat": 35.64632, "lon": 139.71191 }, "geometry": { "type": "Point", "coordinates": [ 139.71191, 35.64632 ] } },
{ "type": "Feature", "properties": { "name": "渋谷駅前げんき薬局", "lat": 35.65698, "lon": 139.70067 }, "geometry": { "type": "Point", "coordinates": [ 139.70067, 35.65698 ] } },
{ "type": "Feature", "properties": { "name": "つる薬局 恵比寿店", "lat": 35.64639, "lon": 139.70891 }, "geometry": { "type": "Point", "coordinates": [ 139.70891, 35.64639 ] } },
{ "type": "Feature", "properties": { "name": "かもめ薬局 代々木店", "lat": 35.68158, "lon": 139.70362 }, "geometry": { "type": "Point", "coordinates": [ 139.70362, 35.68158 ] } },
{ "type": "Feature", "properties": { "name": "ヒカリ薬局 代々木公園店", "lat": 35.66884, "lon": 139.69033 }, "geometry": { "type": "Point", "coordinates": [ 139.69033, 35.66884 ] } },
{ "type": "Feature", "properties": { "name": "アイセイ薬局 笹塚店", "lat": 35.67429, "lon": 139.66801 }, "geometry": { "type": "Point", "coordinates": [ 139.66801, 35.67429 ] } },
{ "type": "Feature", "properties": { "name": "恵比寿ファーマシー", "lat": 35.64625, "lon": 139.71344 }, "geometry": { "type": "Point", "coordinates": [ 139.71344, 35.64625 ] } },
{ "type": "Feature", "properties": { "name": "アガペ新宿南口薬局", "lat": 35.6864, "lon": 139.70298 }, "geometry": { "type": "Point", "coordinates": [ 139.70298, 35.6864 ] } },
{ "type": "Feature", "properties": { "name": "太陽堂薬局", "lat": 35.64581, "lon": 139.70837 }, "geometry": { "type": "Point", "coordinates": [ 139.70837, 35.64581 ] } },
{ "type": "Feature", "properties": { "name": "トモズ 幡ヶ谷店", "lat": 35.67601, "lon": 139.67708 }, "geometry": { "type": "Point", "coordinates": [ 139.67708, 35.67601 ] } },
{ "type": "Feature", "properties": { "name": "トモズ アコルデ代々木上原店", "lat": 35.66947, "lon": 139.68071 }, "geometry": { "type": "Point", "coordinates": [ 139.68071, 35.66947 ] } },
{ "type": "Feature", "properties": { "name": "トモズ 渋谷並木橋店", "lat": 35.6568, "lon": 139.70515 }, "geometry": { "type": "Point", "coordinates": [ 139.70515, 35.6568 ] } },
{ "type": "Feature", "properties": { "name": "トモズ 恵比寿ガーデンプレイス店", "lat": 35.64219, "lon": 139.71347 }, "geometry": { "type": "Point", "coordinates": [ 139.71347, 35.64219 ] } },
{ "type": "Feature", "properties": { "name": "笹塚鈴薬局 (株)エスシーグループ", "lat": 35.6738, "lon": 139.66888 }, "geometry": { "type": "Point", "coordinates": [ 139.66888, 35.6738 ] } },
{ "type": "Feature", "properties": { "name": "鈴薬局 原宿店", "lat": 35.66919, "lon": 139.7032 }, "geometry": { "type": "Point", "coordinates": [ 139.7032, 35.66919 ] } },
{ "type": "Feature", "properties": { "name": "薬局日本メディカルシステム 恵比寿店", "lat": 35.64687, "lon": 139.71126 }, "geometry": { "type": "Point", "coordinates": [ 139.71126, 35.64687 ] } },
{ "type": "Feature", "properties": { "name": "ゆりの木薬局 広尾店", "lat": 35.65059, "lon": 139.72113 }, "geometry": { "type": "Point", "coordinates": [ 139.72113, 35.65059 ] } },
{ "type": "Feature", "properties": { "name": "ひまわり薬局 渋谷橋店", "lat": 35.64896, "lon": 139.71171 }, "geometry": { "type": "Point", "coordinates": [ 139.71171, 35.64896 ] } },
{ "type": "Feature", "properties": { "name": "ゴロ薬局 初台店", "lat": 35.68159, "lon": 139.68506 }, "geometry": { "type": "Point", "coordinates": [ 139.68506, 35.68159 ] } },
{ "type": "Feature", "properties": { "name": "ひまわり薬局 恵比寿店", "lat": 35.64661, "lon": 139.70782 }, "geometry": { "type": "Point", "coordinates": [ 139.70782, 35.64661 ] } },
{ "type": "Feature", "properties": { "name": "松山薬局", "lat": 35.648, "lon": 139.70783 }, "geometry": { "type": "Point", "coordinates": [ 139.70783, 35.648 ] } },
{ "type": "Feature", "properties": { "name": "ハロー薬局", "lat": 35.66587, "lon": 139.69206 }, "geometry": { "type": "Point", "coordinates": [ 139.69206, 35.66587 ] } },
{ "type": "Feature", "properties": { "name": "ウイン薬局 渋谷初台店", "lat": 35.68018, "lon": 139.68711 }, "geometry": { "type": "Point", "coordinates": [ 139.68711, 35.68018 ] } },
{ "type": "Feature", "properties": { "name": "ミネ薬局 笹塚店", "lat": 35.67519, "lon": 139.668 }, "geometry": { "type": "Point", "coordinates": [ 139.668, 35.67519 ] } },
{ "type": "Feature", "properties": { "name": "コクミン薬局 笹塚駅店", "lat": 35.67375, "lon": 139.66755 }, "geometry": { "type": "Point", "coordinates": [ 139.66755, 35.67375 ] } },
{ "type": "Feature", "properties": { "name": "スギ薬局 道玄坂店", "lat": 35.65937, "lon": 139.69968 }, "geometry": { "type": "Point", "coordinates": [ 139.69968, 35.65937 ] } },
{ "type": "Feature", "properties": { "name": "フラワー薬局 笹塚店", "lat": 35.67519, "lon": 139.668 }, "geometry": { "type": "Point", "coordinates": [ 139.668, 35.67519 ] } },
{ "type": "Feature", "properties": { "name": "漢方参友堂薬局", "lat": 35.68806, "lon": 139.68107 }, "geometry": { "type": "Point", "coordinates": [ 139.68107, 35.68806 ] } },
{ "type": "Feature", "properties": { "name": "バンビ薬局 千駄ヶ谷店", "lat": 35.67708, "lon": 139.70725 }, "geometry": { "type": "Point", "coordinates": [ 139.70725, 35.67708 ] } },
{ "type": "Feature", "properties": { "name": "パークサイドファーマシー 代々木上原店", "lat": 35.66989, "lon": 139.68086 }, "geometry": { "type": "Point", "coordinates": [ 139.68086, 35.66989 ] } },
{ "type": "Feature", "properties": { "name": "渋谷駅前薬局", "lat": 35.66015, "lon": 139.701 }, "geometry": { "type": "Point", "coordinates": [ 139.701, 35.66015 ] } },
{ "type": "Feature", "properties": { "name": "セントラル薬局", "lat": 35.68726, "lon": 139.69686 }, "geometry": { "type": "Point", "coordinates": [ 139.69686, 35.68726 ] } },
{ "type": "Feature", "properties": { "name": "フラワー薬局 代々木上原2号店", "lat": 35.66961, "lon": 139.68031 }, "geometry": { "type": "Point", "coordinates": [ 139.68031, 35.66961 ] } },
{ "type": "Feature", "properties": { "name": "まゆみ薬局 松濤店", "lat": 35.66004, "lon": 139.69515 }, "geometry": { "type": "Point", "coordinates": [ 139.69515, 35.66004 ] } },
{ "type": "Feature", "properties": { "name": "クオール薬局 渋谷駅東口店", "lat": 35.65982, "lon": 139.70288 }, "geometry": { "type": "Point", "coordinates": [ 139.70288, 35.65982 ] } },
{ "type": "Feature", "properties": { "name": "PHARMACY KOU(薬局コウ)", "lat": 35.65943, "lon": 139.70311 }, "geometry": { "type": "Point", "coordinates": [ 139.70311, 35.65943 ] } },
{ "type": "Feature", "properties": { "name": "日本調剤 南新宿薬局", "lat": 35.68678, "lon": 139.69595 }, "geometry": { "type": "Point", "coordinates": [ 139.69595, 35.68678 ] } },
{ "type": "Feature", "properties": { "name": "なつめ薬局 渋谷並木橋店", "lat": 35.6558, "lon": 139.70709 }, "geometry": { "type": "Point", "coordinates": [ 139.70709, 35.6558 ] } },
{ "type": "Feature", "properties": { "name": "日本調剤 新宿薬局", "lat": 35.68787, "lon": 139.69767 }, "geometry": { "type": "Point", "coordinates": [ 139.69767, 35.68787 ] } },
{ "type": "Feature", "properties": { "name": "スギ薬局 新宿駅南店", "lat": 35.68758, "lon": 139.69728 }, "geometry": { "type": "Point", "coordinates": [ 139.69728, 35.68758 ] } },
{ "type": "Feature", "properties": { "name": "光成堂ファーマシー", "lat": 35.65093, "lon": 139.70324 }, "geometry": { "type": "Point", "coordinates": [ 139.70324, 35.65093 ] } },
{ "type": "Feature", "properties": { "name": "アイン薬局 渋谷宮益坂店", "lat": 35.6596, "lon": 139.70376 }, "geometry": { "type": "Point", "coordinates": [ 139.70376, 35.6596 ] } },
{ "type": "Feature", "properties": { "name": "そうごう薬局 渋谷店", "lat": 35.65588, "lon": 139.70395 }, "geometry": { "type": "Point", "coordinates": [ 139.70395, 35.65588 ] } },
{ "type": "Feature", "properties": { "name": "サンドラッグ CARER渋谷駅前薬局", "lat": 35.65915, "lon": 139.69991 }, "geometry": { "type": "Point", "coordinates": [ 139.69991, 35.65915 ] } },
{ "type": "Feature", "properties": { "name": "クオール薬局 神宮前店", "lat": 35.66691, "lon": 139.70564 }, "geometry": { "type": "Point", "coordinates": [ 139.70564, 35.66691 ] } },
{ "type": "Feature", "properties": { "name": "スギ薬局 原宿店", "lat": 35.67187, "lon": 139.7033 }, "geometry": { "type": "Point", "coordinates": [ 139.7033, 35.67187 ] } },
{ "type": "Feature", "properties": { "name": "すずらん薬局", "lat": 35.65736, "lon": 139.6967 }, "geometry": { "type": "Point", "coordinates": [ 139.6967, 35.65736 ] } },
{ "type": "Feature", "properties": { "name": "たんぽぽ代々木薬局", "lat": 35.68234, "lon": 139.69941 }, "geometry": { "type": "Point", "coordinates": [ 139.69941, 35.68234 ] } },
{ "type": "Feature", "properties": { "name": "スマイル薬局 笹塚店", "lat": 35.67538, "lon": 139.66828 }, "geometry": { "type": "Point", "coordinates": [ 139.66828, 35.67538 ] } },
{ "type": "Feature", "properties": { "name": "ウエルシア薬局 代々木三丁目店", "lat": 35.68171, "lon": 139.69296 }, "geometry": { "type": "Point", "coordinates": [ 139.69296, 35.68171 ] } },
{ "type": "Feature", "properties": { "name": "クオール薬局 宮益坂店", "lat": 35.66075, "lon": 139.70627 }, "geometry": { "type": "Point", "coordinates": [ 139.70627, 35.66075 ] } },
{ "type": "Feature", "properties": { "name": "ヤマグチ薬局 恵比寿2号店", "lat": 35.64663, "lon": 139.71203 }, "geometry": { "type": "Point", "coordinates": [ 139.71203, 35.64663 ] } },
{ "type": "Feature", "properties": { "name": "コスモス調剤薬局 広尾駅店", "lat": 35.65107, "lon": 139.72206 }, "geometry": { "type": "Point", "coordinates": [ 139.72206, 35.65107 ] } },
{ "type": "Feature", "properties": { "name": "アイン薬局 代々木八幡店", "lat": 35.67217, "lon": 139.68802 }, "geometry": { "type": "Point", "coordinates": [ 139.68802, 35.67217 ] } },
{ "type": "Feature", "properties": { "name": "クオール薬局 初台南店", "lat": 35.67981, "lon": 139.68579 }, "geometry": { "type": "Point", "coordinates": [ 139.68579, 35.67981 ] } },
{ "type": "Feature", "properties": { "name": "スギ薬局 代々木上原駅前店", "lat": 35.67028, "lon": 139.68121 }, "geometry": { "type": "Point", "coordinates": [ 139.68121, 35.67028 ] } },
{ "type": "Feature", "properties": { "name": "ミツヤ新都心薬局", "lat": 35.68677, "lon": 139.69742 }, "geometry": { "type": "Point", "coordinates": [ 139.69742, 35.68677 ] } },
{ "type": "Feature", "properties": { "name": "日本調剤 幡ヶ谷駅前薬局", "lat": 35.67634, "lon": 139.67685 }, "geometry": { "type": "Point", "coordinates": [ 139.67685, 35.67634 ] } },