{
"type": "FeatureCollection",
"crs": { "type": "name", "properties": { "name": "urn:ogc:def:crs:OGC:1.3:CRS84" } },
"features": [
{ "type": "Feature", "properties": { "name": "白兎", "lat": 35.651211, "lon": 139.701119 }, "geometry": { "type": "Point", "coordinates": [ 139.701119, 35.651211 ] } },
{ "type": "Feature", "properties": { "name": "SPACE NOBORU", "lat": 35.673679, "lon": 139.691227 }, "geometry": { "type": "Point", "coordinates": [ 139.691227, 35.673679 ] } },
{ "type": "Feature", "properties": { "name": "みうらじろうギャラリー@5", "lat": 35.68939, "lon": 139.777848 }, "geometry": { "type": "Point", "coordinates": [ 139.777848, 35.68939 ] } },
{ "type": "Feature", "properties": { "name": "小灯", "lat": 35.688768, "lon": 139.708083 }, "geometry": { "type": "Point", "coordinates": [ 139.708083, 35.688768 ] } },
{ "type": "Feature", "properties": { "name": "see you gallery", "lat": 35.648357, "lon": 139.7123 }, "geometry": { "type": "Point", "coordinates": [ 139.7123, 35.648357 ] } },
{ "type": "Feature", "properties": { "name": "日本橋N11ギャラリー", "lat": 35.685499, "lon": 139.776151 }, "geometry": { "type": "Point", "coordinates": [ 139.776151, 35.685499 ] } },
{ "type": "Feature", "properties": { "name": "トーキョーアートプレースGINZA", "lat": 35.667356, "lon": 139.762902 }, "geometry": { "type": "Point", "coordinates": [ 139.762902, 35.667356 ] } },
{ "type": "Feature", "properties": { "name": "JINEN GALLERY", "lat": 35.687694, "lon": 139.780848 }, "geometry": { "type": "Point", "coordinates": [ 139.780848, 35.687694 ] } },
{ "type": "Feature", "properties": { "name": "ギャラリー空の間", "lat": 35.679436, "lon": 139.77334 }, "geometry": { "type": "Point", "coordinates": [ 139.77334, 35.679436 ] } },
{ "type": "Feature", "properties": { "name": "始弘画廊", "lat": 35.662664, "lon": 139.712641 }, "geometry": { "type": "Point", "coordinates": [ 139.712641, 35.662664 ] } },
{ "type": "Feature", "properties": { "name": "ARTGEN.GALLERY（アートゲンギャラリー）", "lat": 35.60629, "lon": 139.708904 }, "geometry": { "type": "Point", "coordinates": [ 139.708904, 35.60629 ] } },
{ "type": "Feature", "properties": { "name": "EVERANDART（エバランダート）", "lat": 35.628723, "lon": 139.717227 }, "geometry": { "type": "Point", "coordinates": [ 139.717227, 35.628723 ] } },
{ "type": "Feature", "properties": { "name": "ギャラリーかわまつ", "lat": 35.696544, "lon": 139.757165 }, "geometry": { "type": "Point", "coordinates": [ 139.757165, 35.696544 ] } },
{ "type": "Feature", "properties": { "name": "galerie a（ギャラリエ アー）", "lat": 35.659292, "lon": 139.71616 }, "geometry": { "type": "Point", "coordinates": [ 139.71616, 35.659292 ] } },
{ "type": "Feature", "properties": { "name": "TROLLEY（トロリー）", "lat": 35.669623, "lon": 139.721664 }, "geometry": { "type": "Point", "coordinates": [ 139.721664, 35.669623 ] } },
{ "type": "Feature", "properties": { "name": "Pocko Gallery Tokyo（ポコギャラリー東京）", "lat": 35.659385, "lon": 139.723801 }, "geometry": { "type": "Point", "coordinates": [ 139.723801, 35.659385 ] } },
{ "type": "Feature", "properties": { "name": "銀座Gallery G2", "lat": 35.67374, "lon": 139.768782 }, "geometry": { "type": "Point", "coordinates": [ 139.768782, 35.67374 ] } },
{ "type": "Feature", "properties": { "name": "代々木アートギャラリー", "lat": 35.673173, "lon": 139.703956 }, "geometry": { "type": "Point", "coordinates": [ 139.703956, 35.673173 ] } },
{ "type": "Feature", "properties": { "name": "H-art Beat Gallery", "lat": 35.697475, "lon": 139.754741 }, "geometry": { "type": "Point", "coordinates": [ 139.754741, 35.697475 ] } },
{ "type": "Feature", "properties": { "name": "PAAMA（パーマ）", "lat": 35.704441, "lon": 139.735305 }, "geometry": { "type": "Point", "coordinates": [ 139.735305, 35.704441 ] } },
{ "type": "Feature", "properties": { "name": "UltraSuperNew KURA", "lat": 35.654074, "lon": 139.709746 }, "geometry": { "type": "Point", "coordinates": [ 139.709746, 35.654074 ] } },
{ "type": "Feature", "properties": { "name": "IRIS GALLERY（イリスギャラリー）", "lat": 35.708099, "lon": 139.724523 }, "geometry": { "type": "Point", "coordinates": [ 139.724523, 35.708099 ] } },
{ "type": "Feature", "properties": { "name": "タカ・イシイギャラリー京橋", "lat": 35.678307, "lon": 139.771662 }, "geometry": { "type": "Point", "coordinates": [ 139.771662, 35.678307 ] } },
{ "type": "Feature", "properties": { "name": "いちアート", "lat": 35.659511, "lon": 139.723801 }, "geometry": { "type": "Point", "coordinates": [ 139.723801, 35.659511 ] } },
{ "type": "Feature", "properties": { "name": "Amalgam Art Gallery（アマルガム・アート・ギャラリー）", "lat": 35.65437, "lon": 139.726361 }, "geometry": { "type": "Point", "coordinates": [ 139.726361, 35.65437 ] } },
{ "type": "Feature", "properties": { "name": "神保町画廊", "lat": 35.694793, "lon": 139.760814 }, "geometry": { "type": "Point", "coordinates": [ 139.760814, 35.694793 ] } },
{ "type": "Feature", "properties": { "name": "gallery 坂", "lat": 35.705521, "lon": 139.735295 }, "geometry": { "type": "Point", "coordinates": [ 139.735295, 35.705521 ] } },
{ "type": "Feature", "properties": { "name": "Gallery & Bakery Tokyo 8分", "lat": 35.678307, "lon": 139.771662 }, "geometry": { "type": "Point", "coordinates": [ 139.771662, 35.678307 ] } },
{ "type": "Feature", "properties": { "name": "Visions Gallery", "lat": 35.642187, "lon": 139.713468 }, "geometry": { "type": "Point", "coordinates": [ 139.713468, 35.642187 ] } },
{ "type": "Feature", "properties": { "name": "KOSAKU KANECHIKA（京橋）", "lat": 35.678307, "lon": 139.771662 }, "geometry": { "type": "Point", "coordinates": [ 139.771662, 35.678307 ] } },
{ "type": "Feature", "properties": { "name": "TATSURO KISHIMOTO", "lat": 35.689196, "lon": 139.793638 }, "geometry": { "type": "Point", "coordinates": [ 139.793638, 35.689196 ] } },
{ "type": "Feature", "properties": { "name": "FIRST GALLERY TOKYO", "lat": 35.653421, "lon": 139.735285 }, "geometry": { "type": "Point", "coordinates": [ 139.735285, 35.653421 ] } },
{ "type": "Feature", "properties": { "name": "Yutaka Kikutake Gallery Kyobashi", "lat": 35.678307, "lon": 139.771662 }, "geometry": { "type": "Point", "coordinates": [ 139.771662, 35.678307 ] } },
{ "type": "Feature", "properties": { "name": "小山登美夫ギャラリー京橋", "lat": 35.678307, "lon": 139.771662 }, "geometry": { "type": "Point", "coordinates": [ 139.771662, 35.678307 ] } },
{ "type": "Feature", "properties": { "name": "アイデムフォトギャラリー「シリウス」", "lat": 35.688296, "lon": 139.711123 }, "geometry": { "type": "Point", "coordinates": [ 139.711123, 35.688296 ] } },
{ "type": "Feature", "properties": { "name": "Gallery W @神楽坂WM", "lat": 35.704554, "lon": 139.732399 }, "geometry": { "type": "Point", "coordinates": [ 139.732399, 35.704554 ] } },
{ "type": "Feature", "properties": { "name": "tHE GALLERY OMOTESANDO", "lat": 35.666035, "lon": 139.706087 }, "geometry": { "type": "Point", "coordinates": [ 139.706087, 35.666035 ] } },
{ "type": "Feature", "properties": { "name": "tHE GALLERY HARAJUKU", "lat": 35.670903, "lon": 139.707898 }, "geometry": { "type": "Point", "coordinates": [ 139.707898, 35.670903 ] } },
{ "type": "Feature", "properties": { "name": "写場 \/ SHABA KAGURAZAKA", "lat": 35.706225, "lon": 139.735575 }, "geometry": { "type": "Point", "coordinates": [ 139.735575, 35.706225 ] } },
{ "type": "Feature", "properties": { "name": "よみうりギャラリー", "lat": 35.687206, "lon": 139.764508 }, "geometry": { "type": "Point", "coordinates": [ 139.764508, 35.687206 ] } },
{ "type": "Feature", "properties": { "name": "GARDE Gallery", "lat": 35.664125, "lon": 139.713772 }, "geometry": { "type": "Point", "coordinates": [ 139.713772, 35.664125 ] } },
{ "type": "Feature", "properties": { "name": "ギャラリーサンカイビ", "lat": 35.6859, "lon": 139.787706 }, "geometry": { "type": "Point", "coordinates": [ 139.787706, 35.6859 ] } },
{ "type": "Feature", "properties": { "name": "ナカノギンザギャラリー", "lat": 35.672607, "lon": 139.771004 }, "geometry": { "type": "Point", "coordinates": [ 139.771004, 35.672607 ] } },
{ "type": "Feature", "properties": { "name": "あらかわ画廊", "lat": 35.674053, "lon": 139.769412 }, "geometry": { "type": "Point", "coordinates": [ 139.769412, 35.674053 ] } },
{ "type": "Feature", "properties": { "name": "WALL_shinjuku", "lat": 35.689479, "lon": 139.701028 }, "geometry": { "type": "Point", "coordinates": [ 139.701028, 35.689479 ] } },
{ "type": "Feature", "properties": { "name": "コンテンポラリー東京", "lat": 35.619782, "lon": 139.746296 }, "geometry": { "type": "Point", "coordinates": [ 139.746296, 35.619782 ] } },
{ "type": "Feature", "properties": { "name": "ATSUHIKO SUEMATSU GALLERY", "lat": 35.667463, "lon": 139.729698 }, "geometry": { "type": "Point", "coordinates": [ 139.729698, 35.667463 ] } },
{ "type": "Feature", "properties": { "name": "青山見本帖", "lat": 35.659738, "lon": 139.712741 }, "geometry": { "type": "Point", "coordinates": [ 139.712741, 35.659738 ] } },
{ "type": "Feature", "properties": { "name": "YOD Gallery（天王洲）", "lat": 35.619781, "lon": 139.74632 }, "geometry": { "type": "Point", "coordinates": [ 139.74632, 35.619781 ] } },
{ "type": "Feature", "properties": { "name": "光灯", "lat": 35.691476, "lon": 139.774483 }, "geometry": { "type": "Point", "coordinates": [ 139.774483, 35.691476 ] } },
{ "type": "Feature", "properties": { "name": "euso gallery", "lat": 35.681964, "lon": 139.80006 }, "geometry": { "type": "Point", "coordinates": [ 139.80006, 35.681964 ] } },
{ "type": "Feature", "properties": { "name": "Gallery TK2", "lat": 35.690165, "lon": 139.78372 }, "geometry": { "type": "Point", "coordinates": [ 139.78372, 35.690165 ] } },
{ "type": "Feature", "properties": { "name": "Mikke Gallery", "lat": 35.686621, "lon": 139.729319 }, "geometry": { "type": "Point", "coordinates": [ 139.729319, 35.686621 ] } },
{ "type": "Feature", "properties": { "name": "教文館4F エインカレムギャラリー", "lat": 35.672118, "lon": 139.765521 }, "geometry": { "type": "Point", "coordinates": [ 139.765521, 35.672118 ] } },
{ "type": "Feature", "properties": { "name": "KOTARO NUKAGA Three", "lat": 35.619175, "lon": 139.746603 }, "geometry": { "type": "Point", "coordinates": [ 139.746603, 35.619175 ] } },
{ "type": "Feature", "properties": { "name": "emmy art +", "lat": 35.671801, "lon": 139.761574 }, "geometry": { "type": "Point", "coordinates": [ 139.761574, 35.671801 ] } },
{ "type": "Feature", "properties": { "name": "DJURGARDEN", "lat": 35.687662, "lon": 139.800416 }, "geometry": { "type": "Point", "coordinates": [ 139.800416, 35.687662 ] } },
{ "type": "Feature", "properties": { "name": "ギャラリー砂時計", "lat": 35.694893, "lon": 139.703722 }, "geometry": { "type": "Point", "coordinates": [ 139.703722, 35.694893 ] } },
{ "type": "Feature", "properties": { "name": "Pace東京", "lat": 35.662493, "lon": 139.743728 }, "geometry": { "type": "Point", "coordinates": [ 139.743728, 35.662493 ] } },
{ "type": "Feature", "properties": { "name": "ギャルリーワッツ", "lat": 35.662552, "lon": 139.71368 }, "geometry": { "type": "Point", "coordinates": [ 139.71368, 35.662552 ] } },
{ "type": "Feature", "properties": { "name": "aL Base（アエル ベース）", "lat": 35.685505, "lon": 139.70438 }, "geometry": { "type": "Point", "coordinates": [ 139.70438, 35.685505 ] } },
{ "type": "Feature", "properties": { "name": "GALLERY素描", "lat": 35.691114, "lon": 139.709058 }, "geometry": { "type": "Point", "coordinates": [ 139.709058, 35.691114 ] } },
{ "type": "Feature", "properties": { "name": "ギャラリー∞トワ", "lat": 35.638679, "lon": 139.72322 }, "geometry": { "type": "Point", "coordinates": [ 139.72322, 35.638679 ] } },
{ "type": "Feature", "properties": { "name": "ギャラリー青山いやさか", "lat": 35.660503, "lon": 139.707851 }, "geometry": { "type": "Point", "coordinates": [ 139.707851, 35.660503 ] } },
{ "type": "Feature", "properties": { "name": "DRELLA Art Gallery（ドレラ・アートギャラリー）", "lat": 35.650045, "lon": 139.702815 }, "geometry": { "type": "Point", "coordinates": [ 139.702815, 35.650045 ] } },
{ "type": "Feature", "properties": { "name": "ギャラリーフェーレス表参道", "lat": 35.670189, "lon": 139.708709 }, "geometry": { "type": "Point", "coordinates": [ 139.708709, 35.670189 ] } },
{ "type": "Feature", "properties": { "name": "M16 Gallery（エムイチロク ギャラリー）", "lat": 35.675406, "lon": 139.800002 }, "geometry": { "type": "Point", "coordinates": [ 139.800002, 35.675406 ] } },
{ "type": "Feature", "properties": { "name": "AISHO（アイショウ）", "lat": 35.648454, "lon": 139.70093 }, "geometry": { "type": "Point", "coordinates": [ 139.70093, 35.648454 ] } },
{ "type": "Feature", "properties": { "name": "ゆう画廊", "lat": 35.672013, "lon": 139.767674 }, "geometry": { "type": "Point", "coordinates": [ 139.767674, 35.672013 ] } },
{ "type": "Feature", "properties": { "name": "QUIET GALLERY（クワイエットギャラリー）", "lat": 35.698112, "lon": 139.75763 }, "geometry": { "type": "Point", "coordinates": [ 139.75763, 35.698112 ] } },
{ "type": "Feature", "properties": { "name": "Masumi Sasaki Gallery", "lat": 35.689621, "lon": 139.796065 }, "geometry": { "type": "Point", "coordinates": [ 139.796065, 35.689621 ] } },
{ "type": "Feature", "properties": { "name": "美術紫水", "lat": 35.673471, "lon": 139.770126 }, "geometry": { "type": "Point", "coordinates": [ 139.770126, 35.673471 ] } },
{ "type": "Feature", "properties": { "name": "t2GALLERY", "lat": 35.662164, "lon": 139.729208 }, "geometry": { "type": "Point", "coordinates": [ 139.729208, 35.662164 ] } },
{ "type": "Feature", "properties": { "name": "アートスペースモルゲンロート", "lat": 35.667161, "lon": 139.717436 }, "geometry": { "type": "Point", "coordinates": [ 139.717436, 35.667161 ] } },
{ "type": "Feature", "properties": { "name": "Alpha Contemporary", "lat": 35.649494, "lon": 139.744546 }, "geometry": { "type": "Point", "coordinates": [ 139.744546, 35.649494 ] } },
{ "type": "Feature", "properties": { "name": "TERRADA ART COMPLEX Ⅱ BONDED GALLERY", "lat": 35.619782, "lon": 139.746296 }, "geometry": { "type": "Point", "coordinates": [ 139.746296, 35.619782 ] } },
{ "type": "Feature", "properties": { "name": "集英社マンガアートヘリテージ トーキョーギャラリー", "lat": 35.662493, "lon": 139.743728 }, "geometry": { "type": "Point", "coordinates": [ 139.743728, 35.662493 ] } },
{ "type": "Feature", "properties": { "name": "B1_Storage", "lat": 35.666265, "lon": 139.707739 }, "geometry": { "type": "Point", "coordinates": [ 139.707739, 35.666265 ] } },
{ "type": "Feature", "properties": { "name": "Galerie GEEK\/ART", "lat": 35.664795, "lon": 139.702356 }, "geometry": { "type": "Point", "coordinates": [ 139.702356, 35.664795 ] } },
{ "type": "Feature", "properties": { "name": "中和ギャラリー", "lat": 35.686425, "lon": 139.775731 }, "geometry": { "type": "Point", "coordinates": [ 139.775731, 35.686425 ] } },
{ "type": "Feature", "properties": { "name": "花田美術", "lat": 35.671372, "lon": 139.761132 }, "geometry": { "type": "Point", "coordinates": [ 139.761132, 35.671372 ] } },
{ "type": "Feature", "properties": { "name": "K Art Gallery", "lat": 35.664701, "lon": 139.710803 }, "geometry": { "type": "Point", "coordinates": [ 139.710803, 35.664701 ] } },
{ "type": "Feature", "properties": { "name": "銀座 黒田陶苑", "lat": 35.669278, "lon": 139.76241 }, "geometry": { "type": "Point", "coordinates": [ 139.76241, 35.669278 ] } },
{ "type": "Feature", "properties": { "name": "麻布台ヒルズギャラリーカフェ／スペース", "lat": 35.662493, "lon": 139.743728 }, "geometry": { "type": "Point", "coordinates": [ 139.743728, 35.662493 ] } },
{ "type": "Feature", "properties": { "name": "space Un", "lat": 35.670889, "lon": 139.723083 }, "geometry": { "type": "Point", "coordinates": [ 139.723083, 35.670889 ] } },
{ "type": "Feature", "properties": { "name": "Artglorieux GALLERY OF TOKYO（アールグロリューギャラリー・オブ・トーキョー）", "lat": 35.768904, "lon": 139.606993 }, "geometry": { "type": "Point", "coordinates": [ 139.606993, 35.768904 ] } },
{ "type": "Feature", "properties": { "name": "WABI－和・美－（ワビ）", "lat": 35.669958, "lon": 139.768632 }, "geometry": { "type": "Point", "coordinates": [ 139.768632, 35.669958 ] } },
{ "type": "Feature", "properties": { "name": "創英ギャラリー", "lat": 35.670878, "lon": 139.760596 }, "geometry": { "type": "Point", "coordinates": [ 139.760596, 35.670878 ] } },
{ "type": "Feature", "properties": { "name": "ライカギャラリー表参道", "lat": 35.666247, "lon": 139.706505 }, "geometry": { "type": "Point", "coordinates": [ 139.706505, 35.666247 ] } },
{ "type": "Feature", "properties": { "name": "LOVUS gallery", "lat": 35.668582, "lon": 139.705781 }, "geometry": { "type": "Point", "coordinates": [ 139.705781, 35.668582 ] } },
{ "type": "Feature", "properties": { "name": "Bankrobber LABO（バンクロバーラボ）", "lat": 35.66212, "lon": 139.697262 }, "geometry": { "type": "Point", "coordinates": [ 139.697262, 35.66212 ] } },
{ "type": "Feature", "properties": { "name": "並樹画廊", "lat": 35.676752, "lon": 139.771488 }, "geometry": { "type": "Point", "coordinates": [ 139.771488, 35.676752 ] } },
{ "type": "Feature", "properties": { "name": "銀座アポロ昭和館YOHAKU", "lat": 35.669744, "lon": 139.767584 }, "geometry": { "type": "Point", "coordinates": [ 139.767584, 35.669744 ] } },
{ "type": "Feature", "properties": { "name": "KOGEI Art Gallery 銀座の金沢", "lat": 35.67202, "lon": 139.761801 }, "geometry": { "type": "Point", "coordinates": [ 139.761801, 35.67202 ] } },
{ "type": "Feature", "properties": { "name": "Gallery 蔵", "lat": 35.698492, "lon": 139.766862 }, "geometry": { "type": "Point", "coordinates": [ 139.766862, 35.698492 ] } },
{ "type": "Feature", "properties": { "name": "ケンジタキギャラリー \/ 六本木", "lat": 35.661974, "lon": 139.731214 }, "geometry": { "type": "Point", "coordinates": [ 139.731214, 35.661974 ] } },
{ "type": "Feature", "properties": { "name": "ギャラリー・アートグラフ", "lat": 35.694488, "lon": 139.774275 }, "geometry": { "type": "Point", "coordinates": [ 139.774275, 35.694488 ] } },
{ "type": "Feature", "properties": { "name": "New Gallery", "lat": 35.697174, "lon": 139.75876 }, "geometry": { "type": "Point", "coordinates": [ 139.75876, 35.697174 ] } },
{ "type": "Feature", "properties": { "name": "SMP GALLERY", "lat": 35.665794, "lon": 139.72997 }, "geometry": { "type": "Point", "coordinates": [ 139.72997, 35.665794 ] } },
{ "type": "Feature", "properties": { "name": "YASAKA", "lat": 35.668427, "lon": 139.763221 }, "geometry": { "type": "Point", "coordinates": [ 139.763221, 35.668427 ] } },
{ "type": "Feature", "properties": { "name": "STREET DREAMS STUDIOS TOKYO", "lat": 35.66343, "lon": 139.710066 }, "geometry": { "type": "Point", "coordinates": [ 139.710066, 35.66343 ] } },
{ "type": "Feature", "properties": { "name": "Empathy Gallery（エンパシーギャラリー）", "lat": 35.670691, "lon": 139.707559 }, "geometry": { "type": "Point", "coordinates": [ 139.707559, 35.670691 ] } },
{ "type": "Feature", "properties": { "name": "COMMON BASE GALLERY", "lat": 35.664795, "lon": 139.702356 }, "geometry": { "type": "Point", "coordinates": [ 139.702356, 35.664795 ] } },
{ "type": "Feature", "properties": { "name": "Art space FLAG", "lat": 35.657647, "lon": 139.705158 }, "geometry": { "type": "Point", "coordinates": [ 139.705158, 35.657647 ] } },
{ "type": "Feature", "properties": { "name": "TDA'S GALLERY AMI", "lat": 35.673562, "lon": 139.703942 }, "geometry": { "type": "Point", "coordinates": [ 139.703942, 35.673562 ] } },
{ "type": "Feature", "properties": { "name": "zakura（ザクラ）", "lat": 35.655321, "lon": 139.701688 }, "geometry": { "type": "Point", "coordinates": [ 139.701688, 35.655321 ] } },
{ "type": "Feature", "properties": { "name": "art cruise gallery by Baycrew's", "lat": 35.667332, "lon": 139.747313 }, "geometry": { "type": "Point", "coordinates": [ 139.747313, 35.667332 ] } },
{ "type": "Feature", "properties": { "name": "プレコグ・ギャラリー", "lat": 35.662024, "lon": 139.705859 }, "geometry": { "type": "Point", "coordinates": [ 139.705859, 35.662024 ] } },
{ "type": "Feature", "properties": { "name": "MAGMA GALLERY", "lat": 35.612704, "lon": 139.734938 }, "geometry": { "type": "Point", "coordinates": [ 139.734938, 35.612704 ] } },
{ "type": "Feature", "properties": { "name": "TOKYO BRIGHT GALLERY", "lat": 35.691519, "lon": 139.768305 }, "geometry": { "type": "Point", "coordinates": [ 139.768305, 35.691519 ] } },
{ "type": "Feature", "properties": { "name": "銀座第7ビルギャラリー", "lat": 35.668582, "lon": 139.763142 }, "geometry": { "type": "Point", "coordinates": [ 139.763142, 35.668582 ] } },
{ "type": "Feature", "properties": { "name": "LAG（LIVE ART GALLERY）", "lat": 35.672751, "lon": 139.712872 }, "geometry": { "type": "Point", "coordinates": [ 139.712872, 35.672751 ] } },
{ "type": "Feature", "properties": { "name": "好文画廊", "lat": 35.685929, "lon": 139.788326 }, "geometry": { "type": "Point", "coordinates": [ 139.788326, 35.685929 ] } },
{ "type": "Feature", "properties": { "name": "FILTER gallery", "lat": 35.680087, "lon": 139.827767 }, "geometry": { "type": "Point", "coordinates": [ 139.827767, 35.680087 ] } },
{ "type": "Feature", "properties": { "name": "AURORA GRAN GALLERY", "lat": 35.668638, "lon": 139.707824 }, "geometry": { "type": "Point", "coordinates": [ 139.707824, 35.668638 ] } },
{ "type": "Feature", "properties": { "name": "ギャラリー SIACCA", "lat": 35.672993, "lon": 139.768447 }, "geometry": { "type": "Point", "coordinates": [ 139.768447, 35.672993 ] } },
{ "type": "Feature", "properties": { "name": "ミモザ・ギャラリー", "lat": 35.667075, "lon": 139.710429 }, "geometry": { "type": "Point", "coordinates": [ 139.710429, 35.667075 ] } },
{ "type": "Feature", "properties": { "name": "BLANKgallery Tokyo", "lat": 35.668238, "lon": 139.70845 }, "geometry": { "type": "Point", "coordinates": [ 139.70845, 35.668238 ] } },
{ "type": "Feature", "properties": { "name": "art lab Melt Meri（アートラボメルトメリ）", "lat": 35.681964, "lon": 139.80006 }, "geometry": { "type": "Point", "coordinates": [ 139.80006, 35.681964 ] } },
{ "type": "Feature", "properties": { "name": "UPSTAIRS GALLERY", "lat": 35.649676, "lon": 139.705231 }, "geometry": { "type": "Point", "coordinates": [ 139.705231, 35.649676 ] } },
{ "type": "Feature", "properties": { "name": "Studio 04", "lat": 35.687757, "lon": 139.827452 }, "geometry": { "type": "Point", "coordinates": [ 139.827452, 35.687757 ] } },
{ "type": "Feature", "properties": { "name": "mysha Gallery", "lat": 35.666055, "lon": 139.705097 }, "geometry": { "type": "Point", "coordinates": [ 139.705097, 35.666055 ] } },
{ "type": "Feature", "properties": { "name": "Gallery CORSO（ギャラリーコルソ）", "lat": 35.695636, "lon": 139.755049 }, "geometry": { "type": "Point", "coordinates": [ 139.755049, 35.695636 ] } },
{ "type": "Feature", "properties": { "name": "STUDIO 伽藍裡 garali", "lat": 35.697745, "lon": 139.759748 }, "geometry": { "type": "Point", "coordinates": [ 139.759748, 35.697745 ] } },
{ "type": "Feature", "properties": { "name": "9s Gallery by TRiCERA", "lat": 35.658216, "lon": 139.72361 }, "geometry": { "type": "Point", "coordinates": [ 139.72361, 35.658216 ] } },
{ "type": "Feature", "properties": { "name": "WALL_alternative", "lat": 35.65821, "lon": 139.723585 }, "geometry": { "type": "Point", "coordinates": [ 139.723585, 35.65821 ] } },
{ "type": "Feature", "properties": { "name": "リノベる。表参道「b1.／ビーワン。」", "lat": 35.661957, "lon": 139.713437 }, "geometry": { "type": "Point", "coordinates": [ 139.713437, 35.661957 ] } },
{ "type": "Feature", "properties": { "name": "月光荘画室2", "lat": 35.668391, "lon": 139.760869 }, "geometry": { "type": "Point", "coordinates": [ 139.760869, 35.668391 ] } },
{ "type": "Feature", "properties": { "name": "AMATEUR（アマチュア）", "lat": 35.664782, "lon": 139.714832 }, "geometry": { "type": "Point", "coordinates": [ 139.714832, 35.664782 ] } },
{ "type": "Feature", "properties": { "name": "Gallery Restaurant 舞台裏", "lat": 35.662493, "lon": 139.743728 }, "geometry": { "type": "Point", "coordinates": [ 139.743728, 35.662493 ] } },
{ "type": "Feature", "properties": { "name": "ギャラリーボヤージュ", "lat": 35.671611, "lon": 139.76299 }, "geometry": { "type": "Point", "coordinates": [ 139.76299, 35.671611 ] } },
{ "type": "Feature", "properties": { "name": "Another Project Tokyo", "lat": 35.650705, "lon": 139.703806 }, "geometry": { "type": "Point", "coordinates": [ 139.703806, 35.650705 ] } },
{ "type": "Feature", "properties": { "name": "天理ギャラリー", "lat": 35.691798, "lon": 139.764364 }, "geometry": { "type": "Point", "coordinates": [ 139.764364, 35.691798 ] } },
{ "type": "Feature", "properties": { "name": "デザイン＆ ギャラリー装丁夜話", "lat": 35.673824, "lon": 139.706106 }, "geometry": { "type": "Point", "coordinates": [ 139.706106, 35.673824 ] } },
{ "type": "Feature", "properties": { "name": "トーキョーディアスポラ　コンテンポラリーアートギャラリー", "lat": 35.691243, "lon": 139.765468 }, "geometry": { "type": "Point", "coordinates": [ 139.765468, 35.691243 ] } },
{ "type": "Feature", "properties": { "name": "ギャラリーからーず。", "lat": 35.691549, "lon": 139.712619 }, "geometry": { "type": "Point", "coordinates": [ 139.712619, 35.691549 ] } },
{ "type": "Feature", "properties": { "name": "JIDAデザインミュージアム", "lat": 35.661322, "lon": 139.736532 }, "geometry": { "type": "Point", "coordinates": [ 139.736532, 35.661322 ] } },
{ "type": "Feature", "properties": { "name": "麻布台ヒルズ ギャラリー", "lat": 35.662493, "lon": 139.743728 }, "geometry": { "type": "Point", "coordinates": [ 139.743728, 35.662493 ] } },
{ "type": "Feature", "properties": { "name": "ギャラリーアートハウス", "lat": 35.672088, "lon": 139.76503 }, "geometry": { "type": "Point", "coordinates": [ 139.76503, 35.672088 ] } },
{ "type": "Feature", "properties": { "name": "富士フォトギャラリー銀座", "lat": 35.674975, "lon": 139.768463 }, "geometry": { "type": "Point", "coordinates": [ 139.768463, 35.674975 ] } },
{ "type": "Feature", "properties": { "name": "Gallery BOBBIN", "lat": 35.680279, "lon": 139.707523 }, "geometry": { "type": "Point", "coordinates": [ 139.707523, 35.680279 ] } },
{ "type": "Feature", "properties": { "name": "SIGNAL", "lat": 35.669139, "lon": 139.748323 }, "geometry": { "type": "Point", "coordinates": [ 139.748323, 35.669139 ] } },
{ "type": "Feature", "properties": { "name": "GALLERY – SIGN TOKYO", "lat": 35.661974, "lon": 139.731214 }, "geometry": { "type": "Point", "coordinates": [ 139.731214, 35.661974 ] } },
{ "type": "Feature", "properties": { "name": "#NAME?", "lat": 35.673618, "lon": 139.762317 }, "geometry": { "type": "Point", "coordinates": [ 139.762317, 35.673618 ] } },
{ "type": "Feature", "properties": { "name": "STANDING PINE 東京", "lat": 35.619175, "lon": 139.746603 }, "geometry": { "type": "Point", "coordinates": [ 139.746603, 35.619175 ] } },
{ "type": "Feature", "properties": { "name": "とらや 東京ミッドタウン店ギャラリー", "lat": 35.666219, "lon": 139.730226 }, "geometry": { "type": "Point", "coordinates": [ 139.730226, 35.666219 ] } },
{ "type": "Feature", "properties": { "name": "Rodin", "lat": 35.652655, "lon": 139.705068 }, "geometry": { "type": "Point", "coordinates": [ 139.705068, 35.652655 ] } },
{ "type": "Feature", "properties": { "name": "ギャラリークリューチ", "lat": 35.679816, "lon": 139.804736 }, "geometry": { "type": "Point", "coordinates": [ 139.804736, 35.679816 ] } },
{ "type": "Feature", "properties": { "name": "ギャラリーおかりや", "lat": 35.672366, "lon": 139.764776 }, "geometry": { "type": "Point", "coordinates": [ 139.764776, 35.672366 ] } },
{ "type": "Feature", "properties": { "name": "GALLERY KTO 新宿", "lat": 35.685035, "lon": 139.687722 }, "geometry": { "type": "Point", "coordinates": [ 139.687722, 35.685035 ] } },
{ "type": "Feature", "properties": { "name": "THE MIRROR", "lat": 35.708705, "lon": 139.711781 }, "geometry": { "type": "Point", "coordinates": [ 139.711781, 35.708705 ] } },
{ "type": "Feature", "properties": { "name": "BUG", "lat": 35.678574, "lon": 139.767285 }, "geometry": { "type": "Point", "coordinates": [ 139.767285, 35.678574 ] } },
{ "type": "Feature", "properties": { "name": "東條會舘写真研究所", "lat": 35.684596, "lon": 139.742695 }, "geometry": { "type": "Point", "coordinates": [ 139.742695, 35.684596 ] } },
{ "type": "Feature", "properties": { "name": "フォルム画廊", "lat": 35.670661, "lon": 139.764041 }, "geometry": { "type": "Point", "coordinates": [ 139.764041, 35.670661 ] } },
{ "type": "Feature", "properties": { "name": "ギャラリーダイジロ", "lat": 35.673521, "lon": 139.796764 }, "geometry": { "type": "Point", "coordinates": [ 139.796764, 35.673521 ] } },
{ "type": "Feature", "properties": { "name": "アニコリミックスギャラリー", "lat": 35.66883, "lon": 139.706754 }, "geometry": { "type": "Point", "coordinates": [ 139.706754, 35.66883 ] } },
{ "type": "Feature", "properties": { "name": "KAIGADO Gallery", "lat": 35.672406, "lon": 139.75834 }, "geometry": { "type": "Point", "coordinates": [ 139.75834, 35.672406 ] } },
{ "type": "Feature", "properties": { "name": "美の起原", "lat": 35.669531, "lon": 139.760409 }, "geometry": { "type": "Point", "coordinates": [ 139.760409, 35.669531 ] } },
{ "type": "Feature", "properties": { "name": "FEELSEEN gallery（フィールシーン ギャラリー）", "lat": 35.67057, "lon": 139.769037 }, "geometry": { "type": "Point", "coordinates": [ 139.769037, 35.67057 ] } },
{ "type": "Feature", "properties": { "name": "ペーパーボイス東京", "lat": 35.677411, "lon": 139.785198 }, "geometry": { "type": "Point", "coordinates": [ 139.785198, 35.677411 ] } },
{ "type": "Feature", "properties": { "name": "Koichi Yamamura gallery", "lat": 35.653303, "lon": 139.734294 }, "geometry": { "type": "Point", "coordinates": [ 139.734294, 35.653303 ] } },
{ "type": "Feature", "properties": { "name": "msb gallery", "lat": 35.686214, "lon": 139.777599 }, "geometry": { "type": "Point", "coordinates": [ 139.777599, 35.686214 ] } },
{ "type": "Feature", "properties": { "name": "IDEALIDEA gallery（イデアリデア ギャラリー）", "lat": 35.656341, "lon": 139.723607 }, "geometry": { "type": "Point", "coordinates": [ 139.723607, 35.656341 ] } },
{ "type": "Feature", "properties": { "name": "April Shop", "lat": 35.667605, "lon": 139.680804 }, "geometry": { "type": "Point", "coordinates": [ 139.680804, 35.667605 ] } },
{ "type": "Feature", "properties": { "name": "パルピトーギャラリー", "lat": 35.672107, "lon": 139.768657 }, "geometry": { "type": "Point", "coordinates": [ 139.768657, 35.672107 ] } },
{ "type": "Feature", "properties": { "name": "ART Is. TOKYO GALLERY", "lat": 35.652433, "lon": 139.704904 }, "geometry": { "type": "Point", "coordinates": [ 139.704904, 35.652433 ] } },
{ "type": "Feature", "properties": { "name": "JAPAN ART BRIDGE", "lat": 35.69724, "lon": 139.770019 }, "geometry": { "type": "Point", "coordinates": [ 139.770019, 35.69724 ] } },
{ "type": "Feature", "properties": { "name": "ギャラリー イー・エム 西麻布", "lat": 35.658368, "lon": 139.720444 }, "geometry": { "type": "Point", "coordinates": [ 139.720444, 35.658368 ] } },
{ "type": "Feature", "properties": { "name": "ギャラリーコンセプト21", "lat": 35.664635, "lon": 139.709277 }, "geometry": { "type": "Point", "coordinates": [ 139.709277, 35.664635 ] } },
{ "type": "Feature", "properties": { "name": "hide gallery", "lat": 35.654283, "lon": 139.709976 }, "geometry": { "type": "Point", "coordinates": [ 139.709976, 35.654283 ] } },
{ "type": "Feature", "properties": { "name": "グッチ銀座ギャラリー", "lat": 35.671893, "lon": 139.764592 }, "geometry": { "type": "Point", "coordinates": [ 139.764592, 35.671893 ] } },
{ "type": "Feature", "properties": { "name": "TERRITORY GALLERY（テリトリー・ギャラリー）", "lat": 35.679355, "lon": 139.708439 }, "geometry": { "type": "Point", "coordinates": [ 139.708439, 35.679355 ] } },
{ "type": "Feature", "properties": { "name": "pixiv WAEN GALLERY by TWIN PLANET × pixiv", "lat": 35.664285, "lon": 139.708378 }, "geometry": { "type": "Point", "coordinates": [ 139.708378, 35.664285 ] } },
{ "type": "Feature", "properties": { "name": "ROD GALLERY", "lat": 35.676779, "lon": 139.771584 }, "geometry": { "type": "Point", "coordinates": [ 139.771584, 35.676779 ] } },
{ "type": "Feature", "properties": { "name": "工芸青花", "lat": 35.702976, "lon": 139.735082 }, "geometry": { "type": "Point", "coordinates": [ 139.735082, 35.702976 ] } },
{ "type": "Feature", "properties": { "name": "ギャラリー エスケーパーズ", "lat": 35.664978, "lon": 139.709318 }, "geometry": { "type": "Point", "coordinates": [ 139.709318, 35.664978 ] } },
{ "type": "Feature", "properties": { "name": "GALLERY RIN 麟", "lat": 35.676368, "lon": 139.771468 }, "geometry": { "type": "Point", "coordinates": [ 139.771468, 35.676368 ] } },
{ "type": "Feature", "properties": { "name": "27 GALLERY TOKYO", "lat": 35.688407, "lon": 139.774164 }, "geometry": { "type": "Point", "coordinates": [ 139.774164, 35.688407 ] } },
{ "type": "Feature", "properties": { "name": "B-OWND Gallery", "lat": 35.67362, "lon": 139.762456 }, "geometry": { "type": "Point", "coordinates": [ 139.762456, 35.67362 ] } },
{ "type": "Feature", "properties": { "name": "ヒコヒコギャラリー", "lat": 35.668975, "lon": 139.768292 }, "geometry": { "type": "Point", "coordinates": [ 139.768292, 35.668975 ] } },
{ "type": "Feature", "properties": { "name": "月光荘画室1", "lat": 35.668867, "lon": 139.761606 }, "geometry": { "type": "Point", "coordinates": [ 139.761606, 35.668867 ] } },
{ "type": "Feature", "properties": { "name": "Bunkamura Gallery 8\/", "lat": 35.659124, "lon": 139.70373 }, "geometry": { "type": "Point", "coordinates": [ 139.70373, 35.659124 ] } },
{ "type": "Feature", "properties": { "name": "Miaki Gallery", "lat": 35.661166, "lon": 139.723417 }, "geometry": { "type": "Point", "coordinates": [ 139.723417, 35.661166 ] } },
{ "type": "Feature", "properties": { "name": "JCIIフォトサロン", "lat": 35.686058, "lon": 139.74257 }, "geometry": { "type": "Point", "coordinates": [ 139.74257, 35.686058 ] } },
{ "type": "Feature", "properties": { "name": "callbox", "lat": 35.69874, "lon": 139.697616 }, "geometry": { "type": "Point", "coordinates": [ 139.697616, 35.69874 ] } },
{ "type": "Feature", "properties": { "name": "tagboat", "lat": 35.688215, "lon": 139.782573 }, "geometry": { "type": "Point", "coordinates": [ 139.782573, 35.688215 ] } },
{ "type": "Feature", "properties": { "name": "CENTER\/EDO", "lat": 35.676198, "lon": 139.777 }, "geometry": { "type": "Point", "coordinates": [ 139.777, 35.676198 ] } },
{ "type": "Feature", "properties": { "name": "澁谷藝術", "lat": 35.664777, "lon": 139.700031 }, "geometry": { "type": "Point", "coordinates": [ 139.700031, 35.664777 ] } },
{ "type": "Feature", "properties": { "name": "HECTARE", "lat": 35.66503, "lon": 139.69274 }, "geometry": { "type": "Point", "coordinates": [ 139.69274, 35.66503 ] } },
{ "type": "Feature", "properties": { "name": "ギャラリーくぼた別館", "lat": 35.676677, "lon": 139.771648 }, "geometry": { "type": "Point", "coordinates": [ 139.771648, 35.676677 ] } },
{ "type": "Feature", "properties": { "name": "Galerie412", "lat": 35.667287, "lon": 139.708616 }, "geometry": { "type": "Point", "coordinates": [ 139.708616, 35.667287 ] } },
{ "type": "Feature", "properties": { "name": "MEDEL GALLERY SHU", "lat": 35.66883, "lon": 139.706754 }, "geometry": { "type": "Point", "coordinates": [ 139.706754, 35.66883 ] } },
{ "type": "Feature", "properties": { "name": "PROJECT LAB.", "lat": 35.669534, "lon": 139.706839 }, "geometry": { "type": "Point", "coordinates": [ 139.706839, 35.669534 ] } },
{ "type": "Feature", "properties": { "name": "Gallery Blue 3143", "lat": 35.665706, "lon": 139.71466 }, "geometry": { "type": "Point", "coordinates": [ 139.71466, 35.665706 ] } },
{ "type": "Feature", "properties": { "name": "大塚美術", "lat": 35.660533, "lon": 139.713334 }, "geometry": { "type": "Point", "coordinates": [ 139.713334, 35.660533 ] } },
{ "type": "Feature", "properties": { "name": "Nine Gallery", "lat": 35.671564, "lon": 139.715588 }, "geometry": { "type": "Point", "coordinates": [ 139.715588, 35.671564 ] } },
{ "type": "Feature", "properties": { "name": "studio CIEN", "lat": 35.669208, "lon": 139.707888 }, "geometry": { "type": "Point", "coordinates": [ 139.707888, 35.669208 ] } },
{ "type": "Feature", "properties": { "name": "EDGEoff代官山", "lat": 35.649994, "lon": 139.70443 }, "geometry": { "type": "Point", "coordinates": [ 139.70443, 35.649994 ] } },
{ "type": "Feature", "properties": { "name": "GALLERY MERROW", "lat": 35.659644, "lon": 139.724127 }, "geometry": { "type": "Point", "coordinates": [ 139.724127, 35.659644 ] } },
{ "type": "Feature", "properties": { "name": "SPACE BANKSIA（スペース バンクシア）", "lat": 35.670476, "lon": 139.70824 }, "geometry": { "type": "Point", "coordinates": [ 139.70824, 35.670476 ] } },
{ "type": "Feature", "properties": { "name": "Art Gallery Shirokane 6c", "lat": 35.643466, "lon": 139.721337 }, "geometry": { "type": "Point", "coordinates": [ 139.721337, 35.643466 ] } },
{ "type": "Feature", "properties": { "name": "REIJINSHA GALLERY", "lat": 35.688943, "lon": 139.774851 }, "geometry": { "type": "Point", "coordinates": [ 139.774851, 35.688943 ] } },
{ "type": "Feature", "properties": { "name": "リアムギャラリー", "lat": 35.657955, "lon": 139.693072 }, "geometry": { "type": "Point", "coordinates": [ 139.693072, 35.657955 ] } },
{ "type": "Feature", "properties": { "name": "Gallery 85.4", "lat": 35.672707, "lon": 139.712127 }, "geometry": { "type": "Point", "coordinates": [ 139.712127, 35.672707 ] } },
{ "type": "Feature", "properties": { "name": "HENKYO", "lat": 35.667048, "lon": 139.707334 }, "geometry": { "type": "Point", "coordinates": [ 139.707334, 35.667048 ] } },
{ "type": "Feature", "properties": { "name": "kit gallery", "lat": 35.673351, "lon": 139.709231 }, "geometry": { "type": "Point", "coordinates": [ 139.709231, 35.673351 ] } },
{ "type": "Feature", "properties": { "name": "OM SYSTEM GALLERY", "lat": 35.690267, "lon": 139.695946 }, "geometry": { "type": "Point", "coordinates": [ 139.695946, 35.690267 ] } },
{ "type": "Feature", "properties": { "name": "太郎平画廊", "lat": 35.685855, "lon": 139.777599 }, "geometry": { "type": "Point", "coordinates": [ 139.777599, 35.685855 ] } },
{ "type": "Feature", "properties": { "name": "GALLERY 2511", "lat": 35.699151, "lon": 139.753888 }, "geometry": { "type": "Point", "coordinates": [ 139.753888, 35.699151 ] } },
{ "type": "Feature", "properties": { "name": "SOM GALLERY", "lat": 35.692037, "lon": 139.782552 }, "geometry": { "type": "Point", "coordinates": [ 139.782552, 35.692037 ] } },
{ "type": "Feature", "properties": { "name": "SORTone", "lat": 35.674345, "lon": 139.711671 }, "geometry": { "type": "Point", "coordinates": [ 139.711671, 35.674345 ] } },
{ "type": "Feature", "properties": { "name": "Bohemian’s Guild CAGE（ボヘミアンズ・ギルド・ケージ）", "lat": 35.695018, "lon": 139.760616 }, "geometry": { "type": "Point", "coordinates": [ 139.760616, 35.695018 ] } },
{ "type": "Feature", "properties": { "name": "KICHI", "lat": 35.644527, "lon": 139.708854 }, "geometry": { "type": "Point", "coordinates": [ 139.708854, 35.644527 ] } },
{ "type": "Feature", "properties": { "name": "ポートレートギャラリー", "lat": 35.686932, "lon": 139.72862 }, "geometry": { "type": "Point", "coordinates": [ 139.72862, 35.686932 ] } },
{ "type": "Feature", "properties": { "name": "Space Jing", "lat": 35.664355, "lon": 139.70811 }, "geometry": { "type": "Point", "coordinates": [ 139.70811, 35.664355 ] } },
{ "type": "Feature", "properties": { "name": "M5 Gallery", "lat": 35.67556, "lon": 139.762093 }, "geometry": { "type": "Point", "coordinates": [ 139.762093, 35.67556 ] } },
{ "type": "Feature", "properties": { "name": "KONTACTO EAST GALLERY", "lat": 35.659985, "lon": 139.721972 }, "geometry": { "type": "Point", "coordinates": [ 139.721972, 35.659985 ] } },
{ "type": "Feature", "properties": { "name": "CONTAINER GRAPHIC GALLERY", "lat": 35.652589, "lon": 139.697133 }, "geometry": { "type": "Point", "coordinates": [ 139.697133, 35.652589 ] } },
{ "type": "Feature", "properties": { "name": "ぎゃらりい秋華洞", "lat": 35.671034, "lon": 139.761369 }, "geometry": { "type": "Point", "coordinates": [ 139.761369, 35.671034 ] } },
{ "type": "Feature", "properties": { "name": "Shinwa Privé Gallery", "lat": 35.669799, "lon": 139.760696 }, "geometry": { "type": "Point", "coordinates": [ 139.760696, 35.669799 ] } },
{ "type": "Feature", "properties": { "name": "KOMIYAMA TOKYO G", "lat": 35.696772, "lon": 139.761425 }, "geometry": { "type": "Point", "coordinates": [ 139.761425, 35.696772 ] } },
{ "type": "Feature", "properties": { "name": "GALLERY SCENA.", "lat": 35.665967, "lon": 139.704766 }, "geometry": { "type": "Point", "coordinates": [ 139.704766, 35.665967 ] } },
{ "type": "Feature", "properties": { "name": "GALLERY KOGURE", "lat": 35.696809, "lon": 139.757192 }, "geometry": { "type": "Point", "coordinates": [ 139.757192, 35.696809 ] } },
{ "type": "Feature", "properties": { "name": "Night Out Gallery", "lat": 35.671247, "lon": 139.713849 }, "geometry": { "type": "Point", "coordinates": [ 139.713849, 35.671247 ] } },
{ "type": "Feature", "properties": { "name": "SHINBI GALLERY（新宿美術学院）", "lat": 35.683808, "lon": 139.689518 }, "geometry": { "type": "Point", "coordinates": [ 139.689518, 35.683808 ] } },
{ "type": "Feature", "properties": { "name": "WONDER Yoyogi Park", "lat": 35.66855, "lon": 139.6909 }, "geometry": { "type": "Point", "coordinates": [ 139.6909, 35.66855 ] } },
{ "type": "Feature", "properties": { "name": "YUGEN Gallery", "lat": 35.668071, "lon": 139.715997 }, "geometry": { "type": "Point", "coordinates": [ 139.715997, 35.668071 ] } },
{ "type": "Feature", "properties": { "name": "MA5 GALLERY", "lat": 35.662682, "lon": 139.710778 }, "geometry": { "type": "Point", "coordinates": [ 139.710778, 35.662682 ] } },
{ "type": "Feature", "properties": { "name": "VLC Gallery by AKIO NAGASAWA", "lat": 35.666582, "lon": 139.74511 }, "geometry": { "type": "Point", "coordinates": [ 139.74511, 35.666582 ] } },
{ "type": "Feature", "properties": { "name": "BOOTLEG Gallery", "lat": 35.706934, "lon": 139.73456 }, "geometry": { "type": "Point", "coordinates": [ 139.73456, 35.706934 ] } },
{ "type": "Feature", "properties": { "name": "光村グラフィック・ギャラリー", "lat": 35.617809, "lon": 139.733669 }, "geometry": { "type": "Point", "coordinates": [ 139.733669, 35.617809 ] } },
{ "type": "Feature", "properties": { "name": "art gallery & Legion", "lat": 35.695344, "lon": 139.756476 }, "geometry": { "type": "Point", "coordinates": [ 139.756476, 35.695344 ] } },
{ "type": "Feature", "properties": { "name": "DUB GALLERY AKIHABARA", "lat": 35.697841, "lon": 139.774413 }, "geometry": { "type": "Point", "coordinates": [ 139.774413, 35.697841 ] } },
{ "type": "Feature", "properties": { "name": "メトロ銀座ギャラリー", "lat": 35.671728, "lon": 139.764443 }, "geometry": { "type": "Point", "coordinates": [ 139.764443, 35.671728 ] } },
{ "type": "Feature", "properties": { "name": "コンテンポラリーヘイズ", "lat": 35.681344, "lon": 139.780172 }, "geometry": { "type": "Point", "coordinates": [ 139.780172, 35.681344 ] } },
{ "type": "Feature", "properties": { "name": "フラットリバーギャラリー", "lat": 35.68206, "lon": 139.738673 }, "geometry": { "type": "Point", "coordinates": [ 139.738673, 35.68206 ] } },
{ "type": "Feature", "properties": { "name": "SPACE TGC", "lat": 35.669546, "lon": 139.762406 }, "geometry": { "type": "Point", "coordinates": [ 139.762406, 35.669546 ] } },
{ "type": "Feature", "properties": { "name": "隣人ART", "lat": 35.681673, "lon": 139.782112 }, "geometry": { "type": "Point", "coordinates": [ 139.782112, 35.681673 ] } },
{ "type": "Feature", "properties": { "name": "Gallery W", "lat": 35.668597, "lon": 139.70731 }, "geometry": { "type": "Point", "coordinates": [ 139.70731, 35.668597 ] } },
{ "type": "Feature", "properties": { "name": "HIRO OKAMOTO", "lat": 35.671573, "lon": 139.711015 }, "geometry": { "type": "Point", "coordinates": [ 139.711015, 35.671573 ] } },
{ "type": "Feature", "properties": { "name": "YOD TOKYO", "lat": 35.669725, "lon": 139.707939 }, "geometry": { "type": "Point", "coordinates": [ 139.707939, 35.669725 ] } },
{ "type": "Feature", "properties": { "name": "SOMSOC Gallery", "lat": 35.670288, "lon": 139.707283 }, "geometry": { "type": "Point", "coordinates": [ 139.707283, 35.670288 ] } },
{ "type": "Feature", "properties": { "name": "OTA FINE ARTS 7CHOME", "lat": 35.663705, "lon": 139.72795 }, "geometry": { "type": "Point", "coordinates": [ 139.72795, 35.663705 ] } },
{ "type": "Feature", "properties": { "name": "FOAM CONTEMPORARY", "lat": 35.669872, "lon": 139.76401 }, "geometry": { "type": "Point", "coordinates": [ 139.76401, 35.669872 ] } },
{ "type": "Feature", "properties": { "name": "SOOT", "lat": 35.659451, "lon": 139.717467 }, "geometry": { "type": "Point", "coordinates": [ 139.717467, 35.659451 ] } },
{ "type": "Feature", "properties": { "name": "EXHIBIT SPACE TINGLE ANGLE", "lat": 35.693537, "lon": 139.781473 }, "geometry": { "type": "Point", "coordinates": [ 139.781473, 35.693537 ] } },
{ "type": "Feature", "properties": { "name": "SKY GALLERY", "lat": 35.658464, "lon": 139.702262 }, "geometry": { "type": "Point", "coordinates": [ 139.702262, 35.658464 ] } },
{ "type": "Feature", "properties": { "name": "THE LOOP GALLERY", "lat": 35.666408, "lon": 139.750767 }, "geometry": { "type": "Point", "coordinates": [ 139.750767, 35.666408 ] } },
{ "type": "Feature", "properties": { "name": "NEORT++（ネオルトツー）", "lat": 35.695474, "lon": 139.78349 }, "geometry": { "type": "Point", "coordinates": [ 139.78349, 35.695474 ] } },
{ "type": "Feature", "properties": { "name": "至峰堂画廊", "lat": 35.671176, "lon": 139.761515 }, "geometry": { "type": "Point", "coordinates": [ 139.761515, 35.671176 ] } },
{ "type": "Feature", "properties": { "name": "ライカギャラリー東京", "lat": 35.671749, "lon": 139.76187 }, "geometry": { "type": "Point", "coordinates": [ 139.76187, 35.671749 ] } },
{ "type": "Feature", "properties": { "name": "クマ財団ギャラリー", "lat": 35.663705, "lon": 139.72795 }, "geometry": { "type": "Point", "coordinates": [ 139.72795, 35.663705 ] } },
{ "type": "Feature", "properties": { "name": "のこぎり", "lat": 35.65285, "lon": 139.703772 }, "geometry": { "type": "Point", "coordinates": [ 139.703772, 35.65285 ] } },
{ "type": "Feature", "properties": { "name": "Roll", "lat": 35.702303, "lon": 139.742444 }, "geometry": { "type": "Point", "coordinates": [ 139.742444, 35.702303 ] } },
{ "type": "Feature", "properties": { "name": "Ritsuki Fujisaki Gallery", "lat": 35.692905, "lon": 139.785572 }, "geometry": { "type": "Point", "coordinates": [ 139.785572, 35.692905 ] } },
{ "type": "Feature", "properties": { "name": "小山登美夫ギャラリー天王洲", "lat": 35.619175, "lon": 139.746603 }, "geometry": { "type": "Point", "coordinates": [ 139.746603, 35.619175 ] } },
{ "type": "Feature", "properties": { "name": "parcel", "lat": 35.695474, "lon": 139.78349 }, "geometry": { "type": "Point", "coordinates": [ 139.78349, 35.695474 ] } },
{ "type": "Feature", "properties": { "name": "T&Y Projects", "lat": 35.619781, "lon": 139.74632 }, "geometry": { "type": "Point", "coordinates": [ 139.74632, 35.619781 ] } },
{ "type": "Feature", "properties": { "name": "GALLERY HAYASHI + ART BRIDGE", "lat": 35.669385, "lon": 139.761924 }, "geometry": { "type": "Point", "coordinates": [ 139.761924, 35.669385 ] } },
{ "type": "Feature", "properties": { "name": "SCOOTERS FOR PEACE", "lat": 35.673354, "lon": 139.710479 }, "geometry": { "type": "Point", "coordinates": [ 139.710479, 35.673354 ] } },
{ "type": "Feature", "properties": { "name": "galerieH（ガルリアッシュ）", "lat": 35.686116, "lon": 139.778356 }, "geometry": { "type": "Point", "coordinates": [ 139.778356, 35.686116 ] } },
{ "type": "Feature", "properties": { "name": "エステルオカダ", "lat": 35.676102, "lon": 139.690499 }, "geometry": { "type": "Point", "coordinates": [ 139.690499, 35.676102 ] } },
{ "type": "Feature", "properties": { "name": "タカ・イシイギャラリー ビューイングルーム", "lat": 35.619781, "lon": 139.74632 }, "geometry": { "type": "Point", "coordinates": [ 139.74632, 35.619781 ] } },
{ "type": "Feature", "properties": { "name": "丸紅ギャラリー", "lat": 35.690624, "lon": 139.75971 }, "geometry": { "type": "Point", "coordinates": [ 139.75971, 35.690624 ] } },
{ "type": "Feature", "properties": { "name": "Feb gallery Tokyo", "lat": 35.666961, "lon": 139.719127 }, "geometry": { "type": "Point", "coordinates": [ 139.719127, 35.666961 ] } },
{ "type": "Feature", "properties": { "name": "CAVE-AYUMIGALLERY", "lat": 35.704085, "lon": 139.734669 }, "geometry": { "type": "Point", "coordinates": [ 139.734669, 35.704085 ] } },
{ "type": "Feature", "properties": { "name": "JPS Gallery（Tokyo）", "lat": 35.666716, "lon": 139.703741 }, "geometry": { "type": "Point", "coordinates": [ 139.703741, 35.666716 ] } },
{ "type": "Feature", "properties": { "name": "myheirloom（マイエアルーム）", "lat": 35.689835, "lon": 139.780457 }, "geometry": { "type": "Point", "coordinates": [ 139.780457, 35.689835 ] } },
{ "type": "Feature", "properties": { "name": "BAG-Brillia Art Gallery-", "lat": 35.675351, "lon": 139.769581 }, "geometry": { "type": "Point", "coordinates": [ 139.769581, 35.675351 ] } },
{ "type": "Feature", "properties": { "name": "and wander OUTDOOR GALLERY", "lat": 35.677534, "lon": 139.762249 }, "geometry": { "type": "Point", "coordinates": [ 139.762249, 35.677534 ] } },
{ "type": "Feature", "properties": { "name": "PAGIC Gallery", "lat": 35.680071, "lon": 139.68607 }, "geometry": { "type": "Point", "coordinates": [ 139.68607, 35.680071 ] } },
{ "type": "Feature", "properties": { "name": "白紙", "lat": 35.664349, "lon": 139.70579 }, "geometry": { "type": "Point", "coordinates": [ 139.70579, 35.664349 ] } },
{ "type": "Feature", "properties": { "name": "MARGIN", "lat": 35.692079, "lon": 139.782612 }, "geometry": { "type": "Point", "coordinates": [ 139.782612, 35.692079 ] } },
{ "type": "Feature", "properties": { "name": "ギャラリー新居 東京", "lat": 35.673765, "lon": 139.769693 }, "geometry": { "type": "Point", "coordinates": [ 139.769693, 35.673765 ] } },
{ "type": "Feature", "properties": { "name": "ギャラリー石榴 南青山ルーム", "lat": 35.67028, "lon": 139.725652 }, "geometry": { "type": "Point", "coordinates": [ 139.725652, 35.67028 ] } },
{ "type": "Feature", "properties": { "name": "Gallery COMMON", "lat": 35.664933, "lon": 139.706551 }, "geometry": { "type": "Point", "coordinates": [ 139.706551, 35.664933 ] } },
{ "type": "Feature", "properties": { "name": "たけだ美術", "lat": 35.668229, "lon": 139.762842 }, "geometry": { "type": "Point", "coordinates": [ 139.762842, 35.668229 ] } },
{ "type": "Feature", "properties": { "name": "TANA Gallery Bookshelf", "lat": 35.697025, "lon": 139.756806 }, "geometry": { "type": "Point", "coordinates": [ 139.756806, 35.697025 ] } },
{ "type": "Feature", "properties": { "name": "アクシス ギャラリー", "lat": 35.661322, "lon": 139.736532 }, "geometry": { "type": "Point", "coordinates": [ 139.736532, 35.661322 ] } },
{ "type": "Feature", "properties": { "name": "第一生命ギャラリー", "lat": 35.676043, "lon": 139.760545 }, "geometry": { "type": "Point", "coordinates": [ 139.760545, 35.676043 ] } },
{ "type": "Feature", "properties": { "name": "EARTH + GALLERY", "lat": 35.672791, "lon": 139.805405 }, "geometry": { "type": "Point", "coordinates": [ 139.805405, 35.672791 ] } },
{ "type": "Feature", "properties": { "name": "NUKAGA GALLERY", "lat": 35.672769, "lon": 139.765108 }, "geometry": { "type": "Point", "coordinates": [ 139.765108, 35.672769 ] } },
{ "type": "Feature", "properties": { "name": "Mizenka Gallery", "lat": 35.647639, "lon": 139.731118 }, "geometry": { "type": "Point", "coordinates": [ 139.731118, 35.647639 ] } },
{ "type": "Feature", "properties": { "name": "河合塾美術研究所 Gallery Kart", "lat": 35.695088, "lon": 139.697013 }, "geometry": { "type": "Point", "coordinates": [ 139.697013, 35.695088 ] } },
{ "type": "Feature", "properties": { "name": "Fm（エフマイナー）", "lat": 35.647378, "lon": 139.704101 }, "geometry": { "type": "Point", "coordinates": [ 139.704101, 35.647378 ] } },
{ "type": "Feature", "properties": { "name": "パールブックショップ&ギャラリー", "lat": 35.674711, "lon": 139.678725 }, "geometry": { "type": "Point", "coordinates": [ 139.678725, 35.674711 ] } },
{ "type": "Feature", "properties": { "name": "ギャラリーカメリア", "lat": 35.67374, "lon": 139.768782 }, "geometry": { "type": "Point", "coordinates": [ 139.768782, 35.67374 ] } },
{ "type": "Feature", "properties": { "name": "+81 Gallery – Tokyo", "lat": 35.672131, "lon": 139.709338 }, "geometry": { "type": "Point", "coordinates": [ 139.709338, 35.672131 ] } },
{ "type": "Feature", "properties": { "name": "ミヤケファインアート", "lat": 35.681531, "lon": 139.793045 }, "geometry": { "type": "Point", "coordinates": [ 139.793045, 35.681531 ] } },
{ "type": "Feature", "properties": { "name": "ギャラリー桜の木 銀座", "lat": 35.672236, "lon": 139.76461 }, "geometry": { "type": "Point", "coordinates": [ 139.76461, 35.672236 ] } },
{ "type": "Feature", "properties": { "name": "銀座一穂堂サロン", "lat": 35.674084, "lon": 139.768334 }, "geometry": { "type": "Point", "coordinates": [ 139.768334, 35.674084 ] } },
{ "type": "Feature", "properties": { "name": "アートギャラリー環", "lat": 35.689302, "lon": 139.771967 }, "geometry": { "type": "Point", "coordinates": [ 139.771967, 35.689302 ] } },
{ "type": "Feature", "properties": { "name": "LOKO GALLERY", "lat": 35.651541, "lon": 139.701269 }, "geometry": { "type": "Point", "coordinates": [ 139.701269, 35.651541 ] } },
{ "type": "Feature", "properties": { "name": "DAIKANYAMA T-SITE GARDEN GALLERY", "lat": 35.649118, "lon": 139.700144 }, "geometry": { "type": "Point", "coordinates": [ 139.700144, 35.649118 ] } },
{ "type": "Feature", "properties": { "name": "TOTOギャラリー・間", "lat": 35.667488, "lon": 139.726689 }, "geometry": { "type": "Point", "coordinates": [ 139.726689, 35.667488 ] } },
{ "type": "Feature", "properties": { "name": "gallery commune", "lat": 35.675458, "lon": 139.678346 }, "geometry": { "type": "Point", "coordinates": [ 139.678346, 35.675458 ] } },
{ "type": "Feature", "properties": { "name": "ワコウ・ワークス・オブ・アート", "lat": 35.661974, "lon": 139.731214 }, "geometry": { "type": "Point", "coordinates": [ 139.731214, 35.661974 ] } },
{ "type": "Feature", "properties": { "name": "オリエ アート・ギャラリー", "lat": 35.671369, "lon": 139.716013 }, "geometry": { "type": "Point", "coordinates": [ 139.716013, 35.671369 ] } },
{ "type": "Feature", "properties": { "name": "Otherwise Gallery", "lat": 35.662333, "lon": 139.712707 }, "geometry": { "type": "Point", "coordinates": [ 139.712707, 35.662333 ] } },
{ "type": "Feature", "properties": { "name": "工房親", "lat": 35.647886, "lon": 139.719591 }, "geometry": { "type": "Point", "coordinates": [ 139.719591, 35.647886 ] } },
{ "type": "Feature", "properties": { "name": "GYRE GALLERY", "lat": 35.667386, "lon": 139.706911 }, "geometry": { "type": "Point", "coordinates": [ 139.706911, 35.667386 ] } },
{ "type": "Feature", "properties": { "name": "MAHO KUBOTA GALLERY", "lat": 35.672794, "lon": 139.713277 }, "geometry": { "type": "Point", "coordinates": [ 139.713277, 35.672794 ] } },
{ "type": "Feature", "properties": { "name": "Akio Nagasawa Gallery Aoyama", "lat": 35.661577, "lon": 139.712917 }, "geometry": { "type": "Point", "coordinates": [ 139.712917, 35.661577 ] } },
{ "type": "Feature", "properties": { "name": "Yu Harada", "lat": 35.693895, "lon": 139.720489 }, "geometry": { "type": "Point", "coordinates": [ 139.720489, 35.693895 ] } },
{ "type": "Feature", "properties": { "name": "TAV GALLERY", "lat": 35.662234, "lon": 139.721198 }, "geometry": { "type": "Point", "coordinates": [ 139.721198, 35.662234 ] } },
{ "type": "Feature", "properties": { "name": "Akio Nagasawa Gallery Ginza", "lat": 35.670626, "lon": 139.767062 }, "geometry": { "type": "Point", "coordinates": [ 139.767062, 35.670626 ] } },
{ "type": "Feature", "properties": { "name": "MASATAKA CONTEMPORARY", "lat": 35.680281, "lon": 139.771993 }, "geometry": { "type": "Point", "coordinates": [ 139.771993, 35.680281 ] } },
{ "type": "Feature", "properties": { "name": "ギャラリーハウスMAYA", "lat": 35.671873, "lon": 139.714809 }, "geometry": { "type": "Point", "coordinates": [ 139.714809, 35.671873 ] } },
{ "type": "Feature", "properties": { "name": "プリズミックギャラリー", "lat": 35.667248, "lon": 139.719521 }, "geometry": { "type": "Point", "coordinates": [ 139.719521, 35.667248 ] } },
{ "type": "Feature", "properties": { "name": "ギャルリーヴィヴァン", "lat": 35.672409, "lon": 139.769221 }, "geometry": { "type": "Point", "coordinates": [ 139.769221, 35.672409 ] } },
{ "type": "Feature", "properties": { "name": "NANATASU GALLERY", "lat": 35.661182, "lon": 139.722604 }, "geometry": { "type": "Point", "coordinates": [ 139.722604, 35.661182 ] } },
{ "type": "Feature", "properties": { "name": "gallery ON THE HILL", "lat": 35.64859, "lon": 139.700511 }, "geometry": { "type": "Point", "coordinates": [ 139.700511, 35.64859 ] } },
{ "type": "Feature", "properties": { "name": "Art-U room", "lat": 35.67017, "lon": 139.72635 }, "geometry": { "type": "Point", "coordinates": [ 139.72635, 35.67017 ] } },
{ "type": "Feature", "properties": { "name": "FUMA Contemporary Tokyo \/ BUNKYO ART", "lat": 35.672691, "lon": 139.776357 }, "geometry": { "type": "Point", "coordinates": [ 139.776357, 35.672691 ] } },
{ "type": "Feature", "properties": { "name": "ルーニィ 247 ファインアーツ", "lat": 35.692807, "lon": 139.779926 }, "geometry": { "type": "Point", "coordinates": [ 139.779926, 35.692807 ] } },
{ "type": "Feature", "properties": { "name": "Gallery 子の星", "lat": 35.650424, "lon": 139.704899 }, "geometry": { "type": "Point", "coordinates": [ 139.704899, 35.650424 ] } },
{ "type": "Feature", "properties": { "name": "nada art gallery", "lat": 35.668207, "lon": 139.764018 }, "geometry": { "type": "Point", "coordinates": [ 139.764018, 35.668207 ] } },
{ "type": "Feature", "properties": { "name": "ギャラリーアートコンポジション", "lat": 35.669742, "lon": 139.784499 }, "geometry": { "type": "Point", "coordinates": [ 139.784499, 35.669742 ] } },
{ "type": "Feature", "properties": { "name": "アートスペースAM", "lat": 35.668085, "lon": 139.704141 }, "geometry": { "type": "Point", "coordinates": [ 139.704141, 35.668085 ] } },
{ "type": "Feature", "properties": { "name": "WAG Gallery", "lat": 35.669053, "lon": 139.707714 }, "geometry": { "type": "Point", "coordinates": [ 139.707714, 35.669053 ] } },
{ "type": "Feature", "properties": { "name": "アダチ版画研究所", "lat": 35.720757, "lon": 139.700483 }, "geometry": { "type": "Point", "coordinates": [ 139.700483, 35.720757 ] } },
{ "type": "Feature", "properties": { "name": "GALLERY CLASKA", "lat": 35.670228, "lon": 139.71812 }, "geometry": { "type": "Point", "coordinates": [ 139.71812, 35.670228 ] } },
{ "type": "Feature", "properties": { "name": "Cale", "lat": 35.657319, "lon": 139.73776 }, "geometry": { "type": "Point", "coordinates": [ 139.73776, 35.657319 ] } },
{ "type": "Feature", "properties": { "name": "TATARABA", "lat": 35.618397, "lon": 139.744573 }, "geometry": { "type": "Point", "coordinates": [ 139.744573, 35.618397 ] } },
{ "type": "Feature", "properties": { "name": "BLUM", "lat": 35.670997, "lon": 139.703044 }, "geometry": { "type": "Point", "coordinates": [ 139.703044, 35.670997 ] } },
{ "type": "Feature", "properties": { "name": "小山登美夫ギャラリー六本木", "lat": 35.661539, "lon": 139.731043 }, "geometry": { "type": "Point", "coordinates": [ 139.731043, 35.661539 ] } },
{ "type": "Feature", "properties": { "name": "文房堂ギャラリー", "lat": 35.695358, "lon": 139.760914 }, "geometry": { "type": "Point", "coordinates": [ 139.760914, 35.695358 ] } },
{ "type": "Feature", "properties": { "name": "ペーターズ・ショップ・アンド・ギャラリー", "lat": 35.672541, "lon": 139.708509 }, "geometry": { "type": "Point", "coordinates": [ 139.708509, 35.672541 ] } },
{ "type": "Feature", "properties": { "name": "NADAR \/ TOKYO（ナダール \/ 東京）", "lat": 35.666952, "lon": 139.715335 }, "geometry": { "type": "Point", "coordinates": [ 139.715335, 35.666952 ] } },
{ "type": "Feature", "properties": { "name": "GALLERY ART POINT", "lat": 35.67195, "lon": 139.770845 }, "geometry": { "type": "Point", "coordinates": [ 139.770845, 35.67195 ] } },
{ "type": "Feature", "properties": { "name": "YUKA TSURUNO GALLERY", "lat": 35.619175, "lon": 139.746603 }, "geometry": { "type": "Point", "coordinates": [ 139.746603, 35.619175 ] } },
{ "type": "Feature", "properties": { "name": "ANOMALY", "lat": 35.619175, "lon": 139.746603 }, "geometry": { "type": "Point", "coordinates": [ 139.746603, 35.619175 ] } },
{ "type": "Feature", "properties": { "name": "Printed Union", "lat": 35.667634, "lon": 139.70414 }, "geometry": { "type": "Point", "coordinates": [ 139.70414, 35.667634 ] } },
{ "type": "Feature", "properties": { "name": "DAZZLE", "lat": 35.670583, "lon": 139.716115 }, "geometry": { "type": "Point", "coordinates": [ 139.716115, 35.670583 ] } },
{ "type": "Feature", "properties": { "name": "Kanzan Gallery", "lat": 35.69353, "lon": 139.780235 }, "geometry": { "type": "Point", "coordinates": [ 139.780235, 35.69353 ] } },
{ "type": "Feature", "properties": { "name": "gallery 福果", "lat": 35.695637, "lon": 139.760551 }, "geometry": { "type": "Point", "coordinates": [ 139.760551, 35.695637 ] } },
{ "type": "Feature", "properties": { "name": "TIERS GALLERY", "lat": 35.666335, "lon": 139.708837 }, "geometry": { "type": "Point", "coordinates": [ 139.708837, 35.666335 ] } },
{ "type": "Feature", "properties": { "name": "Nii Fine Arts Tokyo", "lat": 35.704307, "lon": 139.77068 }, "geometry": { "type": "Point", "coordinates": [ 139.77068, 35.704307 ] } },
{ "type": "Feature", "properties": { "name": "PARCEL", "lat": 35.695287, "lon": 139.783542 }, "geometry": { "type": "Point", "coordinates": [ 139.783542, 35.695287 ] } },
{ "type": "Feature", "properties": { "name": "art space kimura ASK?", "lat": 35.67534, "lon": 139.77018 }, "geometry": { "type": "Point", "coordinates": [ 139.77018, 35.67534 ] } },
{ "type": "Feature", "properties": { "name": "SAKuRA GALLERY", "lat": 35.682489, "lon": 139.798392 }, "geometry": { "type": "Point", "coordinates": [ 139.798392, 35.682489 ] } },
{ "type": "Feature", "properties": { "name": "KOSAKU KANECHIKA", "lat": 35.619175, "lon": 139.746603 }, "geometry": { "type": "Point", "coordinates": [ 139.746603, 35.619175 ] } },
{ "type": "Feature", "properties": { "name": "CAGE GALLERY", "lat": 35.646835, "lon": 139.719018 }, "geometry": { "type": "Point", "coordinates": [ 139.719018, 35.646835 ] } },
{ "type": "Feature", "properties": { "name": "ストライプハウスギャラリー", "lat": 35.660074, "lon": 139.732897 }, "geometry": { "type": "Point", "coordinates": [ 139.732897, 35.660074 ] } },
{ "type": "Feature", "properties": { "name": "麻布十番ギャラリー", "lat": 35.656483, "lon": 139.734826 }, "geometry": { "type": "Point", "coordinates": [ 139.734826, 35.656483 ] } },
{ "type": "Feature", "properties": { "name": "THE SECRET MUSEUM", "lat": 35.665353, "lon": 139.705397 }, "geometry": { "type": "Point", "coordinates": [ 139.705397, 35.665353 ] } },
{ "type": "Feature", "properties": { "name": "東京アーツギャラリー", "lat": 35.653047, "lon": 139.708552 }, "geometry": { "type": "Point", "coordinates": [ 139.708552, 35.653047 ] } },
{ "type": "Feature", "properties": { "name": "Red and Blue Gallery", "lat": 35.672889, "lon": 139.773174 }, "geometry": { "type": "Point", "coordinates": [ 139.773174, 35.672889 ] } },
{ "type": "Feature", "properties": { "name": "ギャラリーセラー", "lat": 35.675599, "lon": 139.768433 }, "geometry": { "type": "Point", "coordinates": [ 139.768433, 35.675599 ] } },
{ "type": "Feature", "properties": { "name": "ヒノギャラリー", "lat": 35.671681, "lon": 139.776954 }, "geometry": { "type": "Point", "coordinates": [ 139.776954, 35.671681 ] } },
{ "type": "Feature", "properties": { "name": "Gallery b. Tokyo", "lat": 35.674986, "lon": 139.76999 }, "geometry": { "type": "Point", "coordinates": [ 139.76999, 35.674986 ] } },
{ "type": "Feature", "properties": { "name": "Kiyoyuki Kuwabara Accounting Gallery", "lat": 35.693428, "lon": 139.780764 }, "geometry": { "type": "Point", "coordinates": [ 139.780764, 35.693428 ] } },
{ "type": "Feature", "properties": { "name": "スクールデレック芸術社会学研究所", "lat": 35.647448, "lon": 139.714351 }, "geometry": { "type": "Point", "coordinates": [ 139.714351, 35.647448 ] } },
{ "type": "Feature", "properties": { "name": "Hasu no hana", "lat": 35.609693, "lon": 139.719272 }, "geometry": { "type": "Point", "coordinates": [ 139.719272, 35.609693 ] } },
{ "type": "Feature", "properties": { "name": "いつき美術画廊", "lat": 35.663236, "lon": 139.75421 }, "geometry": { "type": "Point", "coordinates": [ 139.75421, 35.663236 ] } },
{ "type": "Feature", "properties": { "name": "新生堂", "lat": 35.661765, "lon": 139.714185 }, "geometry": { "type": "Point", "coordinates": [ 139.714185, 35.661765 ] } },
{ "type": "Feature", "properties": { "name": "JINKINOKO GALLERY", "lat": 35.649645, "lon": 139.701217 }, "geometry": { "type": "Point", "coordinates": [ 139.701217, 35.649645 ] } },
{ "type": "Feature", "properties": { "name": "same gallery", "lat": 35.613692, "lon": 139.707249 }, "geometry": { "type": "Point", "coordinates": [ 139.707249, 35.613692 ] } },
{ "type": "Feature", "properties": { "name": "ライトシード・ギャラリー", "lat": 35.670739, "lon": 139.713363 }, "geometry": { "type": "Point", "coordinates": [ 139.713363, 35.670739 ] } },
{ "type": "Feature", "properties": { "name": "ビリケンギャラリー", "lat": 35.660666, "lon": 139.714374 }, "geometry": { "type": "Point", "coordinates": [ 139.714374, 35.660666 ] } },
{ "type": "Feature", "properties": { "name": "TOKYO INTERNATIONAL GALLERY", "lat": 35.619781, "lon": 139.74632 }, "geometry": { "type": "Point", "coordinates": [ 139.74632, 35.619781 ] } },
{ "type": "Feature", "properties": { "name": "SAN-AI GALLERY + contemporary art", "lat": 35.694023, "lon": 139.781126 }, "geometry": { "type": "Point", "coordinates": [ 139.781126, 35.694023 ] } },
{ "type": "Feature", "properties": { "name": "ギャラリー川船", "lat": 35.675583, "lon": 139.768525 }, "geometry": { "type": "Point", "coordinates": [ 139.768525, 35.675583 ] } },
{ "type": "Feature", "properties": { "name": "OPA gallery･shop", "lat": 35.668308, "lon": 139.712811 }, "geometry": { "type": "Point", "coordinates": [ 139.712811, 35.668308 ] } },
{ "type": "Feature", "properties": { "name": "Rikka Gallery", "lat": 35.660136, "lon": 139.739958 }, "geometry": { "type": "Point", "coordinates": [ 139.739958, 35.660136 ] } },
{ "type": "Feature", "properties": { "name": "UNPEL GALLERY（アンペルギャラリー）", "lat": 35.68077, "lon": 139.771957 }, "geometry": { "type": "Point", "coordinates": [ 139.771957, 35.68077 ] } },
{ "type": "Feature", "properties": { "name": "ギャラリーそうめい堂", "lat": 35.696208, "lon": 139.758799 }, "geometry": { "type": "Point", "coordinates": [ 139.758799, 35.696208 ] } },
{ "type": "Feature", "properties": { "name": "EUKARYOTE（ユーカリオ）", "lat": 35.670887, "lon": 139.713637 }, "geometry": { "type": "Point", "coordinates": [ 139.713637, 35.670887 ] } },
{ "type": "Feature", "properties": { "name": "ギンザ・グラフィック・ギャラリー", "lat": 35.669705, "lon": 139.762569 }, "geometry": { "type": "Point", "coordinates": [ 139.762569, 35.669705 ] } },
{ "type": "Feature", "properties": { "name": "YUKIKOMIZUTANI", "lat": 35.619781, "lon": 139.74632 }, "geometry": { "type": "Point", "coordinates": [ 139.74632, 35.619781 ] } },
{ "type": "Feature", "properties": { "name": "MAKI（天王洲 II）", "lat": 35.619781, "lon": 139.74632 }, "geometry": { "type": "Point", "coordinates": [ 139.74632, 35.619781 ] } },
{ "type": "Feature", "properties": { "name": "ヒロ画廊", "lat": 35.670523, "lon": 139.762532 }, "geometry": { "type": "Point", "coordinates": [ 139.762532, 35.670523 ] } },
{ "type": "Feature", "properties": { "name": "アートコンプレックスセンター", "lat": 35.684213, "lon": 139.717884 }, "geometry": { "type": "Point", "coordinates": [ 139.717884, 35.684213 ] } },
{ "type": "Feature", "properties": { "name": "渋谷ヒカリエ 8\/ d47 MUSEUM", "lat": 35.659124, "lon": 139.70373 }, "geometry": { "type": "Point", "coordinates": [ 139.70373, 35.659124 ] } },
{ "type": "Feature", "properties": { "name": "nca | nichido contemporary art", "lat": 35.663705, "lon": 139.72795 }, "geometry": { "type": "Point", "coordinates": [ 139.72795, 35.663705 ] } },
{ "type": "Feature", "properties": { "name": "NANZUKA UNDERGROUND", "lat": 35.672075, "lon": 139.710035 }, "geometry": { "type": "Point", "coordinates": [ 139.710035, 35.672075 ] } },
{ "type": "Feature", "properties": { "name": "UTRECHT \/ NOW IDeA", "lat": 35.664349, "lon": 139.70579 }, "geometry": { "type": "Point", "coordinates": [ 139.70579, 35.664349 ] } },
{ "type": "Feature", "properties": { "name": "UltraSuperNew Gallery", "lat": 35.674158, "lon": 139.707174 }, "geometry": { "type": "Point", "coordinates": [ 139.707174, 35.674158 ] } },
{ "type": "Feature", "properties": { "name": "Sansiao Gallery", "lat": 35.680281, "lon": 139.771993 }, "geometry": { "type": "Point", "coordinates": [ 139.771993, 35.680281 ] } },
{ "type": "Feature", "properties": { "name": "THE blank GALLERY", "lat": 35.670359, "lon": 139.707887 }, "geometry": { "type": "Point", "coordinates": [ 139.707887, 35.670359 ] } },
{ "type": "Feature", "properties": { "name": "CALM & PUNK GALLERY", "lat": 35.661739, "lon": 139.723033 }, "geometry": { "type": "Point", "coordinates": [ 139.723033, 35.661739 ] } },
{ "type": "Feature", "properties": { "name": "兜屋画廊", "lat": 35.667719, "lon": 139.766038 }, "geometry": { "type": "Point", "coordinates": [ 139.766038, 35.667719 ] } },
{ "type": "Feature", "properties": { "name": "MAKI（天王洲）", "lat": 35.619175, "lon": 139.746603 }, "geometry": { "type": "Point", "coordinates": [ 139.746603, 35.619175 ] } },
{ "type": "Feature", "properties": { "name": "Take Ninagawa", "lat": 35.657033, "lon": 139.740525 }, "geometry": { "type": "Point", "coordinates": [ 139.740525, 35.657033 ] } },
{ "type": "Feature", "properties": { "name": "Gallery 21 （ギャラリー・ヴァンテアン）", "lat": 35.625144, "lon": 139.771569 }, "geometry": { "type": "Point", "coordinates": [ 139.771569, 35.625144 ] } },
{ "type": "Feature", "properties": { "name": "TARO NASU", "lat": 35.661974, "lon": 139.731214 }, "geometry": { "type": "Point", "coordinates": [ 139.731214, 35.661974 ] } },
{ "type": "Feature", "properties": { "name": "gallery 201", "lat": 35.626981, "lon": 139.730762 }, "geometry": { "type": "Point", "coordinates": [ 139.730762, 35.626981 ] } },
{ "type": "Feature", "properties": { "name": "VOILLD（ボイルド）", "lat": 35.626249, "lon": 139.728342 }, "geometry": { "type": "Point", "coordinates": [ 139.728342, 35.626249 ] } },
{ "type": "Feature", "properties": { "name": "SPC GALLERY", "lat": 35.681333, "lon": 139.777602 }, "geometry": { "type": "Point", "coordinates": [ 139.777602, 35.681333 ] } },
{ "type": "Feature", "properties": { "name": "STEIN BOX（シュタインボックス）", "lat": 35.662771, "lon": 139.718167 }, "geometry": { "type": "Point", "coordinates": [ 139.718167, 35.662771 ] } },
{ "type": "Feature", "properties": { "name": "51% Tokyo", "lat": 35.670738, "lon": 139.690786 }, "geometry": { "type": "Point", "coordinates": [ 139.690786, 35.670738 ] } },
{ "type": "Feature", "properties": { "name": "行幸地下ギャラリー", "lat": 35.6797, "lon": 139.763291 }, "geometry": { "type": "Point", "coordinates": [ 139.763291, 35.6797 ] } },
{ "type": "Feature", "properties": { "name": "吉井画廊", "lat": 35.669417, "lon": 139.760236 }, "geometry": { "type": "Point", "coordinates": [ 139.760236, 35.669417 ] } },
{ "type": "Feature", "properties": { "name": "ギャラリー玻瑠", "lat": 35.675027, "lon": 139.762962 }, "geometry": { "type": "Point", "coordinates": [ 139.762962, 35.675027 ] } },
{ "type": "Feature", "properties": { "name": "銀座アートホール", "lat": 35.670016, "lon": 139.759389 }, "geometry": { "type": "Point", "coordinates": [ 139.759389, 35.670016 ] } },
{ "type": "Feature", "properties": { "name": "巷房", "lat": 35.67374, "lon": 139.768782 }, "geometry": { "type": "Point", "coordinates": [ 139.768782, 35.67374 ] } },
{ "type": "Feature", "properties": { "name": "巷房階段下", "lat": 35.67374, "lon": 139.768782 }, "geometry": { "type": "Point", "coordinates": [ 139.768782, 35.67374 ] } },
{ "type": "Feature", "properties": { "name": "日本橋三越本店 - 新館7階ギャラリー", "lat": 35.685644, "lon": 139.773421 }, "geometry": { "type": "Point", "coordinates": [ 139.773421, 35.685644 ] } },
{ "type": "Feature", "properties": { "name": "KEY Gallery", "lat": 35.674986, "lon": 139.76999 }, "geometry": { "type": "Point", "coordinates": [ 139.76999, 35.674986 ] } },
{ "type": "Feature", "properties": { "name": "青樺画廊", "lat": 35.674986, "lon": 139.76999 }, "geometry": { "type": "Point", "coordinates": [ 139.76999, 35.674986 ] } },
{ "type": "Feature", "properties": { "name": "ギャルリー トラン・デュ・モンド", "lat": 35.697564, "lon": 139.700608 }, "geometry": { "type": "Point", "coordinates": [ 139.700608, 35.697564 ] } },
{ "type": "Feature", "properties": { "name": "gallery de kasuga", "lat": 35.666031, "lon": 139.708681 }, "geometry": { "type": "Point", "coordinates": [ 139.708681, 35.666031 ] } },
{ "type": "Feature", "properties": { "name": "レクトヴァーソギャラリー \/ ギャラリースペースファクトリー", "lat": 35.678932, "lon": 139.781004 }, "geometry": { "type": "Point", "coordinates": [ 139.781004, 35.678932 ] } },
{ "type": "Feature", "properties": { "name": "Hideharu Fukasaku Gallery Roppongi", "lat": 35.664718, "lon": 139.730207 }, "geometry": { "type": "Point", "coordinates": [ 139.730207, 35.664718 ] } },
{ "type": "Feature", "properties": { "name": "Zen Foto Gallery", "lat": 35.661974, "lon": 139.731214 }, "geometry": { "type": "Point", "coordinates": [ 139.731214, 35.661974 ] } },
{ "type": "Feature", "properties": { "name": "HBギャラリー", "lat": 35.667666, "lon": 139.711941 }, "geometry": { "type": "Point", "coordinates": [ 139.711941, 35.667666 ] } },
{ "type": "Feature", "properties": { "name": "s+arts", "lat": 35.664467, "lon": 139.72851 }, "geometry": { "type": "Point", "coordinates": [ 139.72851, 35.664467 ] } },
{ "type": "Feature", "properties": { "name": "ROPPONGI HILLS A\/D GALLERY", "lat": 35.660597, "lon": 139.72872 }, "geometry": { "type": "Point", "coordinates": [ 139.72872, 35.660597 ] } },
{ "type": "Feature", "properties": { "name": "TETOKA（手と花）", "lat": 35.693169, "lon": 139.768274 }, "geometry": { "type": "Point", "coordinates": [ 139.768274, 35.693169 ] } },
{ "type": "Feature", "properties": { "name": "ソニーイメージングギャラリー 銀座", "lat": 35.671108, "lon": 139.765401 }, "geometry": { "type": "Point", "coordinates": [ 139.765401, 35.671108 ] } },
{ "type": "Feature", "properties": { "name": "ギャルリー志門", "lat": 35.668865, "lon": 139.76489 }, "geometry": { "type": "Point", "coordinates": [ 139.76489, 35.668865 ] } },
{ "type": "Feature", "properties": { "name": "藍画廊", "lat": 35.67374, "lon": 139.768782 }, "geometry": { "type": "Point", "coordinates": [ 139.768782, 35.67374 ] } },
{ "type": "Feature", "properties": { "name": "Totem Pole Photo Gallery", "lat": 35.690239, "lon": 139.71605 }, "geometry": { "type": "Point", "coordinates": [ 139.71605, 35.690239 ] } },
{ "type": "Feature", "properties": { "name": "タカ・イシイギャラリー フォトグラフィー \/ フィルム", "lat": 35.661322, "lon": 139.736532 }, "geometry": { "type": "Point", "coordinates": [ 139.736532, 35.661322 ] } },
{ "type": "Feature", "properties": { "name": "KOTARO NUKAGA（天王洲）", "lat": 35.619781, "lon": 139.74632 }, "geometry": { "type": "Point", "coordinates": [ 139.74632, 35.619781 ] } },
{ "type": "Feature", "properties": { "name": "永井画廊", "lat": 35.6692, "lon": 139.76111 }, "geometry": { "type": "Point", "coordinates": [ 139.76111, 35.6692 ] } },
{ "type": "Feature", "properties": { "name": "TS4312", "lat": 35.687613, "lon": 139.719242 }, "geometry": { "type": "Point", "coordinates": [ 139.719242, 35.687613 ] } },
{ "type": "Feature", "properties": { "name": "K's Gallery", "lat": 35.673353, "lon": 139.769177 }, "geometry": { "type": "Point", "coordinates": [ 139.769177, 35.673353 ] } },
{ "type": "Feature", "properties": { "name": "スペース・ユイ", "lat": 35.666844, "lon": 139.717167 }, "geometry": { "type": "Point", "coordinates": [ 139.717167, 35.666844 ] } },
{ "type": "Feature", "properties": { "name": "Gallery Ether（ギャラリーイーサ）", "lat": 35.659385, "lon": 139.723801 }, "geometry": { "type": "Point", "coordinates": [ 139.723801, 35.659385 ] } },
{ "type": "Feature", "properties": { "name": "H.P.FRANCE WINDOW GALLERY", "lat": 35.681039, "lon": 139.763771 }, "geometry": { "type": "Point", "coordinates": [ 139.763771, 35.681039 ] } },
{ "type": "Feature", "properties": { "name": "TAKU SOMETANI GALLERY", "lat": 35.673832, "lon": 139.712401 }, "geometry": { "type": "Point", "coordinates": [ 139.712401, 35.673832 ] } },
{ "type": "Feature", "properties": { "name": "長亭GALLERY", "lat": 35.689996, "lon": 139.78377 }, "geometry": { "type": "Point", "coordinates": [ 139.78377, 35.689996 ] } },
{ "type": "Feature", "properties": { "name": "マリーギャラリー", "lat": 35.685982, "lon": 139.790228 }, "geometry": { "type": "Point", "coordinates": [ 139.790228, 35.685982 ] } },
{ "type": "Feature", "properties": { "name": "ファーブル8710", "lat": 35.694504, "lon": 139.773984 }, "geometry": { "type": "Point", "coordinates": [ 139.773984, 35.694504 ] } },
{ "type": "Feature", "properties": { "name": "アート★アイガ", "lat": 35.676328, "lon": 139.777099 }, "geometry": { "type": "Point", "coordinates": [ 139.777099, 35.676328 ] } },
{ "type": "Feature", "properties": { "name": "フィリップス東京", "lat": 35.661974, "lon": 139.731214 }, "geometry": { "type": "Point", "coordinates": [ 139.731214, 35.661974 ] } },
{ "type": "Feature", "properties": { "name": "@btf", "lat": 35.659143, "lon": 139.778857 }, "geometry": { "type": "Point", "coordinates": [ 139.778857, 35.659143 ] } },
{ "type": "Feature", "properties": { "name": "DIESEL ART GALLERY", "lat": 35.66201, "lon": 139.702638 }, "geometry": { "type": "Point", "coordinates": [ 139.702638, 35.66201 ] } },
{ "type": "Feature", "properties": { "name": "アルスギャラリー", "lat": 35.666425, "lon": 139.707193 }, "geometry": { "type": "Point", "coordinates": [ 139.707193, 35.666425 ] } },
{ "type": "Feature", "properties": { "name": "77 Gallery", "lat": 35.670245, "lon": 139.761678 }, "geometry": { "type": "Point", "coordinates": [ 139.761678, 35.670245 ] } },
{ "type": "Feature", "properties": { "name": "コバヤシ画廊", "lat": 35.671412, "lon": 139.767295 }, "geometry": { "type": "Point", "coordinates": [ 139.767295, 35.671412 ] } },
{ "type": "Feature", "properties": { "name": "万画廊", "lat": 35.672302, "lon": 139.771708 }, "geometry": { "type": "Point", "coordinates": [ 139.771708, 35.672302 ] } },
{ "type": "Feature", "properties": { "name": "ギャラリー Jy（ギャラリージー）", "lat": 35.670069, "lon": 139.715677 }, "geometry": { "type": "Point", "coordinates": [ 139.715677, 35.670069 ] } },
{ "type": "Feature", "properties": { "name": "GALLERY YUKI-SIS", "lat": 35.681344, "lon": 139.780172 }, "geometry": { "type": "Point", "coordinates": [ 139.780172, 35.681344 ] } },
{ "type": "Feature", "properties": { "name": "タグチファインアート", "lat": 35.687332, "lon": 139.77701 }, "geometry": { "type": "Point", "coordinates": [ 139.77701, 35.687332 ] } },
{ "type": "Feature", "properties": { "name": "アユミギャラリー", "lat": 35.704085, "lon": 139.734669 }, "geometry": { "type": "Point", "coordinates": [ 139.734669, 35.704085 ] } },
{ "type": "Feature", "properties": { "name": "銀座奥野ビル306号室プロジェクト", "lat": 35.67374, "lon": 139.768782 }, "geometry": { "type": "Point", "coordinates": [ 139.768782, 35.67374 ] } },
{ "type": "Feature", "properties": { "name": "ギャラリー小柳", "lat": 35.674636, "lon": 139.768226 }, "geometry": { "type": "Point", "coordinates": [ 139.768226, 35.674636 ] } },
{ "type": "Feature", "properties": { "name": "YY ARTS", "lat": 35.672052, "lon": 139.770769 }, "geometry": { "type": "Point", "coordinates": [ 139.770769, 35.672052 ] } },
{ "type": "Feature", "properties": { "name": "ア・ライトハウス・カナタ", "lat": 35.659511, "lon": 139.723801 }, "geometry": { "type": "Point", "coordinates": [ 139.723801, 35.659511 ] } },
{ "type": "Feature", "properties": { "name": "思文閣銀座", "lat": 35.671564, "lon": 139.76253 }, "geometry": { "type": "Point", "coordinates": [ 139.76253, 35.671564 ] } },
{ "type": "Feature", "properties": { "name": "ギャラリーニイク", "lat": 35.666973, "lon": 139.711571 }, "geometry": { "type": "Point", "coordinates": [ 139.711571, 35.666973 ] } },
{ "type": "Feature", "properties": { "name": "ギャラリー・アートアンリミテッド", "lat": 35.666777, "lon": 139.727299 }, "geometry": { "type": "Point", "coordinates": [ 139.727299, 35.666777 ] } },
{ "type": "Feature", "properties": { "name": "CSデザインセンター", "lat": 35.69189, "lon": 139.785147 }, "geometry": { "type": "Point", "coordinates": [ 139.785147, 35.69189 ] } },
{ "type": "Feature", "properties": { "name": "MYD Gallery", "lat": 35.648397, "lon": 139.735749 }, "geometry": { "type": "Point", "coordinates": [ 139.735749, 35.648397 ] } },
{ "type": "Feature", "properties": { "name": "SH GALLERY", "lat": 35.669823, "lon": 139.708146 }, "geometry": { "type": "Point", "coordinates": [ 139.708146, 35.669823 ] } },
{ "type": "Feature", "properties": { "name": "オープンギャラリー1・2", "lat": 35.625604, "lon": 139.740131 }, "geometry": { "type": "Point", "coordinates": [ 139.740131, 35.625604 ] } },
{ "type": "Feature", "properties": { "name": "東京ミッドタウン・デザインハブ", "lat": 35.666232, "lon": 139.731305 }, "geometry": { "type": "Point", "coordinates": [ 139.731305, 35.666232 ] } },
{ "type": "Feature", "properties": { "name": "SAI", "lat": 35.662259, "lon": 139.701902 }, "geometry": { "type": "Point", "coordinates": [ 139.701902, 35.662259 ] } },
{ "type": "Feature", "properties": { "name": "KOTARO NUKAGA（六本木）", "lat": 35.661974, "lon": 139.731214 }, "geometry": { "type": "Point", "coordinates": [ 139.731214, 35.661974 ] } },
{ "type": "Feature", "properties": { "name": "AMMON TOKYO", "lat": 35.69538, "lon": 139.75632 }, "geometry": { "type": "Point", "coordinates": [ 139.75632, 35.69538 ] } },
{ "type": "Feature", "properties": { "name": "Popularity GALLERY & STUDIO", "lat": 35.674011, "lon": 139.712767 }, "geometry": { "type": "Point", "coordinates": [ 139.712767, 35.674011 ] } },
{ "type": "Feature", "properties": { "name": "CADAN有楽町", "lat": 35.676715, "lon": 139.761215 }, "geometry": { "type": "Point", "coordinates": [ 139.761215, 35.676715 ] } },
{ "type": "Feature", "properties": { "name": "Yutaka Kikutake Gallery", "lat": 35.661974, "lon": 139.731214 }, "geometry": { "type": "Point", "coordinates": [ 139.731214, 35.661974 ] } },
{ "type": "Feature", "properties": { "name": "Up & Coming", "lat": 35.671538, "lon": 139.714214 }, "geometry": { "type": "Point", "coordinates": [ 139.714214, 35.671538 ] } },
{ "type": "Feature", "properties": { "name": "キヤノンギャラリーS", "lat": 35.625604, "lon": 139.740131 }, "geometry": { "type": "Point", "coordinates": [ 139.740131, 35.625604 ] } },
{ "type": "Feature", "properties": { "name": "ギャルリー東京ユマニテ", "lat": 35.675033, "lon": 139.76986 }, "geometry": { "type": "Point", "coordinates": [ 139.76986, 35.675033 ] } },
{ "type": "Feature", "properties": { "name": "Oギャラリー", "lat": 35.674948, "lon": 139.766426 }, "geometry": { "type": "Point", "coordinates": [ 139.766426, 35.674948 ] } },
{ "type": "Feature", "properties": { "name": "柿傳ギャラリー", "lat": 35.690572, "lon": 139.701309 }, "geometry": { "type": "Point", "coordinates": [ 139.701309, 35.690572 ] } },
{ "type": "Feature", "properties": { "name": "#NAME?", "lat": 35.658464, "lon": 139.702262 }, "geometry": { "type": "Point", "coordinates": [ 139.702262, 35.658464 ] } },
{ "type": "Feature", "properties": { "name": "ギャラリー砂翁 & トモス", "lat": 35.669282, "lon": 139.711542 }, "geometry": { "type": "Point", "coordinates": [ 139.711542, 35.669282 ] } },
{ "type": "Feature", "properties": { "name": "アートフロントギャラリー", "lat": 35.647397, "lon": 139.701468 }, "geometry": { "type": "Point", "coordinates": [ 139.701468, 35.647397 ] } },
{ "type": "Feature", "properties": { "name": "白 marunouchi", "lat": 35.67716, "lon": 139.762252 }, "geometry": { "type": "Point", "coordinates": [ 139.762252, 35.67716 ] } },
{ "type": "Feature", "properties": { "name": "ナカジマアート", "lat": 35.67108, "lon": 139.763421 }, "geometry": { "type": "Point", "coordinates": [ 139.763421, 35.67108 ] } },
{ "type": "Feature", "properties": { "name": "GALLERY KTO 原宿", "lat": 35.669019, "lon": 139.708103 }, "geometry": { "type": "Point", "coordinates": [ 139.708103, 35.669019 ] } },
{ "type": "Feature", "properties": { "name": "デカメロン", "lat": 35.694933, "lon": 139.702416 }, "geometry": { "type": "Point", "coordinates": [ 139.702416, 35.694933 ] } },
{ "type": "Feature", "properties": { "name": "日本橋髙島屋 6F \/ 美術画廊", "lat": 35.68071, "lon": 139.773433 }, "geometry": { "type": "Point", "coordinates": [ 139.773433, 35.68071 ] } },
{ "type": "Feature", "properties": { "name": "SASAI FINE ARTS（ササイファインアーツ）", "lat": 35.672288, "lon": 139.76718 }, "geometry": { "type": "Point", "coordinates": [ 139.76718, 35.672288 ] } },
{ "type": "Feature", "properties": { "name": "ギャラリー檜 B・C", "lat": 35.674934, "lon": 139.770779 }, "geometry": { "type": "Point", "coordinates": [ 139.770779, 35.674934 ] } },
{ "type": "Feature", "properties": { "name": "Room_412", "lat": 35.656001, "lon": 139.701818 }, "geometry": { "type": "Point", "coordinates": [ 139.701818, 35.656001 ] } },
{ "type": "Feature", "properties": { "name": "ギャラリー檜e・F", "lat": 35.674956, "lon": 139.771151 }, "geometry": { "type": "Point", "coordinates": [ 139.771151, 35.674956 ] } },
{ "type": "Feature", "properties": { "name": "SCAI PIRAMIDE", "lat": 35.661974, "lon": 139.731214 }, "geometry": { "type": "Point", "coordinates": [ 139.731214, 35.661974 ] } },
{ "type": "Feature", "properties": { "name": "アニエスベー ギャラリー ブティック（agnès b. galerie boutique）", "lat": 35.662871, "lon": 139.71232 }, "geometry": { "type": "Point", "coordinates": [ 139.71232, 35.662871 ] } },
{ "type": "Feature", "properties": { "name": "MITSUKOSHI CONTEMPORARY GALLERY（三越コンテンポラリーギャラリー）", "lat": 35.685644, "lon": 139.773421 }, "geometry": { "type": "Point", "coordinates": [ 139.773421, 35.685644 ] } },
{ "type": "Feature", "properties": { "name": "MEM", "lat": 35.647448, "lon": 139.714351 }, "geometry": { "type": "Point", "coordinates": [ 139.714351, 35.647448 ] } },
{ "type": "Feature", "properties": { "name": "Gallery mestalla (ギャラリーメスタージャ)", "lat": 35.698041, "lon": 139.755076 }, "geometry": { "type": "Point", "coordinates": [ 139.755076, 35.698041 ] } },
{ "type": "Feature", "properties": { "name": "KANA KAWANISHI GALLERY", "lat": 35.683595, "lon": 139.809009 }, "geometry": { "type": "Point", "coordinates": [ 139.809009, 35.683595 ] } },
{ "type": "Feature", "properties": { "name": "アートスペース羅針盤", "lat": 35.675033, "lon": 139.76986 }, "geometry": { "type": "Point", "coordinates": [ 139.76986, 35.675033 ] } },
{ "type": "Feature", "properties": { "name": "木之庄企畫", "lat": 35.676335, "lon": 139.771708 }, "geometry": { "type": "Point", "coordinates": [ 139.771708, 35.676335 ] } },
{ "type": "Feature", "properties": { "name": "エモン・フォトギャラリー", "lat": 35.653226, "lon": 139.722914 }, "geometry": { "type": "Point", "coordinates": [ 139.722914, 35.653226 ] } },
{ "type": "Feature", "properties": { "name": "ハラジュクゼット", "lat": 35.66708, "lon": 139.706113 }, "geometry": { "type": "Point", "coordinates": [ 139.706113, 35.66708 ] } },
{ "type": "Feature", "properties": { "name": "Wada Fine Arts", "lat": 35.668542, "lon": 139.76155 }, "geometry": { "type": "Point", "coordinates": [ 139.76155, 35.668542 ] } },
{ "type": "Feature", "properties": { "name": "丸の内ギャラリー", "lat": 35.677276, "lon": 139.737454 }, "geometry": { "type": "Point", "coordinates": [ 139.737454, 35.677276 ] } },
{ "type": "Feature", "properties": { "name": "ギャラリー册", "lat": 35.691648, "lon": 139.746762 }, "geometry": { "type": "Point", "coordinates": [ 139.746762, 35.691648 ] } },
{ "type": "Feature", "properties": { "name": "ウナックサロン", "lat": 35.66232, "lon": 139.739412 }, "geometry": { "type": "Point", "coordinates": [ 139.739412, 35.66232 ] } },
{ "type": "Feature", "properties": { "name": "七針", "lat": 35.676259, "lon": 139.780656 }, "geometry": { "type": "Point", "coordinates": [ 139.780656, 35.676259 ] } },
{ "type": "Feature", "properties": { "name": "Shop and Gallery Tray", "lat": 35.679564, "lon": 139.691287 }, "geometry": { "type": "Point", "coordinates": [ 139.691287, 35.679564 ] } },
{ "type": "Feature", "properties": { "name": "ギャラリードゥポワソン", "lat": 35.647943, "lon": 139.718215 }, "geometry": { "type": "Point", "coordinates": [ 139.718215, 35.647943 ] } },
{ "type": "Feature", "properties": { "name": "ポーラ文化研究所 化粧文化ギャラリー", "lat": 35.671854, "lon": 139.722814 }, "geometry": { "type": "Point", "coordinates": [ 139.722814, 35.671854 ] } },
{ "type": "Feature", "properties": { "name": "南天子画廊", "lat": 35.67534, "lon": 139.77018 }, "geometry": { "type": "Point", "coordinates": [ 139.77018, 35.67534 ] } },
{ "type": "Feature", "properties": { "name": "清澄アートギャラリー", "lat": 35.678639, "lon": 139.798799 }, "geometry": { "type": "Point", "coordinates": [ 139.798799, 35.678639 ] } },
{ "type": "Feature", "properties": { "name": "泰明画廊", "lat": 35.670793, "lon": 139.760911 }, "geometry": { "type": "Point", "coordinates": [ 139.760911, 35.670793 ] } },
{ "type": "Feature", "properties": { "name": "画廊くにまつ青山", "lat": 35.67112, "lon": 139.721477 }, "geometry": { "type": "Point", "coordinates": [ 139.721477, 35.67112 ] } },
{ "type": "Feature", "properties": { "name": "MUSEE GINZA_KawasakiBrandDesign", "lat": 35.673068, "lon": 139.770564 }, "geometry": { "type": "Point", "coordinates": [ 139.770564, 35.673068 ] } },
{ "type": "Feature", "properties": { "name": "弘重ギャラリー", "lat": 35.643811, "lon": 139.709177 }, "geometry": { "type": "Point", "coordinates": [ 139.709177, 35.643811 ] } },
{ "type": "Feature", "properties": { "name": "ギャラリーオリム", "lat": 35.671743, "lon": 139.772686 }, "geometry": { "type": "Point", "coordinates": [ 139.772686, 35.671743 ] } },
{ "type": "Feature", "properties": { "name": "room021 by ozi design works inc.", "lat": 35.642135, "lon": 139.734855 }, "geometry": { "type": "Point", "coordinates": [ 139.734855, 35.642135 ] } },
{ "type": "Feature", "properties": { "name": "加島美術", "lat": 35.675758, "lon": 139.768116 }, "geometry": { "type": "Point", "coordinates": [ 139.768116, 35.675758 ] } },
{ "type": "Feature", "properties": { "name": "青木画廊", "lat": 35.672573, "lon": 139.766117 }, "geometry": { "type": "Point", "coordinates": [ 139.766117, 35.672573 ] } },
{ "type": "Feature", "properties": { "name": "Kaikai Kiki Gallery", "lat": 35.65391, "lon": 139.727163 }, "geometry": { "type": "Point", "coordinates": [ 139.727163, 35.65391 ] } },
{ "type": "Feature", "properties": { "name": "デザインフェスタギャラリー原宿", "lat": 35.670601, "lon": 139.70824 }, "geometry": { "type": "Point", "coordinates": [ 139.70824, 35.670601 ] } },
{ "type": "Feature", "properties": { "name": "LOV-LAB (LOVELIES LABORATORY)", "lat": 35.668642, "lon": 139.706533 }, "geometry": { "type": "Point", "coordinates": [ 139.706533, 35.668642 ] } },
{ "type": "Feature", "properties": { "name": "ベイスギャラリー", "lat": 35.681344, "lon": 139.780172 }, "geometry": { "type": "Point", "coordinates": [ 139.780172, 35.681344 ] } },
{ "type": "Feature", "properties": { "name": "エプサイトギャラリー（epSITE）", "lat": 35.676275, "lon": 139.76221 }, "geometry": { "type": "Point", "coordinates": [ 139.76221, 35.676275 ] } },
{ "type": "Feature", "properties": { "name": "アンドーギャラリー", "lat": 35.677557, "lon": 139.80566 }, "geometry": { "type": "Point", "coordinates": [ 139.80566, 35.677557 ] } },
{ "type": "Feature", "properties": { "name": "GALLERY SIDE 2", "lat": 35.66583, "lon": 139.727603 }, "geometry": { "type": "Point", "coordinates": [ 139.727603, 35.66583 ] } },
{ "type": "Feature", "properties": { "name": "シュウゴアーツ", "lat": 35.661539, "lon": 139.731043 }, "geometry": { "type": "Point", "coordinates": [ 139.731043, 35.661539 ] } },
{ "type": "Feature", "properties": { "name": "オオタファインアーツ", "lat": 35.661974, "lon": 139.731214 }, "geometry": { "type": "Point", "coordinates": [ 139.731214, 35.661974 ] } },
{ "type": "Feature", "properties": { "name": "Gallery 5610", "lat": 35.663341, "lon": 139.71219 }, "geometry": { "type": "Point", "coordinates": [ 139.71219, 35.663341 ] } },
{ "type": "Feature", "properties": { "name": "ヴォイドプラス", "lat": 35.664401, "lon": 139.714642 }, "geometry": { "type": "Point", "coordinates": [ 139.714642, 35.664401 ] } },
{ "type": "Feature", "properties": { "name": "バンビナート・ギャラリー", "lat": 35.694758, "lon": 139.779316 }, "geometry": { "type": "Point", "coordinates": [ 139.779316, 35.694758 ] } },
{ "type": "Feature", "properties": { "name": "ロンドンギャラリー", "lat": 35.646807, "lon": 139.729619 }, "geometry": { "type": "Point", "coordinates": [ 139.729619, 35.646807 ] } },
{ "type": "Feature", "properties": { "name": "プリントギャラリー", "lat": 35.689918, "lon": 139.720519 }, "geometry": { "type": "Point", "coordinates": [ 139.720519, 35.689918 ] } },
{ "type": "Feature", "properties": { "name": "カナダ大使館高円宮記念ギャラリー", "lat": 35.673399, "lon": 139.728297 }, "geometry": { "type": "Point", "coordinates": [ 139.728297, 35.673399 ] } },
{ "type": "Feature", "properties": { "name": "巷房 (2)", "lat": 35.67374, "lon": 139.768782 }, "geometry": { "type": "Point", "coordinates": [ 139.768782, 35.67374 ] } },
{ "type": "Feature", "properties": { "name": "西村画廊", "lat": 35.680889, "lon": 139.774728 }, "geometry": { "type": "Point", "coordinates": [ 139.774728, 35.680889 ] } },
{ "type": "Feature", "properties": { "name": "KULA PHOTO GALLERY", "lat": 35.691448, "lon": 139.708709 }, "geometry": { "type": "Point", "coordinates": [ 139.708709, 35.691448 ] } },
{ "type": "Feature", "properties": { "name": "UNギャラリー", "lat": 35.662425, "lon": 139.708263 }, "geometry": { "type": "Point", "coordinates": [ 139.708263, 35.662425 ] } },
{ "type": "Feature", "properties": { "name": "ギャラリー ＋ クック・ラボ como", "lat": 35.665992, "lon": 139.719342 }, "geometry": { "type": "Point", "coordinates": [ 139.719342, 35.665992 ] } },
{ "type": "Feature", "properties": { "name": "Motus Fort", "lat": 35.693614, "lon": 139.780355 }, "geometry": { "type": "Point", "coordinates": [ 139.780355, 35.693614 ] } },
{ "type": "Feature", "properties": { "name": "YOKOTA TOKYO", "lat": 35.653062, "lon": 139.760654 }, "geometry": { "type": "Point", "coordinates": [ 139.760654, 35.653062 ] } },
{ "type": "Feature", "properties": { "name": "東京妙案GALLERY", "lat": 35.636568, "lon": 139.728372 }, "geometry": { "type": "Point", "coordinates": [ 139.728372, 35.636568 ] } },
{ "type": "Feature", "properties": { "name": "エスパス ルイ・ヴィトン東京", "lat": 35.666507, "lon": 139.709056 }, "geometry": { "type": "Point", "coordinates": [ 139.709056, 35.666507 ] } },
{ "type": "Feature", "properties": { "name": "ギャラリー広田美術", "lat": 35.670453, "lon": 139.760477 }, "geometry": { "type": "Point", "coordinates": [ 139.760477, 35.670453 ] } },
{ "type": "Feature", "properties": { "name": "ギャラリー同潤会", "lat": 35.667287, "lon": 139.708616 }, "geometry": { "type": "Point", "coordinates": [ 139.708616, 35.667287 ] } },
{ "type": "Feature", "properties": { "name": "シロタ画廊", "lat": 35.668427, "lon": 139.763221 }, "geometry": { "type": "Point", "coordinates": [ 139.763221, 35.668427 ] } },
{ "type": "Feature", "properties": { "name": "ギャラリー キドプレス", "lat": 35.691896, "lon": 139.741792 }, "geometry": { "type": "Point", "coordinates": [ 139.741792, 35.691896 ] } },
{ "type": "Feature", "properties": { "name": "Takuro Someya Contemporary Art", "lat": 35.619175, "lon": 139.746603 }, "geometry": { "type": "Point", "coordinates": [ 139.746603, 35.619175 ] } },
{ "type": "Feature", "properties": { "name": "東京都渋谷公園通りギャラリー", "lat": 35.662524, "lon": 139.699627 }, "geometry": { "type": "Point", "coordinates": [ 139.699627, 35.662524 ] } },
{ "type": "Feature", "properties": { "name": "KANA KAWANISHI PHOTOGRAPHY", "lat": 35.662234, "lon": 139.721198 }, "geometry": { "type": "Point", "coordinates": [ 139.721198, 35.662234 ] } },
{ "type": "Feature", "properties": { "name": "HAGIWARA PROJECTS（ハギワラプロジェクツ）", "lat": 35.685112, "lon": 139.795682 }, "geometry": { "type": "Point", "coordinates": [ 139.795682, 35.685112 ] } },
{ "type": "Feature", "properties": { "name": "LIBRAIRIE6 \/ シス書店", "lat": 35.645918, "lon": 139.710065 }, "geometry": { "type": "Point", "coordinates": [ 139.710065, 35.645918 ] } },
{ "type": "Feature", "properties": { "name": "THE ANZAI GALLERY", "lat": 35.619781, "lon": 139.74632 }, "geometry": { "type": "Point", "coordinates": [ 139.74632, 35.619781 ] } },
{ "type": "Feature", "properties": { "name": "ピンポイントギャラリー", "lat": 35.663296, "lon": 139.709493 }, "geometry": { "type": "Point", "coordinates": [ 139.709493, 35.663296 ] } },
{ "type": "Feature", "properties": { "name": "Tokyo Institute of Photography", "lat": 35.675226, "lon": 139.770385 }, "geometry": { "type": "Point", "coordinates": [ 139.770385, 35.675226 ] } },
{ "type": "Feature", "properties": { "name": "art gallery closet", "lat": 35.661638, "lon": 139.722155 }, "geometry": { "type": "Point", "coordinates": [ 139.722155, 35.661638 ] } },
{ "type": "Feature", "properties": { "name": "シルクランド画廊", "lat": 35.670726, "lon": 139.761644 }, "geometry": { "type": "Point", "coordinates": [ 139.761644, 35.670726 ] } },
{ "type": "Feature", "properties": { "name": "gallery UG Tennoz", "lat": 35.619781, "lon": 139.74632 }, "geometry": { "type": "Point", "coordinates": [ 139.74632, 35.619781 ] } },
{ "type": "Feature", "properties": { "name": "BaBaBa", "lat": 35.716906, "lon": 139.701463 }, "geometry": { "type": "Point", "coordinates": [ 139.701463, 35.716906 ] } },
{ "type": "Feature", "properties": { "name": "Egen Gallery", "lat": 35.66008, "lon": 139.737576 }, "geometry": { "type": "Point", "coordinates": [ 139.737576, 35.66008 ] } },
{ "type": "Feature", "properties": { "name": "不忍画廊", "lat": 35.68022, "lon": 139.773495 }, "geometry": { "type": "Point", "coordinates": [ 139.773495, 35.68022 ] } },
{ "type": "Feature", "properties": { "name": "ユミコチバアソシエイツ", "lat": 35.661407, "lon": 139.730038 }, "geometry": { "type": "Point", "coordinates": [ 139.730038, 35.661407 ] } },
{ "type": "Feature", "properties": { "name": "hiromiyoshii roppongi", "lat": 35.661699, "lon": 139.732995 }, "geometry": { "type": "Point", "coordinates": [ 139.732995, 35.661699 ] } },
{ "type": "Feature", "properties": { "name": "BLOCK HOUSE", "lat": 35.666175, "lon": 139.704407 }, "geometry": { "type": "Point", "coordinates": [ 139.704407, 35.666175 ] } },
{ "type": "Feature", "properties": { "name": "十一月画廊", "lat": 35.668062, "lon": 139.763141 }, "geometry": { "type": "Point", "coordinates": [ 139.763141, 35.668062 ] } },
{ "type": "Feature", "properties": { "name": "IG Photo Gallery", "lat": 35.670541, "lon": 139.769371 }, "geometry": { "type": "Point", "coordinates": [ 139.769371, 35.670541 ] } },
{ "type": "Feature", "properties": { "name": "ギャルリ・シェーヌ", "lat": 35.669122, "lon": 139.765228 }, "geometry": { "type": "Point", "coordinates": [ 139.765228, 35.669122 ] } },
{ "type": "Feature", "properties": { "name": "アート・ラボ・トーキョー", "lat": 35.671647, "lon": 139.717098 }, "geometry": { "type": "Point", "coordinates": [ 139.717098, 35.671647 ] } },
{ "type": "Feature", "properties": { "name": "Gallery MUMON", "lat": 35.669665, "lon": 139.769112 }, "geometry": { "type": "Point", "coordinates": [ 139.769112, 35.669665 ] } },
{ "type": "Feature", "properties": { "name": "Alt_Medium", "lat": 35.716769, "lon": 139.700122 }, "geometry": { "type": "Point", "coordinates": [ 139.700122, 35.716769 ] } },
{ "type": "Feature", "properties": { "name": "biscuit gallery", "lat": 35.659451, "lon": 139.694152 }, "geometry": { "type": "Point", "coordinates": [ 139.694152, 35.659451 ] } },
{ "type": "Feature", "properties": { "name": "America-Bashi Gallery", "lat": 35.643325, "lon": 139.711492 }, "geometry": { "type": "Point", "coordinates": [ 139.711492, 35.643325 ] } },
{ "type": "Feature", "properties": { "name": "資生堂ギャラリー", "lat": 35.668557, "lon": 139.761894 }, "geometry": { "type": "Point", "coordinates": [ 139.761894, 35.668557 ] } },
{ "type": "Feature", "properties": { "name": "ギャラリー椿 \/ GT2", "lat": 35.675492, "lon": 139.768433 }, "geometry": { "type": "Point", "coordinates": [ 139.768433, 35.675492 ] } },
{ "type": "Feature", "properties": { "name": "Place M", "lat": 35.687756, "lon": 139.712675 }, "geometry": { "type": "Point", "coordinates": [ 139.712675, 35.687756 ] } },
{ "type": "Feature", "properties": { "name": "サードディストリクトギャラリー", "lat": 35.690644, "lon": 139.706684 }, "geometry": { "type": "Point", "coordinates": [ 139.706684, 35.690644 ] } },
{ "type": "Feature", "properties": { "name": "Gallery A4", "lat": 35.66815, "lon": 139.819967 }, "geometry": { "type": "Point", "coordinates": [ 139.819967, 35.66815 ] } },
{ "type": "Feature", "properties": { "name": "ギャラリーペロタン東京", "lat": 35.661974, "lon": 139.731214 }, "geometry": { "type": "Point", "coordinates": [ 139.731214, 35.661974 ] } },
{ "type": "Feature", "properties": { "name": "PUBLICIS WALL GALLERY", "lat": 35.632686, "lon": 139.715751 }, "geometry": { "type": "Point", "coordinates": [ 139.715751, 35.632686 ] } },