{
"type": "FeatureCollection",
"crs": { "type": "name", "properties": { "name": "urn:ogc:def:crs:OGC:1.3:CRS84" } },
"features": [
{ "type": "Feature", "properties": { "name": "ZEROTOKYO", "lat": 35.6957513, "lon": 139.7005894 }, "geometry": { "type": "Point", "coordinates": [ 139.700589400000013, 35.6957513 ] } },
{ "type": "Feature", "properties": { "name": "RAISE", "lat": 35.6722448, "lon": 139.7624127 }, "geometry": { "type": "Point", "coordinates": [ 139.7624127, 35.6722448 ] } },
{ "type": "Feature", "properties": { "name": "unravel tokyo", "lat": 35.6642349, "lon": 139.7315452 }, "geometry": { "type": "Point", "coordinates": [ 139.7315452, 35.6642349 ] } },
{ "type": "Feature", "properties": { "name": "BRAND SHIBUYA", "lat": 35.6601085, "lon": 139.6961331 }, "geometry": { "type": "Point", "coordinates": [ 139.6961331, 35.6601085 ] } },
{ "type": "Feature", "properties": { "name": "Oriental Diner IGAO", "lat": 35.6482274, "lon": 139.7153718 }, "geometry": { "type": "Point", "coordinates": [ 139.715371800000014, 35.6482274 ] } },
{ "type": "Feature", "properties": { "name": "Music Fashion Bar RUN", "lat": 35.6947124, "lon": 139.703004 }, "geometry": { "type": "Point", "coordinates": [ 139.703004, 35.6947124 ] } },
{ "type": "Feature", "properties": { "name": "LITTS BAR & GRILL SHIBUYA", "lat": 35.6608386, "lon": 139.6970804 }, "geometry": { "type": "Point", "coordinates": [ 139.6970804, 35.6608386 ] } },
{ "type": "Feature", "properties": { "name": "BLACK BOX", "lat": 35.6637445, "lon": 139.7023766 }, "geometry": { "type": "Point", "coordinates": [ 139.7023766, 35.6637445 ] } },
{ "type": "Feature", "properties": { "name": "CLUB NEVERLAND", "lat": 35.6589959, "lon": 139.6955503 }, "geometry": { "type": "Point", "coordinates": [ 139.6955503, 35.6589959 ] } },
{ "type": "Feature", "properties": { "name": "TK NIGHTCLUB", "lat": 35.6611121, "lon": 139.6985442 }, "geometry": { "type": "Point", "coordinates": [ 139.698544199999986, 35.6611121 ] } },
{ "type": "Feature", "properties": { "name": "ZEUS GARDEN", "lat": 35.6633285, "lon": 139.7341877 }, "geometry": { "type": "Point", "coordinates": [ 139.7341877, 35.6633285 ] } },
{ "type": "Feature", "properties": { "name": "1OAK TOKYO", "lat": 35.6569619, "lon": 139.7353052 }, "geometry": { "type": "Point", "coordinates": [ 139.7353052, 35.6569619 ] } },
{ "type": "Feature", "properties": { "name": "Violetta", "lat": 35.6576933, "lon": 139.7078411 }, "geometry": { "type": "Point", "coordinates": [ 139.7078411, 35.6576933 ] } },
{ "type": "Feature", "properties": { "name": "or", "lat": 35.6622585, "lon": 139.7019016 }, "geometry": { "type": "Point", "coordinates": [ 139.701901600000014, 35.6622585 ] } },
{ "type": "Feature", "properties": { "name": "BANK30", "lat": 35.6567464, "lon": 139.7620412 }, "geometry": { "type": "Point", "coordinates": [ 139.7620412, 35.6567464 ] } },
{ "type": "Feature", "properties": { "name": "Rockin Cafe Shibuya GABIGABI", "lat": 35.6575064, "lon": 139.6986261 }, "geometry": { "type": "Point", "coordinates": [ 139.698626100000013, 35.6575064 ] } },
{ "type": "Feature", "properties": { "name": "Soul Dining Bar 歌舞伎町 鶴千", "lat": 35.6941751, "lon": 139.7018717 }, "geometry": { "type": "Point", "coordinates": [ 139.7018717, 35.6941751 ] } },
{ "type": "Feature", "properties": { "name": "Woodstock", "lat": 35.6564106, "lon": 139.7010796 }, "geometry": { "type": "Point", "coordinates": [ 139.701079600000014, 35.6564106 ] } },
{ "type": "Feature", "properties": { "name": "INC COCKTAILS", "lat": 35.6610474, "lon": 139.7060359 }, "geometry": { "type": "Point", "coordinates": [ 139.706035899999989, 35.6610474 ] } },
{ "type": "Feature", "properties": { "name": "QUATTRO LABO", "lat": 35.6620484, "lon": 139.6987767 }, "geometry": { "type": "Point", "coordinates": [ 139.6987767, 35.6620484 ] } },
{ "type": "Feature", "properties": { "name": "Deus Ex Machina", "lat": 35.6718083, "lon": 139.7097062 }, "geometry": { "type": "Point", "coordinates": [ 139.7097062, 35.6718083 ] } },
{ "type": "Feature", "properties": { "name": "DJ BAR Heart", "lat": 35.6917447, "lon": 139.707393 }, "geometry": { "type": "Point", "coordinates": [ 139.707393, 35.6917447 ] } },
{ "type": "Feature", "properties": { "name": "PULPLISM", "lat": 35.6603701, "lon": 139.7249753 }, "geometry": { "type": "Point", "coordinates": [ 139.724975300000011, 35.6603701 ] } },
{ "type": "Feature", "properties": { "name": "CE LA VI TOKYO", "lat": 35.6575904, "lon": 139.7001518 }, "geometry": { "type": "Point", "coordinates": [ 139.700151799999986, 35.6575904 ] } },
{ "type": "Feature", "properties": { "name": "THE PUBLIC SIX", "lat": 35.6597956, "lon": 139.7322939 }, "geometry": { "type": "Point", "coordinates": [ 139.7322939, 35.6597956 ] } },
{ "type": "Feature", "properties": { "name": "mint", "lat": 35.6626778, "lon": 139.7339961 }, "geometry": { "type": "Point", "coordinates": [ 139.733996100000013, 35.6626778 ] } },
{ "type": "Feature", "properties": { "name": "club GHQ", "lat": 35.6690711, "lon": 139.7585754 }, "geometry": { "type": "Point", "coordinates": [ 139.758575400000012, 35.6690711 ] } },
{ "type": "Feature", "properties": { "name": "Veats Shibuya", "lat": 35.6607552, "lon": 139.6974298 }, "geometry": { "type": "Point", "coordinates": [ 139.6974298, 35.6607552 ] } },
{ "type": "Feature", "properties": { "name": "MAG7 (MAGNET by SHIBUYA109)", "lat": 35.659849, "lon": 139.700863 }, "geometry": { "type": "Point", "coordinates": [ 139.700863, 35.659849 ] } },
{ "type": "Feature", "properties": { "name": "Trip Bar", "lat": 35.6613097, "lon": 139.7233922 }, "geometry": { "type": "Point", "coordinates": [ 139.7233922, 35.6613097 ] } },
{ "type": "Feature", "properties": { "name": "CYGNUS", "lat": 35.6685128, "lon": 139.7603962 }, "geometry": { "type": "Point", "coordinates": [ 139.7603962, 35.6685128 ] } },
{ "type": "Feature", "properties": { "name": "JP Bar", "lat": 35.6622324, "lon": 139.7351655 }, "geometry": { "type": "Point", "coordinates": [ 139.7351655, 35.6622324 ] } },
{ "type": "Feature", "properties": { "name": "(marunouchi)HOUSE", "lat": 35.6825868, "lon": 139.7644093 }, "geometry": { "type": "Point", "coordinates": [ 139.764409300000011, 35.6825868 ] } },
{ "type": "Feature", "properties": { "name": "Good Wood Terrace", "lat": 35.6590828, "lon": 139.6963802 }, "geometry": { "type": "Point", "coordinates": [ 139.6963802, 35.6590828 ] } },
{ "type": "Feature", "properties": { "name": "Mikkeller Tokyo", "lat": 35.6594638, "lon": 139.6960234 }, "geometry": { "type": "Point", "coordinates": [ 139.6960234, 35.6594638 ] } },
{ "type": "Feature", "properties": { "name": "Test Flight", "lat": 35.6576933, "lon": 139.7078411 }, "geometry": { "type": "Point", "coordinates": [ 139.7078411, 35.6576933 ] } },
{ "type": "Feature", "properties": { "name": "TABLE 9 TOKYO (NINE BAR)", "lat": 35.6276709, "lon": 139.73619 }, "geometry": { "type": "Point", "coordinates": [ 139.73619, 35.6276709 ] } },
{ "type": "Feature", "properties": { "name": "VRAIMENT", "lat": 35.6272304, "lon": 139.7256527 }, "geometry": { "type": "Point", "coordinates": [ 139.725652700000012, 35.6272304 ] } },
{ "type": "Feature", "properties": { "name": "ZEN TOKYO", "lat": 35.6633285, "lon": 139.7341877 }, "geometry": { "type": "Point", "coordinates": [ 139.7341877, 35.6633285 ] } },
{ "type": "Feature", "properties": { "name": "MUSIC BAR L.G", "lat": 35.6945651, "lon": 139.7026151 }, "geometry": { "type": "Point", "coordinates": [ 139.7026151, 35.6945651 ] } },
{ "type": "Feature", "properties": { "name": "RECORD BAR analog", "lat": 35.6595673, "lon": 139.6959064 }, "geometry": { "type": "Point", "coordinates": [ 139.695906400000013, 35.6595673 ] } },
{ "type": "Feature", "properties": { "name": "B1FLAT", "lat": 35.6470631, "lon": 139.7024623 }, "geometry": { "type": "Point", "coordinates": [ 139.7024623, 35.6470631 ] } },
{ "type": "Feature", "properties": { "name": "BLOODY ANGLE", "lat": 35.6605506, "lon": 139.7029243 }, "geometry": { "type": "Point", "coordinates": [ 139.7029243, 35.6605506 ] } },
{ "type": "Feature", "properties": { "name": "Yellow Blank Market (YBM)", "lat": 35.6595679, "lon": 139.697852 }, "geometry": { "type": "Point", "coordinates": [ 139.697852, 35.6595679 ] } },
{ "type": "Feature", "properties": { "name": "翠月", "lat": 35.656595, "lon": 139.6957 }, "geometry": { "type": "Point", "coordinates": [ 139.6957, 35.656595 ] } },
{ "type": "Feature", "properties": { "name": "DRAGON MEN", "lat": 35.6902909, "lon": 139.7072589 }, "geometry": { "type": "Point", "coordinates": [ 139.7072589, 35.6902909 ] } },
{ "type": "Feature", "properties": { "name": "TSUTAYA O-Crest", "lat": 35.6587215, "lon": 139.6956111 }, "geometry": { "type": "Point", "coordinates": [ 139.6956111, 35.6587215 ] } },
{ "type": "Feature", "properties": { "name": "CLUB VIZEL", "lat": 35.6617771, "lon": 139.6980776 }, "geometry": { "type": "Point", "coordinates": [ 139.6980776, 35.6617771 ] } },
{ "type": "Feature", "properties": { "name": "TSUTAYA O-nest", "lat": 35.6584968, "lon": 139.6952872 }, "geometry": { "type": "Point", "coordinates": [ 139.6952872, 35.6584968 ] } },
{ "type": "Feature", "properties": { "name": "Seven Tokyo", "lat": 35.6625667, "lon": 139.734926 }, "geometry": { "type": "Point", "coordinates": [ 139.734926, 35.6625667 ] } },
{ "type": "Feature", "properties": { "name": "ORIZURU", "lat": 35.6948485, "lon": 139.7041011 }, "geometry": { "type": "Point", "coordinates": [ 139.7041011, 35.6948485 ] } },
{ "type": "Feature", "properties": { "name": "EAGLE TOKYO BLUE", "lat": 35.690086, "lon": 139.7077713 }, "geometry": { "type": "Point", "coordinates": [ 139.7077713, 35.690086 ] } },
{ "type": "Feature", "properties": { "name": "THE WU DJ's bar", "lat": 35.6587521, "lon": 139.6966616 }, "geometry": { "type": "Point", "coordinates": [ 139.6966616, 35.6587521 ] } },
{ "type": "Feature", "properties": { "name": "TRUNK (LOUNGE)", "lat": 35.664294, "lon": 139.7039906 }, "geometry": { "type": "Point", "coordinates": [ 139.7039906, 35.664294 ] } },
{ "type": "Feature", "properties": { "name": "What the Dickens", "lat": 35.6476251, "lon": 139.7079309 }, "geometry": { "type": "Point", "coordinates": [ 139.7079309, 35.6476251 ] } },
{ "type": "Feature", "properties": { "name": "TOKYO R Bar&Cafe", "lat": 35.6637188, "lon": 139.7314324 }, "geometry": { "type": "Point", "coordinates": [ 139.731432399999989, 35.6637188 ] } },
{ "type": "Feature", "properties": { "name": "Bar Luther", "lat": 35.6762538, "lon": 139.736323 }, "geometry": { "type": "Point", "coordinates": [ 139.736323, 35.6762538 ] } },
{ "type": "Feature", "properties": { "name": "Music Bar Boogie Back", "lat": 35.6566374, "lon": 139.6974916 }, "geometry": { "type": "Point", "coordinates": [ 139.6974916, 35.6566374 ] } },
{ "type": "Feature", "properties": { "name": "東間屋 (AZUMAYA)", "lat": 35.6587215, "lon": 139.6956111 }, "geometry": { "type": "Point", "coordinates": [ 139.6956111, 35.6587215 ] } },
{ "type": "Feature", "properties": { "name": "HONEY BEE", "lat": 35.6957862, "lon": 139.7032234 }, "geometry": { "type": "Point", "coordinates": [ 139.703223400000013, 35.6957862 ] } },
{ "type": "Feature", "properties": { "name": "Padi’s Tokyo", "lat": 35.6627685, "lon": 139.7336878 }, "geometry": { "type": "Point", "coordinates": [ 139.733687800000013, 35.6627685 ] } },
{ "type": "Feature", "properties": { "name": "Motown House", "lat": 35.663129, "lon": 139.7330944 }, "geometry": { "type": "Point", "coordinates": [ 139.7330944, 35.663129 ] } },
{ "type": "Feature", "properties": { "name": "Bar BaoBab", "lat": 35.6913871, "lon": 139.7063323 }, "geometry": { "type": "Point", "coordinates": [ 139.706332300000014, 35.6913871 ] } },
{ "type": "Feature", "properties": { "name": "SEL OCTAGON TOKYO", "lat": 35.6648842, "lon": 139.7297933 }, "geometry": { "type": "Point", "coordinates": [ 139.729793300000011, 35.6648842 ] } },
{ "type": "Feature", "properties": { "name": "Soul Stream", "lat": 35.6912999, "lon": 139.7065545 }, "geometry": { "type": "Point", "coordinates": [ 139.70655450000001, 35.6912999 ] } },
{ "type": "Feature", "properties": { "name": "CLUB23 TOKYO", "lat": 35.6943321, "lon": 139.7026151 }, "geometry": { "type": "Point", "coordinates": [ 139.7026151, 35.6943321 ] } },
{ "type": "Feature", "properties": { "name": "CURTIS", "lat": 35.6908602, "lon": 139.7065196 }, "geometry": { "type": "Point", "coordinates": [ 139.7065196, 35.6908602 ] } },
{ "type": "Feature", "properties": { "name": "BAR 3R", "lat": 35.6897693, "lon": 139.7063957 }, "geometry": { "type": "Point", "coordinates": [ 139.7063957, 35.6897693 ] } },
{ "type": "Feature", "properties": { "name": "F.Y.B TOKYO", "lat": 35.6616341, "lon": 139.7352446 }, "geometry": { "type": "Point", "coordinates": [ 139.735244599999987, 35.6616341 ] } },
{ "type": "Feature", "properties": { "name": "SONIDO’S BAR", "lat": 35.662463, "lon": 139.7348462 }, "geometry": { "type": "Point", "coordinates": [ 139.7348462, 35.662463 ] } },
{ "type": "Feature", "properties": { "name": "BASECAMP", "lat": 35.6601544, "lon": 139.7277748 }, "geometry": { "type": "Point", "coordinates": [ 139.7277748, 35.6601544 ] } },
{ "type": "Feature", "properties": { "name": "CASABLANCA ex. CROSSOVER", "lat": 35.6942082, "lon": 139.702788 }, "geometry": { "type": "Point", "coordinates": [ 139.702788, 35.6942082 ] } },
{ "type": "Feature", "properties": { "name": "Debris", "lat": 35.6509045, "lon": 139.7037368 }, "geometry": { "type": "Point", "coordinates": [ 139.7037368, 35.6509045 ] } },
{ "type": "Feature", "properties": { "name": "Sankeys PENTHOUSE", "lat": 35.6671291, "lon": 139.7038071 }, "geometry": { "type": "Point", "coordinates": [ 139.7038071, 35.6671291 ] } },
{ "type": "Feature", "properties": { "name": "URACUE", "lat": 35.6939874, "lon": 139.7049687 }, "geometry": { "type": "Point", "coordinates": [ 139.7049687, 35.6939874 ] } },
{ "type": "Feature", "properties": { "name": "PLUSTOKYO", "lat": 35.6743274, "lon": 139.7685683 }, "geometry": { "type": "Point", "coordinates": [ 139.7685683, 35.6743274 ] } },
{ "type": "Feature", "properties": { "name": "Bar&Dining TORRENT", "lat": 35.6571635, "lon": 139.7032207 }, "geometry": { "type": "Point", "coordinates": [ 139.7032207, 35.6571635 ] } },
{ "type": "Feature", "properties": { "name": "バー&ラウンジ ZATTA", "lat": 35.6925835, "lon": 139.6911889 }, "geometry": { "type": "Point", "coordinates": [ 139.691188899999986, 35.6925835 ] } },
{ "type": "Feature", "properties": { "name": "TACT", "lat": 35.669966, "lon": 139.7631419 }, "geometry": { "type": "Point", "coordinates": [ 139.7631419, 35.669966 ] } },
{ "type": "Feature", "properties": { "name": "DJ&VJ Bar A-UN", "lat": 35.6907065, "lon": 139.7095167 }, "geometry": { "type": "Point", "coordinates": [ 139.7095167, 35.6907065 ] } },
{ "type": "Feature", "properties": { "name": "Spincoaster Music Bar", "lat": 35.6852642, "lon": 139.6992942 }, "geometry": { "type": "Point", "coordinates": [ 139.6992942, 35.6852642 ] } },
{ "type": "Feature", "properties": { "name": "Studio Freedom", "lat": 35.6599995, "lon": 139.6959643 }, "geometry": { "type": "Point", "coordinates": [ 139.695964300000014, 35.6599995 ] } },
{ "type": "Feature", "properties": { "name": "POP INN", "lat": 35.6722965, "lon": 139.7646847 }, "geometry": { "type": "Point", "coordinates": [ 139.7646847, 35.6722965 ] } },
{ "type": "Feature", "properties": { "name": "NEW SAZAE", "lat": 35.6909967, "lon": 139.7080306 }, "geometry": { "type": "Point", "coordinates": [ 139.7080306, 35.6909967 ] } },
{ "type": "Feature", "properties": { "name": "WARP SHINJUKU", "lat": 35.6952253, "lon": 139.701307 }, "geometry": { "type": "Point", "coordinates": [ 139.701307, 35.6952253 ] } },
{ "type": "Feature", "properties": { "name": "RiNen", "lat": 35.705877, "lon": 139.721986 }, "geometry": { "type": "Point", "coordinates": [ 139.721986, 35.705877 ] } },
{ "type": "Feature", "properties": { "name": "koe space (hotel koe tokyo)", "lat": 35.6625331, "lon": 139.6989865 }, "geometry": { "type": "Point", "coordinates": [ 139.6989865, 35.6625331 ] } },
{ "type": "Feature", "properties": { "name": "VABEL LOUNGE (Tower of Vabel)", "lat": 35.6640238, "lon": 139.7305105 }, "geometry": { "type": "Point", "coordinates": [ 139.7305105, 35.6640238 ] } },
{ "type": "Feature", "properties": { "name": "Rock Inn DICE", "lat": 35.6987648, "lon": 139.6971901 }, "geometry": { "type": "Point", "coordinates": [ 139.6971901, 35.6987648 ] } },
{ "type": "Feature", "properties": { "name": "晴れたら空に豆まいて", "lat": 35.648076, "lon": 139.702266 }, "geometry": { "type": "Point", "coordinates": [ 139.702266, 35.648076 ] } },
{ "type": "Feature", "properties": { "name": "atomage", "lat": 35.665076, "lon": 139.7326313 }, "geometry": { "type": "Point", "coordinates": [ 139.7326313, 35.665076 ] } },
{ "type": "Feature", "properties": { "name": "Club Malcolm", "lat": 35.6608944, "lon": 139.6979788 }, "geometry": { "type": "Point", "coordinates": [ 139.697978799999987, 35.6608944 ] } },
{ "type": "Feature", "properties": { "name": "JUMANJI 33", "lat": 35.6613934, "lon": 139.6984167 }, "geometry": { "type": "Point", "coordinates": [ 139.6984167, 35.6613934 ] } },
{ "type": "Feature", "properties": { "name": "ISOLDE", "lat": 35.6920093, "lon": 139.773375 }, "geometry": { "type": "Point", "coordinates": [ 139.773375, 35.6920093 ] } },
{ "type": "Feature", "properties": { "name": "RED BAR", "lat": 35.6586497, "lon": 139.709214 }, "geometry": { "type": "Point", "coordinates": [ 139.709214, 35.6586497 ] } },
{ "type": "Feature", "properties": { "name": "dot & blue", "lat": 35.6698229, "lon": 139.7330499 }, "geometry": { "type": "Point", "coordinates": [ 139.7330499, 35.6698229 ] } },
{ "type": "Feature", "properties": { "name": "R&B cafe Boo", "lat": 35.6649259, "lon": 139.7278073 }, "geometry": { "type": "Point", "coordinates": [ 139.7278073, 35.6649259 ] } },
{ "type": "Feature", "properties": { "name": "Bar SUBTERRANEANS", "lat": 35.6649344, "lon": 139.7015669 }, "geometry": { "type": "Point", "coordinates": [ 139.701566899999989, 35.6649344 ] } },
{ "type": "Feature", "properties": { "name": "The Great Journey", "lat": 35.6764123, "lon": 139.7374107 }, "geometry": { "type": "Point", "coordinates": [ 139.7374107, 35.6764123 ] } },
{ "type": "Feature", "properties": { "name": "Funky D", "lat": 35.6646414, "lon": 139.7285563 }, "geometry": { "type": "Point", "coordinates": [ 139.7285563, 35.6646414 ] } },
{ "type": "Feature", "properties": { "name": "RAKAN TOKYO", "lat": 35.6632884, "lon": 139.7329703 }, "geometry": { "type": "Point", "coordinates": [ 139.7329703, 35.6632884 ] } },
{ "type": "Feature", "properties": { "name": "Zirco Tokyo", "lat": 35.6937411, "lon": 139.7040213 }, "geometry": { "type": "Point", "coordinates": [ 139.7040213, 35.6937411 ] } },
{ "type": "Feature", "properties": { "name": "FATE", "lat": 35.6961133, "lon": 139.7034463 }, "geometry": { "type": "Point", "coordinates": [ 139.7034463, 35.6961133 ] } },
{ "type": "Feature", "properties": { "name": "Billboard cafe & dining", "lat": 35.6737436, "lon": 139.7591762 }, "geometry": { "type": "Point", "coordinates": [ 139.759176200000013, 35.6737436 ] } },
{ "type": "Feature", "properties": { "name": "Charlie", "lat": 35.6954251, "lon": 139.8265209 }, "geometry": { "type": "Point", "coordinates": [ 139.8265209, 35.6954251 ] } },
{ "type": "Feature", "properties": { "name": "HEAD POWER", "lat": 35.7029809, "lon": 139.7081503 }, "geometry": { "type": "Point", "coordinates": [ 139.7081503, 35.7029809 ] } },
{ "type": "Feature", "properties": { "name": "333×concept B", "lat": 35.6917657, "lon": 139.7024838 }, "geometry": { "type": "Point", "coordinates": [ 139.70248380000001, 35.6917657 ] } },
{ "type": "Feature", "properties": { "name": "THE GUINGUETTE by MOJA", "lat": 35.6610383, "lon": 139.7044648 }, "geometry": { "type": "Point", "coordinates": [ 139.704464800000011, 35.6610383 ] } },
{ "type": "Feature", "properties": { "name": "ANTIKNOCK", "lat": 35.6886342, "lon": 139.7036224 }, "geometry": { "type": "Point", "coordinates": [ 139.7036224, 35.6886342 ] } },
{ "type": "Feature", "properties": { "name": "AiiRO CAFE", "lat": 35.6907739, "lon": 139.7082869 }, "geometry": { "type": "Point", "coordinates": [ 139.7082869, 35.6907739 ] } },
{ "type": "Feature", "properties": { "name": "りあにすたぁ", "lat": 35.696549, "lon": 139.700461 }, "geometry": { "type": "Point", "coordinates": [ 139.700461, 35.696549 ] } },
{ "type": "Feature", "properties": { "name": "あるけみすと", "lat": 35.6978972, "lon": 139.7764164 }, "geometry": { "type": "Point", "coordinates": [ 139.776416399999988, 35.6978972 ] } },
{ "type": "Feature", "properties": { "name": "ACB HALL", "lat": 35.6958884, "lon": 139.7024103 }, "geometry": { "type": "Point", "coordinates": [ 139.7024103, 35.6958884 ] } },
{ "type": "Feature", "properties": { "name": "A BAR", "lat": 35.658306, "lon": 139.6952739 }, "geometry": { "type": "Point", "coordinates": [ 139.695273899999989, 35.658306 ] } },
{ "type": "Feature", "properties": { "name": "KGR(n) \/ 神楽音", "lat": 35.7033271, "lon": 139.7361035 }, "geometry": { "type": "Point", "coordinates": [ 139.736103500000013, 35.7033271 ] } },
{ "type": "Feature", "properties": { "name": "カブキラウンジ", "lat": 35.6942724, "lon": 139.7010394 }, "geometry": { "type": "Point", "coordinates": [ 139.701039400000013, 35.6942724 ] } },
{ "type": "Feature", "properties": { "name": "SPACE ODD", "lat": 35.6533025, "lon": 139.7045199 }, "geometry": { "type": "Point", "coordinates": [ 139.7045199, 35.6533025 ] } },
{ "type": "Feature", "properties": { "name": "Sabaco", "lat": 35.7065399, "lon": 139.7174579 }, "geometry": { "type": "Point", "coordinates": [ 139.7174579, 35.7065399 ] } },
{ "type": "Feature", "properties": { "name": "SHIBUYA REX", "lat": 35.6574758, "lon": 139.6969209 }, "geometry": { "type": "Point", "coordinates": [ 139.6969209, 35.6574758 ] } },
{ "type": "Feature", "properties": { "name": "SHIBUYA REX", "lat": 35.6574758, "lon": 139.6969209 }, "geometry": { "type": "Point", "coordinates": [ 139.6969209, 35.6574758 ] } },
{ "type": "Feature", "properties": { "name": "鶴千", "lat": 35.6768599, "lon": 139.7367779 }, "geometry": { "type": "Point", "coordinates": [ 139.7367779, 35.6768599 ] } },
{ "type": "Feature", "properties": { "name": "LIVE labo YOYOGI", "lat": 35.6814636, "lon": 139.7023259 }, "geometry": { "type": "Point", "coordinates": [ 139.7023259, 35.6814636 ] } },
{ "type": "Feature", "properties": { "name": "TAKE OFF 7", "lat": 35.6610485, "lon": 139.6973796 }, "geometry": { "type": "Point", "coordinates": [ 139.6973796, 35.6610485 ] } },
{ "type": "Feature", "properties": { "name": "GINZA SUKI BAR", "lat": 35.6715904, "lon": 139.7613845 }, "geometry": { "type": "Point", "coordinates": [ 139.7613845, 35.6715904 ] } },
{ "type": "Feature", "properties": { "name": "rhythmcafe", "lat": 35.6626422, "lon": 139.6972857 }, "geometry": { "type": "Point", "coordinates": [ 139.6972857, 35.6626422 ] } },
{ "type": "Feature", "properties": { "name": "AL", "lat": 35.6938349, "lon": 139.7028943 }, "geometry": { "type": "Point", "coordinates": [ 139.7028943, 35.6938349 ] } },
{ "type": "Feature", "properties": { "name": "Motion", "lat": 35.6963747, "lon": 139.700451 }, "geometry": { "type": "Point", "coordinates": [ 139.700451, 35.6963747 ] } },
{ "type": "Feature", "properties": { "name": "MAGNET", "lat": 35.6629041, "lon": 139.7338373 }, "geometry": { "type": "Point", "coordinates": [ 139.7338373, 35.6629041 ] } },
{ "type": "Feature", "properties": { "name": "SOUND&BAR HOWL", "lat": 35.6747785, "lon": 139.7772364 }, "geometry": { "type": "Point", "coordinates": [ 139.7772364, 35.6747785 ] } },
{ "type": "Feature", "properties": { "name": "gee-ge.", "lat": 35.6625076, "lon": 139.6987316 }, "geometry": { "type": "Point", "coordinates": [ 139.6987316, 35.6625076 ] } },
{ "type": "Feature", "properties": { "name": "Live Freak", "lat": 35.6906152, "lon": 139.7073596 }, "geometry": { "type": "Point", "coordinates": [ 139.7073596, 35.6906152 ] } },
{ "type": "Feature", "properties": { "name": "Last Waltz by shiosai", "lat": 35.6586404, "lon": 139.7080054 }, "geometry": { "type": "Point", "coordinates": [ 139.7080054, 35.6586404 ] } },
{ "type": "Feature", "properties": { "name": "HOTSHOT", "lat": 35.7015385, "lon": 139.697564 }, "geometry": { "type": "Point", "coordinates": [ 139.697564, 35.7015385 ] } },
{ "type": "Feature", "properties": { "name": "Zher the ZOO YOYOGI", "lat": 35.6822311, "lon": 139.7017614 }, "geometry": { "type": "Point", "coordinates": [ 139.7017614, 35.6822311 ] } },
{ "type": "Feature", "properties": { "name": "GOLDEN EGG", "lat": 35.6939174, "lon": 139.7020068 }, "geometry": { "type": "Point", "coordinates": [ 139.7020068, 35.6939174 ] } },
{ "type": "Feature", "properties": { "name": "Graffiti", "lat": 35.6764362, "lon": 139.735884 }, "geometry": { "type": "Point", "coordinates": [ 139.735884, 35.6764362 ] } },
{ "type": "Feature", "properties": { "name": "Electrik神社", "lat": 35.661936, "lon": 139.7330037 }, "geometry": { "type": "Point", "coordinates": [ 139.733003700000012, 35.661936 ] } },
{ "type": "Feature", "properties": { "name": "CRAWFISH", "lat": 35.6745648, "lon": 139.7375604 }, "geometry": { "type": "Point", "coordinates": [ 139.7375604, 35.6745648 ] } },
{ "type": "Feature", "properties": { "name": "CLUB GOODMAN", "lat": 35.6971316, "lon": 139.7764903 }, "geometry": { "type": "Point", "coordinates": [ 139.7764903, 35.6971316 ] } },
{ "type": "Feature", "properties": { "name": "Cafe & Music Bar PLAYER", "lat": 35.6979049, "lon": 139.7742137 }, "geometry": { "type": "Point", "coordinates": [ 139.7742137, 35.6979049 ] } },
{ "type": "Feature", "properties": { "name": "CLUB Voice", "lat": 35.7003358, "lon": 139.699951 }, "geometry": { "type": "Point", "coordinates": [ 139.699951, 35.7003358 ] } },
{ "type": "Feature", "properties": { "name": "AREA", "lat": 35.7136662, "lon": 139.7016715 }, "geometry": { "type": "Point", "coordinates": [ 139.7016715, 35.7136662 ] } },
{ "type": "Feature", "properties": { "name": "Cafe del A.R.M", "lat": 35.6555301, "lon": 139.7347368 }, "geometry": { "type": "Point", "coordinates": [ 139.7347368, 35.6555301 ] } },
{ "type": "Feature", "properties": { "name": "300BAR NEXT", "lat": 35.6724261, "lon": 139.7599569 }, "geometry": { "type": "Point", "coordinates": [ 139.7599569, 35.6724261 ] } },
{ "type": "Feature", "properties": { "name": "BPM MUSIC BAR", "lat": 35.6595679, "lon": 139.697852 }, "geometry": { "type": "Point", "coordinates": [ 139.697852, 35.6595679 ] } },
{ "type": "Feature", "properties": { "name": "WWW X", "lat": 35.6615117, "lon": 139.6987557 }, "geometry": { "type": "Point", "coordinates": [ 139.6987557, 35.6615117 ] } },
{ "type": "Feature", "properties": { "name": "Suree", "lat": 35.6517036, "lon": 139.7087893 }, "geometry": { "type": "Point", "coordinates": [ 139.7087893, 35.6517036 ] } },
{ "type": "Feature", "properties": { "name": "CITAN", "lat": 35.691571, "lon": 139.781369 }, "geometry": { "type": "Point", "coordinates": [ 139.781369, 35.691571 ] } },
{ "type": "Feature", "properties": { "name": "VILLA TOKYO", "lat": 35.6640238, "lon": 139.7305105 }, "geometry": { "type": "Point", "coordinates": [ 139.7305105, 35.6640238 ] } },
{ "type": "Feature", "properties": { "name": "nob", "lat": 35.6595984, "lon": 139.695403 }, "geometry": { "type": "Point", "coordinates": [ 139.695403, 35.6595984 ] } },
{ "type": "Feature", "properties": { "name": "Bar Music", "lat": 35.6577338, "lon": 139.6991108 }, "geometry": { "type": "Point", "coordinates": [ 139.6991108, 35.6577338 ] } },
{ "type": "Feature", "properties": { "name": "DJ Bar&Lounge WREP", "lat": 35.659687, "lon": 139.7014882 }, "geometry": { "type": "Point", "coordinates": [ 139.7014882, 35.659687 ] } },
{ "type": "Feature", "properties": { "name": "1OAK Tokyo", "lat": 35.6592102, "lon": 139.7325451 }, "geometry": { "type": "Point", "coordinates": [ 139.73254510000001, 35.6592102 ] } },
{ "type": "Feature", "properties": { "name": "LAPIS TOKYO", "lat": 35.6729193, "lon": 139.764083 }, "geometry": { "type": "Point", "coordinates": [ 139.764083, 35.6729193 ] } },
{ "type": "Feature", "properties": { "name": "MEZZO TOKYO", "lat": 35.6625397, "lon": 139.7332497 }, "geometry": { "type": "Point", "coordinates": [ 139.733249699999988, 35.6625397 ] } },
{ "type": "Feature", "properties": { "name": "SAMURAI", "lat": 35.6979124, "lon": 139.7017882 }, "geometry": { "type": "Point", "coordinates": [ 139.70178820000001, 35.6979124 ] } },
{ "type": "Feature", "properties": { "name": "LAUREL TOKYO", "lat": 35.657022, "lon": 139.6970644 }, "geometry": { "type": "Point", "coordinates": [ 139.697064399999988, 35.657022 ] } },
{ "type": "Feature", "properties": { "name": "TK SHIBUYA", "lat": 35.6611121, "lon": 139.6985442 }, "geometry": { "type": "Point", "coordinates": [ 139.698544199999986, 35.6611121 ] } },
{ "type": "Feature", "properties": { "name": "Bar star star", "lat": 35.6562408, "lon": 139.7010992 }, "geometry": { "type": "Point", "coordinates": [ 139.701099199999987, 35.6562408 ] } },
{ "type": "Feature", "properties": { "name": "Night Club TRUMP TOKYO", "lat": 35.6577479, "lon": 139.6991906 }, "geometry": { "type": "Point", "coordinates": [ 139.6991906, 35.6577479 ] } },
{ "type": "Feature", "properties": { "name": "VENT", "lat": 35.6651715, "lon": 139.7128739 }, "geometry": { "type": "Point", "coordinates": [ 139.7128739, 35.6651715 ] } },
{ "type": "Feature", "properties": { "name": "The Soul Garden", "lat": 35.6700551, "lon": 139.7614751 }, "geometry": { "type": "Point", "coordinates": [ 139.761475100000013, 35.6700551 ] } },
{ "type": "Feature", "properties": { "name": "GOLD LOUNGE New Lex", "lat": 35.6622183, "lon": 139.7339681 }, "geometry": { "type": "Point", "coordinates": [ 139.7339681, 35.6622183 ] } },
{ "type": "Feature", "properties": { "name": "※未オープン", "lat": 35.6640238, "lon": 139.7305105 }, "geometry": { "type": "Point", "coordinates": [ 139.7305105, 35.6640238 ] } },
{ "type": "Feature", "properties": { "name": "DiA tokyo", "lat": 35.6633285, "lon": 139.7341877 }, "geometry": { "type": "Point", "coordinates": [ 139.7341877, 35.6633285 ] } },
{ "type": "Feature", "properties": { "name": "beat cafe", "lat": 35.6583624, "lon": 139.6957216 }, "geometry": { "type": "Point", "coordinates": [ 139.695721600000013, 35.6583624 ] } },
{ "type": "Feature", "properties": { "name": "MILLIBAR", "lat": 35.6610613, "lon": 139.696831 }, "geometry": { "type": "Point", "coordinates": [ 139.696831, 35.6610613 ] } },
{ "type": "Feature", "properties": { "name": "Mandarino", "lat": 35.6951658, "lon": 139.700692 }, "geometry": { "type": "Point", "coordinates": [ 139.700692, 35.6951658 ] } },
{ "type": "Feature", "properties": { "name": "WALL&WALL", "lat": 35.6651715, "lon": 139.7128739 }, "geometry": { "type": "Point", "coordinates": [ 139.7128739, 35.6651715 ] } },
{ "type": "Feature", "properties": { "name": "Las Risas", "lat": 35.6673507, "lon": 139.7629026 }, "geometry": { "type": "Point", "coordinates": [ 139.7629026, 35.6673507 ] } },
{ "type": "Feature", "properties": { "name": "ANCE", "lat": 35.6822804, "lon": 139.6982461 }, "geometry": { "type": "Point", "coordinates": [ 139.6982461, 35.6822804 ] } },
{ "type": "Feature", "properties": { "name": "DAIA", "lat": 35.6599995, "lon": 139.6959643 }, "geometry": { "type": "Point", "coordinates": [ 139.695964300000014, 35.6599995 ] } },
{ "type": "Feature", "properties": { "name": "cafe&bar MAW", "lat": 35.6892225, "lon": 139.7072726 }, "geometry": { "type": "Point", "coordinates": [ 139.70727260000001, 35.6892225 ] } },
{ "type": "Feature", "properties": { "name": "GERONIMO SHOT BAR", "lat": 35.6633503, "lon": 139.7318718 }, "geometry": { "type": "Point", "coordinates": [ 139.7318718, 35.6633503 ] } },
{ "type": "Feature", "properties": { "name": "VIVO BAR TOKYO", "lat": 35.6645994, "lon": 139.7290893 }, "geometry": { "type": "Point", "coordinates": [ 139.7290893, 35.6645994 ] } },
{ "type": "Feature", "properties": { "name": "Sankeys TYO", "lat": 35.6533025, "lon": 139.7045199 }, "geometry": { "type": "Point", "coordinates": [ 139.7045199, 35.6533025 ] } },
{ "type": "Feature", "properties": { "name": "Sankeys TYO", "lat": 35.6533025, "lon": 139.7045199 }, "geometry": { "type": "Point", "coordinates": [ 139.7045199, 35.6533025 ] } },
{ "type": "Feature", "properties": { "name": "Contact", "lat": 35.6580937, "lon": 139.6971203 }, "geometry": { "type": "Point", "coordinates": [ 139.6971203, 35.6580937 ] } },
{ "type": "Feature", "properties": { "name": "R TOKYO", "lat": 35.6610436, "lon": 139.7241151 }, "geometry": { "type": "Point", "coordinates": [ 139.7241151, 35.6610436 ] } },
{ "type": "Feature", "properties": { "name": "POINT･66", "lat": 35.6559018, "lon": 139.7055023 }, "geometry": { "type": "Point", "coordinates": [ 139.7055023, 35.6559018 ] } },
{ "type": "Feature", "properties": { "name": "A-LIFE", "lat": 35.6608429, "lon": 139.7262056 }, "geometry": { "type": "Point", "coordinates": [ 139.726205599999986, 35.6608429 ] } },
{ "type": "Feature", "properties": { "name": "VARIT.", "lat": 35.6612086, "lon": 139.737256 }, "geometry": { "type": "Point", "coordinates": [ 139.737256, 35.6612086 ] } },
{ "type": "Feature", "properties": { "name": "自由空間 CreAto", "lat": 35.6513468, "lon": 139.7094943 }, "geometry": { "type": "Point", "coordinates": [ 139.709494299999989, 35.6513468 ] } },
{ "type": "Feature", "properties": { "name": "EARTHDOM", "lat": 35.701409, "lon": 139.7027137 }, "geometry": { "type": "Point", "coordinates": [ 139.7027137, 35.701409 ] } },
{ "type": "Feature", "properties": { "name": "はすとばら", "lat": 35.6566374, "lon": 139.6974916 }, "geometry": { "type": "Point", "coordinates": [ 139.6974916, 35.6566374 ] } },
{ "type": "Feature", "properties": { "name": "nagomix", "lat": 35.663727, "lon": 139.6993046 }, "geometry": { "type": "Point", "coordinates": [ 139.6993046, 35.663727 ] } },
{ "type": "Feature", "properties": { "name": "club SCIENCE", "lat": 35.6954779, "lon": 139.7036061 }, "geometry": { "type": "Point", "coordinates": [ 139.7036061, 35.6954779 ] } },
{ "type": "Feature", "properties": { "name": "Marble", "lat": 35.6963747, "lon": 139.700451 }, "geometry": { "type": "Point", "coordinates": [ 139.700451, 35.6963747 ] } },
{ "type": "Feature", "properties": { "name": "TUSK", "lat": 35.6597643, "lon": 139.7291335 }, "geometry": { "type": "Point", "coordinates": [ 139.729133499999989, 35.6597643 ] } },
{ "type": "Feature", "properties": { "name": "GINZA MUSIC BAR", "lat": 35.6689218, "lon": 139.7619535 }, "geometry": { "type": "Point", "coordinates": [ 139.7619535, 35.6689218 ] } },
{ "type": "Feature", "properties": { "name": "Standing Lounge 333 Ginza", "lat": 35.669021, "lon": 139.7591583 }, "geometry": { "type": "Point", "coordinates": [ 139.7591583, 35.669021 ] } },
{ "type": "Feature", "properties": { "name": "CIRCUS TOKYO", "lat": 35.6541654, "lon": 139.7055971 }, "geometry": { "type": "Point", "coordinates": [ 139.7055971, 35.6541654 ] } },
{ "type": "Feature", "properties": { "name": "Future SEVEN", "lat": 35.6592912, "lon": 139.7151922 }, "geometry": { "type": "Point", "coordinates": [ 139.7151922, 35.6592912 ] } },
{ "type": "Feature", "properties": { "name": "LIVE HOUSE LOOP 代官山", "lat": 35.6511157, "lon": 139.6967467 }, "geometry": { "type": "Point", "coordinates": [ 139.6967467, 35.6511157 ] } },
{ "type": "Feature", "properties": { "name": "eplus LIVING ROOM CAFE&DINING", "lat": 35.6594915, "lon": 139.6983876 }, "geometry": { "type": "Point", "coordinates": [ 139.6983876, 35.6594915 ] } },
{ "type": "Feature", "properties": { "name": "La.mama", "lat": 35.6572942, "lon": 139.6977186 }, "geometry": { "type": "Point", "coordinates": [ 139.6977186, 35.6572942 ] } },
{ "type": "Feature", "properties": { "name": "ASTRO HALL", "lat": 35.6695001, "lon": 139.706556 }, "geometry": { "type": "Point", "coordinates": [ 139.706556, 35.6695001 ] } },
{ "type": "Feature", "properties": { "name": "FIRE HORSE", "lat": 35.663129, "lon": 139.7330944 }, "geometry": { "type": "Point", "coordinates": [ 139.7330944, 35.663129 ] } },
{ "type": "Feature", "properties": { "name": "DOOR", "lat": 35.6625524, "lon": 139.6969508 }, "geometry": { "type": "Point", "coordinates": [ 139.6969508, 35.6625524 ] } },
{ "type": "Feature", "properties": { "name": "ARC", "lat": 35.6651715, "lon": 139.7128739 }, "geometry": { "type": "Point", "coordinates": [ 139.7128739, 35.6651715 ] } },
{ "type": "Feature", "properties": { "name": "HOLIDAY SHINJUKU", "lat": 35.6957333, "lon": 139.7036734 }, "geometry": { "type": "Point", "coordinates": [ 139.703673400000014, 35.6957333 ] } },
{ "type": "Feature", "properties": { "name": "Dimension", "lat": 35.6569843, "lon": 139.6955264 }, "geometry": { "type": "Point", "coordinates": [ 139.6955264, 35.6569843 ] } },
{ "type": "Feature", "properties": { "name": "MixBerry", "lat": 35.6674349, "lon": 139.7599669 }, "geometry": { "type": "Point", "coordinates": [ 139.7599669, 35.6674349 ] } },
{ "type": "Feature", "properties": { "name": "Cat’s TOKYO", "lat": 35.6629686, "lon": 139.7334692 }, "geometry": { "type": "Point", "coordinates": [ 139.7334692, 35.6629686 ] } },
{ "type": "Feature", "properties": { "name": "agePa shibuya", "lat": 35.6599995, "lon": 139.6959643 }, "geometry": { "type": "Point", "coordinates": [ 139.695964300000014, 35.6599995 ] } },
{ "type": "Feature", "properties": { "name": "BERG and WEST", "lat": 35.6610436, "lon": 139.7241151 }, "geometry": { "type": "Point", "coordinates": [ 139.7241151, 35.6610436 ] } },
{ "type": "Feature", "properties": { "name": "FAME", "lat": 35.6651607, "lon": 139.712908 }, "geometry": { "type": "Point", "coordinates": [ 139.712908, 35.6651607 ] } },
{ "type": "Feature", "properties": { "name": "Social Lounge AJITO", "lat": 35.6702036, "lon": 139.7064731 }, "geometry": { "type": "Point", "coordinates": [ 139.706473100000011, 35.6702036 ] } },
{ "type": "Feature", "properties": { "name": "moefarre AKIHABARA", "lat": 35.7025213, "lon": 139.7706991 }, "geometry": { "type": "Point", "coordinates": [ 139.7706991, 35.7025213 ] } },
{ "type": "Feature", "properties": { "name": "Cafe&Dining nurikabe", "lat": 35.6458626, "lon": 139.7068238 }, "geometry": { "type": "Point", "coordinates": [ 139.7068238, 35.6458626 ] } },
{ "type": "Feature", "properties": { "name": "White Space Lab", "lat": 35.6587646, "lon": 139.6949367 }, "geometry": { "type": "Point", "coordinates": [ 139.6949367, 35.6587646 ] } },
{ "type": "Feature", "properties": { "name": "GATSBY HOUSE", "lat": 35.6959973, "lon": 139.7048191 }, "geometry": { "type": "Point", "coordinates": [ 139.7048191, 35.6959973 ] } },
{ "type": "Feature", "properties": { "name": "CIRCUS+", "lat": 35.6616993, "lon": 139.735468 }, "geometry": { "type": "Point", "coordinates": [ 139.735468, 35.6616993 ] } },
{ "type": "Feature", "properties": { "name": "shirokuma", "lat": 35.6822511, "lon": 139.6984834 }, "geometry": { "type": "Point", "coordinates": [ 139.698483399999986, 35.6822511 ] } },
{ "type": "Feature", "properties": { "name": "Lounge BAR NB", "lat": 35.6978704, "lon": 139.7021788 }, "geometry": { "type": "Point", "coordinates": [ 139.702178800000013, 35.6978704 ] } },
{ "type": "Feature", "properties": { "name": "NINE SPICES", "lat": 35.6949995, "lon": 139.7063949 }, "geometry": { "type": "Point", "coordinates": [ 139.7063949, 35.6949995 ] } },
{ "type": "Feature", "properties": { "name": "ReNY", "lat": 35.693132, "lon": 139.693142 }, "geometry": { "type": "Point", "coordinates": [ 139.693142, 35.693132 ] } },
{ "type": "Feature", "properties": { "name": "Green Lounge", "lat": 35.6641642, "lon": 139.6993341 }, "geometry": { "type": "Point", "coordinates": [ 139.699334099999987, 35.6641642 ] } },
{ "type": "Feature", "properties": { "name": "HOT BUTTERED CLUB", "lat": 35.6576933, "lon": 139.7078411 }, "geometry": { "type": "Point", "coordinates": [ 139.7078411, 35.6576933 ] } },
{ "type": "Feature", "properties": { "name": "DIAMOND LOUNGE", "lat": 35.6674794, "lon": 139.7620777 }, "geometry": { "type": "Point", "coordinates": [ 139.7620777, 35.6674794 ] } },
{ "type": "Feature", "properties": { "name": "BAR BLUE", "lat": 35.6601103, "lon": 139.7241493 }, "geometry": { "type": "Point", "coordinates": [ 139.7241493, 35.6601103 ] } },
{ "type": "Feature", "properties": { "name": "Social Club Tokyo", "lat": 35.6603027, "lon": 139.7081104 }, "geometry": { "type": "Point", "coordinates": [ 139.70811040000001, 35.6603027 ] } },
{ "type": "Feature", "properties": { "name": "APOLLO Club TOKYO", "lat": 35.6631951, "lon": 139.7333986 }, "geometry": { "type": "Point", "coordinates": [ 139.733398599999987, 35.6631951 ] } },
{ "type": "Feature", "properties": { "name": "SHAG", "lat": 35.6652, "lon": 139.7131175 }, "geometry": { "type": "Point", "coordinates": [ 139.71311750000001, 35.6652 ] } },
{ "type": "Feature", "properties": { "name": "EDITION", "lat": 35.6703639, "lon": 139.7268965 }, "geometry": { "type": "Point", "coordinates": [ 139.7268965, 35.6703639 ] } },
{ "type": "Feature", "properties": { "name": "DJ BAR Bridge", "lat": 35.659687, "lon": 139.7014882 }, "geometry": { "type": "Point", "coordinates": [ 139.7014882, 35.659687 ] } },
{ "type": "Feature", "properties": { "name": "Wild Side Tokyo", "lat": 35.6912796, "lon": 139.7108809 }, "geometry": { "type": "Point", "coordinates": [ 139.7108809, 35.6912796 ] } },
{ "type": "Feature", "properties": { "name": "ENZO Bar", "lat": 35.6622183, "lon": 139.7339681 }, "geometry": { "type": "Point", "coordinates": [ 139.7339681, 35.6622183 ] } },
{ "type": "Feature", "properties": { "name": "ELE TOKYO", "lat": 35.6569619, "lon": 139.7353052 }, "geometry": { "type": "Point", "coordinates": [ 139.7353052, 35.6569619 ] } },
{ "type": "Feature", "properties": { "name": "WALL", "lat": 35.6838148, "lon": 139.6898013 }, "geometry": { "type": "Point", "coordinates": [ 139.6898013, 35.6838148 ] } },
{ "type": "Feature", "properties": { "name": "IVY", "lat": 35.6564502, "lon": 139.7348508 }, "geometry": { "type": "Point", "coordinates": [ 139.7348508, 35.6564502 ] } },
{ "type": "Feature", "properties": { "name": "REIGN TOKYO", "lat": 35.6624746, "lon": 139.7345153 }, "geometry": { "type": "Point", "coordinates": [ 139.7345153, 35.6624746 ] } },
{ "type": "Feature", "properties": { "name": "club aim", "lat": 35.6450525, "lon": 139.7147572 }, "geometry": { "type": "Point", "coordinates": [ 139.7147572, 35.6450525 ] } },
{ "type": "Feature", "properties": { "name": "Le Donjon M", "lat": 35.6625342, "lon": 139.7120602 }, "geometry": { "type": "Point", "coordinates": [ 139.7120602, 35.6625342 ] } },
{ "type": "Feature", "properties": { "name": "Shibuya HOME", "lat": 35.660543, "lon": 139.7049588 }, "geometry": { "type": "Point", "coordinates": [ 139.704958800000014, 35.660543 ] } },
{ "type": "Feature", "properties": { "name": "Two Dogs Taproom", "lat": 35.6624795, "lon": 139.7352278 }, "geometry": { "type": "Point", "coordinates": [ 139.7352278, 35.6624795 ] } },
{ "type": "Feature", "properties": { "name": "Sheyda BAR", "lat": 35.663129, "lon": 139.7330944 }, "geometry": { "type": "Point", "coordinates": [ 139.7330944, 35.663129 ] } },
{ "type": "Feature", "properties": { "name": "moefarre GINZA", "lat": 35.674923, "lon": 139.761773 }, "geometry": { "type": "Point", "coordinates": [ 139.761773, 35.674923 ] } },
{ "type": "Feature", "properties": { "name": "GARRET udagawa", "lat": 35.6614607, "lon": 139.698547 }, "geometry": { "type": "Point", "coordinates": [ 139.698547, 35.6614607 ] } },
{ "type": "Feature", "properties": { "name": "BLAZE", "lat": 35.6952501, "lon": 139.7010529 }, "geometry": { "type": "Point", "coordinates": [ 139.7010529, 35.6952501 ] } },
{ "type": "Feature", "properties": { "name": "FREQ.", "lat": 35.6610436, "lon": 139.7241151 }, "geometry": { "type": "Point", "coordinates": [ 139.7241151, 35.6610436 ] } },
{ "type": "Feature", "properties": { "name": "I2 SHIBUYA", "lat": 35.6611121, "lon": 139.6985442 }, "geometry": { "type": "Point", "coordinates": [ 139.698544199999986, 35.6611121 ] } },
{ "type": "Feature", "properties": { "name": "OTO", "lat": 35.6571532, "lon": 139.7038157 }, "geometry": { "type": "Point", "coordinates": [ 139.7038157, 35.6571532 ] } },
{ "type": "Feature", "properties": { "name": "OWL TOKYO", "lat": 35.6896364, "lon": 139.7081526 }, "geometry": { "type": "Point", "coordinates": [ 139.7081526, 35.6896364 ] } },
{ "type": "Feature", "properties": { "name": "FLAMINGO", "lat": 35.6620675, "lon": 139.6972789 }, "geometry": { "type": "Point", "coordinates": [ 139.697278899999986, 35.6620675 ] } },
{ "type": "Feature", "properties": { "name": "Royal Family", "lat": 35.6900466, "lon": 139.7087886 }, "geometry": { "type": "Point", "coordinates": [ 139.7087886, 35.6900466 ] } },
{ "type": "Feature", "properties": { "name": "NGORO NGORO HARAJUKU", "lat": 35.6696267, "lon": 139.7066258 }, "geometry": { "type": "Point", "coordinates": [ 139.706625800000012, 35.6696267 ] } },
{ "type": "Feature", "properties": { "name": "7Sense", "lat": 35.6625667, "lon": 139.734926 }, "geometry": { "type": "Point", "coordinates": [ 139.734926, 35.6625667 ] } },
{ "type": "Feature", "properties": { "name": "REGGAE CLUB OPEN", "lat": 35.6892225, "lon": 139.7072726 }, "geometry": { "type": "Point", "coordinates": [ 139.70727260000001, 35.6892225 ] } },
{ "type": "Feature", "properties": { "name": "SHINJUKU FACE", "lat": 35.6958769, "lon": 139.7015902 }, "geometry": { "type": "Point", "coordinates": [ 139.7015902, 35.6958769 ] } },
{ "type": "Feature", "properties": { "name": "FLAME TOKYO", "lat": 35.658306, "lon": 139.6952739 }, "geometry": { "type": "Point", "coordinates": [ 139.695273899999989, 35.658306 ] } },
{ "type": "Feature", "properties": { "name": "RED AREA", "lat": 35.6624746, "lon": 139.7345153 }, "geometry": { "type": "Point", "coordinates": [ 139.7345153, 35.6624746 ] } },
{ "type": "Feature", "properties": { "name": "Nos Vida", "lat": 35.6762174, "lon": 139.7365166 }, "geometry": { "type": "Point", "coordinates": [ 139.736516599999987, 35.6762174 ] } },
{ "type": "Feature", "properties": { "name": "LOUVER", "lat": 35.6973884, "lon": 139.695343 }, "geometry": { "type": "Point", "coordinates": [ 139.695343, 35.6973884 ] } },
{ "type": "Feature", "properties": { "name": "GUILTY", "lat": 35.6568647, "lon": 139.6971402 }, "geometry": { "type": "Point", "coordinates": [ 139.6971402, 35.6568647 ] } },
{ "type": "Feature", "properties": { "name": "DJ BAR SPACE", "lat": 35.6587638, "lon": 139.6949346 }, "geometry": { "type": "Point", "coordinates": [ 139.694934600000011, 35.6587638 ] } },
{ "type": "Feature", "properties": { "name": "SCUBA", "lat": 35.6776147, "lon": 139.6789455 }, "geometry": { "type": "Point", "coordinates": [ 139.6789455, 35.6776147 ] } },
{ "type": "Feature", "properties": { "name": "GUARDIAN DININGBAR & SOUL", "lat": 35.6447449, "lon": 139.745005 }, "geometry": { "type": "Point", "coordinates": [ 139.745005, 35.6447449 ] } },
{ "type": "Feature", "properties": { "name": "ORIGAMI", "lat": 35.6651715, "lon": 139.7128739 }, "geometry": { "type": "Point", "coordinates": [ 139.7128739, 35.6651715 ] } },
{ "type": "Feature", "properties": { "name": "OSCAR", "lat": 35.6971076, "lon": 139.7004909 }, "geometry": { "type": "Point", "coordinates": [ 139.7004909, 35.6971076 ] } },
{ "type": "Feature", "properties": { "name": "LIFE IS BEAUTIFUL", "lat": 35.6453677, "lon": 139.707889 }, "geometry": { "type": "Point", "coordinates": [ 139.707889, 35.6453677 ] } },
{ "type": "Feature", "properties": { "name": "Crystal LOUNGE", "lat": 35.6684896, "lon": 139.7165467 }, "geometry": { "type": "Point", "coordinates": [ 139.7165467, 35.6684896 ] } },
{ "type": "Feature", "properties": { "name": "CLUB SIX TOKYO", "lat": 35.6620101, "lon": 139.7345733 }, "geometry": { "type": "Point", "coordinates": [ 139.7345733, 35.6620101 ] } },
{ "type": "Feature", "properties": { "name": "GOLD CAFE", "lat": 35.6592102, "lon": 139.7325451 }, "geometry": { "type": "Point", "coordinates": [ 139.73254510000001, 35.6592102 ] } },
{ "type": "Feature", "properties": { "name": "CLUB TENJIKU", "lat": 35.6728528, "lon": 139.7378808 }, "geometry": { "type": "Point", "coordinates": [ 139.7378808, 35.6728528 ] } },
{ "type": "Feature", "properties": { "name": "Sprite", "lat": 35.6652, "lon": 139.7131175 }, "geometry": { "type": "Point", "coordinates": [ 139.71311750000001, 35.6652 ] } },
{ "type": "Feature", "properties": { "name": "BAR GOLDFINGER", "lat": 35.690588, "lon": 139.7076931 }, "geometry": { "type": "Point", "coordinates": [ 139.7076931, 35.690588 ] } },
{ "type": "Feature", "properties": { "name": "-", "lat": 35.6521443, "lon": 139.7087556 }, "geometry": { "type": "Point", "coordinates": [ 139.708755599999989, 35.6521443 ] } },
{ "type": "Feature", "properties": { "name": "INDUSTRIAL LOUNGE", "lat": 35.6477533, "lon": 139.70825 }, "geometry": { "type": "Point", "coordinates": [ 139.70825, 35.6477533 ] } },
{ "type": "Feature", "properties": { "name": "EL CAFE LATINO", "lat": 35.66257, "lon": 139.7354893 }, "geometry": { "type": "Point", "coordinates": [ 139.735489300000012, 35.66257 ] } },
{ "type": "Feature", "properties": { "name": "PARAISO", "lat": 35.6645994, "lon": 139.7290893 }, "geometry": { "type": "Point", "coordinates": [ 139.7290893, 35.6645994 ] } },
{ "type": "Feature", "properties": { "name": "COPACABANA", "lat": 35.663129, "lon": 139.7330944 }, "geometry": { "type": "Point", "coordinates": [ 139.7330944, 35.663129 ] } },
{ "type": "Feature", "properties": { "name": "COPACABANA", "lat": 35.663129, "lon": 139.7330944 }, "geometry": { "type": "Point", "coordinates": [ 139.7330944, 35.663129 ] } },
{ "type": "Feature", "properties": { "name": "SOFT", "lat": 35.6576933, "lon": 139.7078411 }, "geometry": { "type": "Point", "coordinates": [ 139.7078411, 35.6576933 ] } },
{ "type": "Feature", "properties": { "name": "GALLERY&BAR COCOON", "lat": 35.6625731, "lon": 139.6971993 }, "geometry": { "type": "Point", "coordinates": [ 139.6971993, 35.6625731 ] } },
{ "type": "Feature", "properties": { "name": "喫茶SMiLE", "lat": 35.6625731, "lon": 139.6971993 }, "geometry": { "type": "Point", "coordinates": [ 139.6971993, 35.6625731 ] } },
{ "type": "Feature", "properties": { "name": "DREAM STORE", "lat": 35.6946036, "lon": 139.7021798 }, "geometry": { "type": "Point", "coordinates": [ 139.70217980000001, 35.6946036 ] } },
{ "type": "Feature", "properties": { "name": "LOFT", "lat": 35.6953598, "lon": 139.702645 }, "geometry": { "type": "Point", "coordinates": [ 139.702645, 35.6953598 ] } },
{ "type": "Feature", "properties": { "name": "R2 SUPPERCLUB", "lat": 35.6637766, "lon": 139.7308351 }, "geometry": { "type": "Point", "coordinates": [ 139.7308351, 35.6637766 ] } },
{ "type": "Feature", "properties": { "name": "DOUBLE TOKYO", "lat": 35.6610436, "lon": 139.7241151 }, "geometry": { "type": "Point", "coordinates": [ 139.7241151, 35.6610436 ] } },
{ "type": "Feature", "properties": { "name": "V2 TOKYO", "lat": 35.6640238, "lon": 139.7305105 }, "geometry": { "type": "Point", "coordinates": [ 139.7305105, 35.6640238 ] } },
{ "type": "Feature", "properties": { "name": "FORESTLIMIT", "lat": 35.6780195, "lon": 139.6770801 }, "geometry": { "type": "Point", "coordinates": [ 139.677080100000012, 35.6780195 ] } },
{ "type": "Feature", "properties": { "name": "東京354CLUB", "lat": 35.6608944, "lon": 139.6979788 }, "geometry": { "type": "Point", "coordinates": [ 139.697978799999987, 35.6608944 ] } },
{ "type": "Feature", "properties": { "name": "Coins Bar", "lat": 35.6621203, "lon": 139.6972624 }, "geometry": { "type": "Point", "coordinates": [ 139.6972624, 35.6621203 ] } },
{ "type": "Feature", "properties": { "name": "ROCKAHOLIC", "lat": 35.6626422, "lon": 139.6972857 }, "geometry": { "type": "Point", "coordinates": [ 139.6972857, 35.6626422 ] } },
{ "type": "Feature", "properties": { "name": "COTTON CLUB", "lat": 35.6784953, "lon": 139.7649771 }, "geometry": { "type": "Point", "coordinates": [ 139.76497710000001, 35.6784953 ] } },
{ "type": "Feature", "properties": { "name": "BAR 2WAY", "lat": 35.6941525, "lon": 139.7037613 }, "geometry": { "type": "Point", "coordinates": [ 139.7037613, 35.6941525 ] } },
{ "type": "Feature", "properties": { "name": "M’S cafe", "lat": 35.6680617, "lon": 139.7631414 }, "geometry": { "type": "Point", "coordinates": [ 139.7631414, 35.6680617 ] } },
{ "type": "Feature", "properties": { "name": "7th FLOOR", "lat": 35.6584968, "lon": 139.6952872 }, "geometry": { "type": "Point", "coordinates": [ 139.6952872, 35.6584968 ] } },
{ "type": "Feature", "properties": { "name": "TSUTAYA O-WEST", "lat": 35.6584968, "lon": 139.6952872 }, "geometry": { "type": "Point", "coordinates": [ 139.6952872, 35.6584968 ] } },
{ "type": "Feature", "properties": { "name": "月見ル君想フ", "lat": 35.667352, "lon": 139.7181655 }, "geometry": { "type": "Point", "coordinates": [ 139.7181655, 35.667352 ] } },
{ "type": "Feature", "properties": { "name": "TRUMPLOUNGE\/HOUSE", "lat": 35.6577479, "lon": 139.6991906 }, "geometry": { "type": "Point", "coordinates": [ 139.6991906, 35.6577479 ] } },
{ "type": "Feature", "properties": { "name": "RUIDO K2", "lat": 35.6568188, "lon": 139.7011178 }, "geometry": { "type": "Point", "coordinates": [ 139.7011178, 35.6568188 ] } },
{ "type": "Feature", "properties": { "name": "333", "lat": 35.6710943, "lon": 139.7614444 }, "geometry": { "type": "Point", "coordinates": [ 139.761444399999988, 35.6710943 ] } },
{ "type": "Feature", "properties": { "name": "Club EDGE", "lat": 35.6609169, "lon": 139.7369946 }, "geometry": { "type": "Point", "coordinates": [ 139.7369946, 35.6609169 ] } },
{ "type": "Feature", "properties": { "name": "新世界", "lat": 35.6607357, "lon": 139.7259163 }, "geometry": { "type": "Point", "coordinates": [ 139.7259163, 35.6607357 ] } },
{ "type": "Feature", "properties": { "name": "IDOL", "lat": 35.6618985, "lon": 139.7125227 }, "geometry": { "type": "Point", "coordinates": [ 139.7125227, 35.6618985 ] } },
{ "type": "Feature", "properties": { "name": "CLUB QUATTRO", "lat": 35.6609861, "lon": 139.697567 }, "geometry": { "type": "Point", "coordinates": [ 139.697567, 35.6609861 ] } },
{ "type": "Feature", "properties": { "name": "虎子食堂", "lat": 35.6625524, "lon": 139.6969508 }, "geometry": { "type": "Point", "coordinates": [ 139.6969508, 35.6625524 ] } },
{ "type": "Feature", "properties": { "name": "WONDER LOUNGE", "lat": 35.6616341, "lon": 139.7352446 }, "geometry": { "type": "Point", "coordinates": [ 139.735244599999987, 35.6616341 ] } },
{ "type": "Feature", "properties": { "name": "GRID SMART LOUNGE", "lat": 35.6599038, "lon": 139.7171325 }, "geometry": { "type": "Point", "coordinates": [ 139.7171325, 35.6599038 ] } },
{ "type": "Feature", "properties": { "name": "0 Zero", "lat": 35.6608802, "lon": 139.7075969 }, "geometry": { "type": "Point", "coordinates": [ 139.7075969, 35.6608802 ] } },
{ "type": "Feature", "properties": { "name": "LA35", "lat": 35.6624795, "lon": 139.7352278 }, "geometry": { "type": "Point", "coordinates": [ 139.7352278, 35.6624795 ] } },
{ "type": "Feature", "properties": { "name": "Cafe & Bar SCRAMBLE", "lat": 35.6596052, "lon": 139.7011875 }, "geometry": { "type": "Point", "coordinates": [ 139.7011875, 35.6596052 ] } },
{ "type": "Feature", "properties": { "name": "CROW FOREST", "lat": 35.691357, "lon": 139.7709201 }, "geometry": { "type": "Point", "coordinates": [ 139.770920100000012, 35.691357 ] } },
{ "type": "Feature", "properties": { "name": "club乙 kinoto", "lat": 35.656598, "lon": 139.7022922 }, "geometry": { "type": "Point", "coordinates": [ 139.702292199999988, 35.656598 ] } },
{ "type": "Feature", "properties": { "name": "CAY", "lat": 35.6636806, "lon": 139.711596 }, "geometry": { "type": "Point", "coordinates": [ 139.711596, 35.6636806 ] } },
{ "type": "Feature", "properties": { "name": "KATA", "lat": 35.6490979, "lon": 139.7106403 }, "geometry": { "type": "Point", "coordinates": [ 139.7106403, 35.6490979 ] } },
{ "type": "Feature", "properties": { "name": "dMz", "lat": 35.6605611, "lon": 139.6992968 }, "geometry": { "type": "Point", "coordinates": [ 139.699296800000013, 35.6605611 ] } },
{ "type": "Feature", "properties": { "name": "ディクショナリー倶楽部", "lat": 35.6771622, "lon": 139.7119095 }, "geometry": { "type": "Point", "coordinates": [ 139.7119095, 35.6771622 ] } },
{ "type": "Feature", "properties": { "name": "Lamafa", "lat": 35.6575973, "lon": 139.6993417 }, "geometry": { "type": "Point", "coordinates": [ 139.6993417, 35.6575973 ] } },
{ "type": "Feature", "properties": { "name": "BRAND TOKYO", "lat": 35.6608109, "lon": 139.7261258 }, "geometry": { "type": "Point", "coordinates": [ 139.7261258, 35.6608109 ] } },
{ "type": "Feature", "properties": { "name": "kinobar", "lat": 35.6619053, "lon": 139.6983967 }, "geometry": { "type": "Point", "coordinates": [ 139.698396699999989, 35.6619053 ] } },
{ "type": "Feature", "properties": { "name": "STAR LOUNGE", "lat": 35.6624798, "lon": 139.697888 }, "geometry": { "type": "Point", "coordinates": [ 139.697888, 35.6624798 ] } },
{ "type": "Feature", "properties": { "name": "BAR SAZANAMI", "lat": 35.6569843, "lon": 139.6955264 }, "geometry": { "type": "Point", "coordinates": [ 139.6955264, 35.6569843 ] } },
{ "type": "Feature", "properties": { "name": "88 STREET BAR", "lat": 35.6628525, "lon": 139.7335059 }, "geometry": { "type": "Point", "coordinates": [ 139.733505900000011, 35.6628525 ] } },
{ "type": "Feature", "properties": { "name": "COZMO’S", "lat": 35.6608833, "lon": 139.7057167 }, "geometry": { "type": "Point", "coordinates": [ 139.705716700000011, 35.6608833 ] } },
{ "type": "Feature", "properties": { "name": "Extrawelt", "lat": 35.6888151, "lon": 139.7712699 }, "geometry": { "type": "Point", "coordinates": [ 139.7712699, 35.6888151 ] } },
{ "type": "Feature", "properties": { "name": "The Beach Lounge", "lat": 35.6564543, "lon": 139.7333694 }, "geometry": { "type": "Point", "coordinates": [ 139.733369399999987, 35.6564543 ] } },
{ "type": "Feature", "properties": { "name": "NOMAD", "lat": 35.6520637, "lon": 139.7042706 }, "geometry": { "type": "Point", "coordinates": [ 139.7042706, 35.6520637 ] } },
{ "type": "Feature", "properties": { "name": "WASTED TIME", "lat": 35.6613426, "lon": 139.6978405 }, "geometry": { "type": "Point", "coordinates": [ 139.697840500000012, 35.6613426 ] } },
{ "type": "Feature", "properties": { "name": "Rehab Lounge Tokyo", "lat": 35.6900466, "lon": 139.7087886 }, "geometry": { "type": "Point", "coordinates": [ 139.7087886, 35.6900466 ] } },
{ "type": "Feature", "properties": { "name": "NOS EBISU", "lat": 35.6455931, "lon": 139.7075818 }, "geometry": { "type": "Point", "coordinates": [ 139.707581800000014, 35.6455931 ] } },
{ "type": "Feature", "properties": { "name": "NOS ORG", "lat": 35.66257, "lon": 139.6983586 }, "geometry": { "type": "Point", "coordinates": [ 139.6983586, 35.66257 ] } },
{ "type": "Feature", "properties": { "name": "DROP Shibuya", "lat": 35.6599995, "lon": 139.6959643 }, "geometry": { "type": "Point", "coordinates": [ 139.695964300000014, 35.6599995 ] } },
{ "type": "Feature", "properties": { "name": "CYCLONE", "lat": 35.6613934, "lon": 139.6984167 }, "geometry": { "type": "Point", "coordinates": [ 139.6984167, 35.6613934 ] } },
{ "type": "Feature", "properties": { "name": "TOKYO LOOSE", "lat": 35.696055, "lon": 139.701892 }, "geometry": { "type": "Point", "coordinates": [ 139.701892, 35.696055 ] } },
{ "type": "Feature", "properties": { "name": "A971", "lat": 35.6659803, "lon": 139.7308747 }, "geometry": { "type": "Point", "coordinates": [ 139.730874699999987, 35.6659803 ] } },
{ "type": "Feature", "properties": { "name": "BLUE BAR", "lat": 35.66257, "lon": 139.7354893 }, "geometry": { "type": "Point", "coordinates": [ 139.735489300000012, 35.66257 ] } },
{ "type": "Feature", "properties": { "name": "HEARTLAND", "lat": 35.6597643, "lon": 139.7291335 }, "geometry": { "type": "Point", "coordinates": [ 139.729133499999989, 35.6597643 ] } },
{ "type": "Feature", "properties": { "name": "port", "lat": 35.6618885, "lon": 139.7288831 }, "geometry": { "type": "Point", "coordinates": [ 139.7288831, 35.6618885 ] } },
{ "type": "Feature", "properties": { "name": "J-POP CAFE", "lat": 35.6615211, "lon": 139.6974871 }, "geometry": { "type": "Point", "coordinates": [ 139.697487099999989, 35.6615211 ] } },
{ "type": "Feature", "properties": { "name": "Milkyway", "lat": 35.6624798, "lon": 139.697888 }, "geometry": { "type": "Point", "coordinates": [ 139.697888, 35.6624798 ] } },
{ "type": "Feature", "properties": { "name": "Tokyo Salon", "lat": 35.6638344, "lon": 139.7079309 }, "geometry": { "type": "Point", "coordinates": [ 139.7079309, 35.6638344 ] } },
{ "type": "Feature", "properties": { "name": "COVE", "lat": 35.6650572, "lon": 139.7352753 }, "geometry": { "type": "Point", "coordinates": [ 139.735275300000012, 35.6650572 ] } },
{ "type": "Feature", "properties": { "name": "bto", "lat": 35.701516, "lon": 139.7022139 }, "geometry": { "type": "Point", "coordinates": [ 139.7022139, 35.701516 ] } },
{ "type": "Feature", "properties": { "name": "Village Music Bar", "lat": 35.6822257, "lon": 139.7011111 }, "geometry": { "type": "Point", "coordinates": [ 139.7011111, 35.6822257 ] } },
{ "type": "Feature", "properties": { "name": "OnEdrop cafe", "lat": 35.6931252, "lon": 139.7778589 }, "geometry": { "type": "Point", "coordinates": [ 139.777858900000012, 35.6931252 ] } },
{ "type": "Feature", "properties": { "name": "Bar Come On Rock", "lat": 35.6595673, "lon": 139.6959064 }, "geometry": { "type": "Point", "coordinates": [ 139.695906400000013, 35.6595673 ] } },
{ "type": "Feature", "properties": { "name": "Rock no Cocoro", "lat": 35.6625524, "lon": 139.6969508 }, "geometry": { "type": "Point", "coordinates": [ 139.6969508, 35.6625524 ] } },
{ "type": "Feature", "properties": { "name": "FUTURE NATURE VALVE", "lat": 35.6918425, "lon": 139.7106301 }, "geometry": { "type": "Point", "coordinates": [ 139.7106301, 35.6918425 ] } },
{ "type": "Feature", "properties": { "name": "URGA", "lat": 35.6979124, "lon": 139.7017882 }, "geometry": { "type": "Point", "coordinates": [ 139.70178820000001, 35.6979124 ] } },
{ "type": "Feature", "properties": { "name": "ARTY FARTY", "lat": 35.6904407, "lon": 139.7072716 }, "geometry": { "type": "Point", "coordinates": [ 139.707271600000013, 35.6904407 ] } },
{ "type": "Feature", "properties": { "name": "Garam", "lat": 35.6939567, "lon": 139.7018042 }, "geometry": { "type": "Point", "coordinates": [ 139.7018042, 35.6939567 ] } },
{ "type": "Feature", "properties": { "name": "WWW", "lat": 35.6615117, "lon": 139.6987557 }, "geometry": { "type": "Point", "coordinates": [ 139.6987557, 35.6615117 ] } },
{ "type": "Feature", "properties": { "name": "OUTBREAK", "lat": 35.687658, "lon": 139.7251983 }, "geometry": { "type": "Point", "coordinates": [ 139.725198299999988, 35.687658 ] } },
{ "type": "Feature", "properties": { "name": "SHOWER LOUNGE PLUS", "lat": 35.6594915, "lon": 139.6983876 }, "geometry": { "type": "Point", "coordinates": [ 139.6983876, 35.6594915 ] } },
{ "type": "Feature", "properties": { "name": "CROCODILE", "lat": 35.6643682, "lon": 139.7026351 }, "geometry": { "type": "Point", "coordinates": [ 139.7026351, 35.6643682 ] } },
{ "type": "Feature", "properties": { "name": "Liaison", "lat": 35.6625524, "lon": 139.6969508 }, "geometry": { "type": "Point", "coordinates": [ 139.6969508, 35.6625524 ] } },
{ "type": "Feature", "properties": { "name": "eggman", "lat": 35.6643992, "lon": 139.6993843 }, "geometry": { "type": "Point", "coordinates": [ 139.6993843, 35.6643992 ] } },
{ "type": "Feature", "properties": { "name": "TONY Taste Of New York", "lat": 35.6604344, "lon": 139.726548 }, "geometry": { "type": "Point", "coordinates": [ 139.726548, 35.6604344 ] } },
{ "type": "Feature", "properties": { "name": "guest", "lat": 35.6595453, "lon": 139.6955556 }, "geometry": { "type": "Point", "coordinates": [ 139.6955556, 35.6595453 ] } },
{ "type": "Feature", "properties": { "name": "BAR W", "lat": 35.6985408, "lon": 139.6968921 }, "geometry": { "type": "Point", "coordinates": [ 139.696892100000014, 35.6985408 ] } },
{ "type": "Feature", "properties": { "name": "GRANDE", "lat": 35.6611705, "lon": 139.7002213 }, "geometry": { "type": "Point", "coordinates": [ 139.70022130000001, 35.6611705 ] } },
{ "type": "Feature", "properties": { "name": "WOMB LOUNGE", "lat": 35.6584268, "lon": 139.695051 }, "geometry": { "type": "Point", "coordinates": [ 139.695051, 35.6584268 ] } },
{ "type": "Feature", "properties": { "name": "FUNK TIME", "lat": 35.6958221, "lon": 139.7019258 }, "geometry": { "type": "Point", "coordinates": [ 139.7019258, 35.6958221 ] } },
{ "type": "Feature", "properties": { "name": "ROLLING STONE", "lat": 35.6918425, "lon": 139.7106301 }, "geometry": { "type": "Point", "coordinates": [ 139.7106301, 35.6918425 ] } },
{ "type": "Feature", "properties": { "name": "MARZ", "lat": 35.6963763, "lon": 139.7007003 }, "geometry": { "type": "Point", "coordinates": [ 139.7007003, 35.6963763 ] } },
{ "type": "Feature", "properties": { "name": "VILLAGE", "lat": 35.6569619, "lon": 139.7353052 }, "geometry": { "type": "Point", "coordinates": [ 139.7353052, 35.6569619 ] } },
{ "type": "Feature", "properties": { "name": "Gallery", "lat": 35.6616475, "lon": 139.7279841 }, "geometry": { "type": "Point", "coordinates": [ 139.727984099999986, 35.6616475 ] } },
{ "type": "Feature", "properties": { "name": "Galaxy Gingakei", "lat": 35.6648093, "lon": 139.7035064 }, "geometry": { "type": "Point", "coordinates": [ 139.7035064, 35.6648093 ] } },
{ "type": "Feature", "properties": { "name": "Brooklyn Parlor", "lat": 35.6901053, "lon": 139.7058564 }, "geometry": { "type": "Point", "coordinates": [ 139.705856399999988, 35.6901053 ] } },
{ "type": "Feature", "properties": { "name": "ThreeHundred Bar GINZA8", "lat": 35.6691674, "lon": 139.7591742 }, "geometry": { "type": "Point", "coordinates": [ 139.7591742, 35.6691674 ] } },
{ "type": "Feature", "properties": { "name": "TimeOut Café & Diner", "lat": 35.6490979, "lon": 139.7106403 }, "geometry": { "type": "Point", "coordinates": [ 139.7106403, 35.6490979 ] } },
{ "type": "Feature", "properties": { "name": "CAFE&BAR LX", "lat": 35.6582511, "lon": 139.6948567 }, "geometry": { "type": "Point", "coordinates": [ 139.6948567, 35.6582511 ] } },
{ "type": "Feature", "properties": { "name": "CLUB & DJ BAR BUMP", "lat": 35.694761, "lon": 139.7044223 }, "geometry": { "type": "Point", "coordinates": [ 139.7044223, 35.694761 ] } },
{ "type": "Feature", "properties": { "name": "GINZA MAGIC", "lat": 35.6691093, "lon": 139.7619262 }, "geometry": { "type": "Point", "coordinates": [ 139.7619262, 35.6691093 ] } },
{ "type": "Feature", "properties": { "name": "morph-tokyo", "lat": 35.6642349, "lon": 139.7315452 }, "geometry": { "type": "Point", "coordinates": [ 139.7315452, 35.6642349 ] } },
{ "type": "Feature", "properties": { "name": "dining&bar KITSUNE", "lat": 35.6533815, "lon": 139.7090479 }, "geometry": { "type": "Point", "coordinates": [ 139.7090479, 35.6533815 ] } },
{ "type": "Feature", "properties": { "name": "TSUTAYA O-EAST", "lat": 35.6586841, "lon": 139.6956445 }, "geometry": { "type": "Point", "coordinates": [ 139.695644499999986, 35.6586841 ] } },
{ "type": "Feature", "properties": { "name": "SHIBUYA DESEO", "lat": 35.6583624, "lon": 139.6957216 }, "geometry": { "type": "Point", "coordinates": [ 139.695721600000013, 35.6583624 ] } },
{ "type": "Feature", "properties": { "name": "URBAN TRAIN", "lat": 35.6669374, "lon": 139.7568745 }, "geometry": { "type": "Point", "coordinates": [ 139.7568745, 35.6669374 ] } },
{ "type": "Feature", "properties": { "name": "LINE CLUB", "lat": 35.6624795, "lon": 139.7352278 }, "geometry": { "type": "Point", "coordinates": [ 139.7352278, 35.6624795 ] } },
{ "type": "Feature", "properties": { "name": "UNDER DEER LOUNGE", "lat": 35.6647282, "lon": 139.7012289 }, "geometry": { "type": "Point", "coordinates": [ 139.7012289, 35.6647282 ] } },
{ "type": "Feature", "properties": { "name": "JKB", "lat": 35.662308, "lon": 139.7351621 }, "geometry": { "type": "Point", "coordinates": [ 139.7351621, 35.662308 ] } },
{ "type": "Feature", "properties": { "name": "yanagi", "lat": 35.700992, "lon": 139.8256383 }, "geometry": { "type": "Point", "coordinates": [ 139.8256383, 35.700992 ] } },
{ "type": "Feature", "properties": { "name": "Club Jamaica", "lat": 35.643212, "lon": 139.733586 }, "geometry": { "type": "Point", "coordinates": [ 139.733586, 35.643212 ] } },
{ "type": "Feature", "properties": { "name": "studio FORUM", "lat": 35.6616341, "lon": 139.7352446 }, "geometry": { "type": "Point", "coordinates": [ 139.735244599999987, 35.6616341 ] } },
{ "type": "Feature", "properties": { "name": "BE-WAVE", "lat": 35.69426, "lon": 139.7022567 }, "geometry": { "type": "Point", "coordinates": [ 139.7022567, 35.69426 ] } },
{ "type": "Feature", "properties": { "name": "DECABAR 超", "lat": 35.6948768, "lon": 139.7034369 }, "geometry": { "type": "Point", "coordinates": [ 139.703436900000014, 35.6948768 ] } },
{ "type": "Feature", "properties": { "name": "unique LABORATORY", "lat": 35.701516, "lon": 139.7022139 }, "geometry": { "type": "Point", "coordinates": [ 139.7022139, 35.701516 ] } },
{ "type": "Feature", "properties": { "name": "Bamboo Grass", "lat": 35.6642349, "lon": 139.7315452 }, "geometry": { "type": "Point", "coordinates": [ 139.7315452, 35.6642349 ] } },
{ "type": "Feature", "properties": { "name": "ROYAL", "lat": 35.6957552, "lon": 139.7052332 }, "geometry": { "type": "Point", "coordinates": [ 139.7052332, 35.6957552 ] } },
{ "type": "Feature", "properties": { "name": "Christon Cafe", "lat": 35.6929413, "lon": 139.7052152 }, "geometry": { "type": "Point", "coordinates": [ 139.7052152, 35.6929413 ] } },
{ "type": "Feature", "properties": { "name": "Icon", "lat": 35.6599995, "lon": 139.6959643 }, "geometry": { "type": "Point", "coordinates": [ 139.695964300000014, 35.6599995 ] } },
{ "type": "Feature", "properties": { "name": "spade", "lat": 35.6632913, "lon": 139.733461 }, "geometry": { "type": "Point", "coordinates": [ 139.733461, 35.6632913 ] } },
{ "type": "Feature", "properties": { "name": "Bar Lounge INDIGO", "lat": 35.6629688, "lon": 139.7343272 }, "geometry": { "type": "Point", "coordinates": [ 139.7343272, 35.6629688 ] } },
{ "type": "Feature", "properties": { "name": "HIVE", "lat": 35.6625613, "lon": 139.7341722 }, "geometry": { "type": "Point", "coordinates": [ 139.734172199999989, 35.6625613 ] } },
{ "type": "Feature", "properties": { "name": "CHELSEA HOTEL", "lat": 35.6624798, "lon": 139.697888 }, "geometry": { "type": "Point", "coordinates": [ 139.697888, 35.6624798 ] } },
{ "type": "Feature", "properties": { "name": "ACID PANDA CAFE", "lat": 35.6569843, "lon": 139.6955264 }, "geometry": { "type": "Point", "coordinates": [ 139.6955264, 35.6569843 ] } },
{ "type": "Feature", "properties": { "name": "CLUB HAZARD", "lat": 35.6551275, "lon": 139.6939618 }, "geometry": { "type": "Point", "coordinates": [ 139.693961800000011, 35.6551275 ] } },
{ "type": "Feature", "properties": { "name": "cafe ATLANTIS", "lat": 35.6651715, "lon": 139.7128739 }, "geometry": { "type": "Point", "coordinates": [ 139.7128739, 35.6651715 ] } },
{ "type": "Feature", "properties": { "name": "Paradis TOKYO", "lat": 35.6647207, "lon": 139.7335553 }, "geometry": { "type": "Point", "coordinates": [ 139.7335553, 35.6647207 ] } },
{ "type": "Feature", "properties": { "name": "P.C.A. PUB CARDINAL AKASAKA", "lat": 35.673049, "lon": 139.7362794 }, "geometry": { "type": "Point", "coordinates": [ 139.7362794, 35.673049 ] } },
{ "type": "Feature", "properties": { "name": "XEX Nihonbashi", "lat": 35.68734, "lon": 139.7739343 }, "geometry": { "type": "Point", "coordinates": [ 139.7739343, 35.68734 ] } },
{ "type": "Feature", "properties": { "name": "LUSH", "lat": 35.660543, "lon": 139.7049588 }, "geometry": { "type": "Point", "coordinates": [ 139.704958800000014, 35.660543 ] } },
{ "type": "Feature", "properties": { "name": "FICTION UG", "lat": 35.674978, "lon": 139.7105852 }, "geometry": { "type": "Point", "coordinates": [ 139.7105852, 35.674978 ] } },
{ "type": "Feature", "properties": { "name": "GOOD LIFE LOUNGE", "lat": 35.6755446, "lon": 139.7068968 }, "geometry": { "type": "Point", "coordinates": [ 139.70689680000001, 35.6755446 ] } },
{ "type": "Feature", "properties": { "name": "MILWAUKEE BAR", "lat": 35.6622593, "lon": 139.7351976 }, "geometry": { "type": "Point", "coordinates": [ 139.7351976, 35.6622593 ] } },
{ "type": "Feature", "properties": { "name": "P.C.M. PUB CARDINAL MARUNOUCHI", "lat": 35.6784953, "lon": 139.7649771 }, "geometry": { "type": "Point", "coordinates": [ 139.76497710000001, 35.6784953 ] } },
{ "type": "Feature", "properties": { "name": "しぶや花魁", "lat": 35.659715, "lon": 139.6955557 }, "geometry": { "type": "Point", "coordinates": [ 139.6955557, 35.659715 ] } },
{ "type": "Feature", "properties": { "name": "CLUB CRAWL", "lat": 35.654636, "lon": 139.7084726 }, "geometry": { "type": "Point", "coordinates": [ 139.7084726, 35.654636 ] } },
{ "type": "Feature", "properties": { "name": "TRUMPROOM", "lat": 35.662927, "lon": 139.7005607 }, "geometry": { "type": "Point", "coordinates": [ 139.700560700000011, 35.662927 ] } },
{ "type": "Feature", "properties": { "name": "SOUL SMOOTH cafe", "lat": 35.6610561, "lon": 139.69722 }, "geometry": { "type": "Point", "coordinates": [ 139.69722, 35.6610561 ] } },
{ "type": "Feature", "properties": { "name": "新宿ドゥースラー", "lat": 35.6898762, "lon": 139.7030071 }, "geometry": { "type": "Point", "coordinates": [ 139.7030071, 35.6898762 ] } },
{ "type": "Feature", "properties": { "name": "JUMP", "lat": 35.6625524, "lon": 139.6969508 }, "geometry": { "type": "Point", "coordinates": [ 139.6969508, 35.6625524 ] } },
{ "type": "Feature", "properties": { "name": "Cafe Apres-midi", "lat": 35.6649344, "lon": 139.7015669 }, "geometry": { "type": "Point", "coordinates": [ 139.701566899999989, 35.6649344 ] } },
{ "type": "Feature", "properties": { "name": "JZ Brat SOUND OF TOKYO", "lat": 35.6564093, "lon": 139.6993541 }, "geometry": { "type": "Point", "coordinates": [ 139.6993541, 35.6564093 ] } },
{ "type": "Feature", "properties": { "name": "REDSHOES", "lat": 35.6594725, "lon": 139.7172072 }, "geometry": { "type": "Point", "coordinates": [ 139.7172072, 35.6594725 ] } },
{ "type": "Feature", "properties": { "name": "the fashion cafe", "lat": 35.6569619, "lon": 139.7353052 }, "geometry": { "type": "Point", "coordinates": [ 139.7353052, 35.6569619 ] } },
{ "type": "Feature", "properties": { "name": "jokers Bar", "lat": 35.6623598, "lon": 139.7352481 }, "geometry": { "type": "Point", "coordinates": [ 139.7352481, 35.6623598 ] } },
{ "type": "Feature", "properties": { "name": "DJ LOUNGE SONORA", "lat": 35.6649259, "lon": 139.7278073 }, "geometry": { "type": "Point", "coordinates": [ 139.7278073, 35.6649259 ] } },
{ "type": "Feature", "properties": { "name": "PEARL TOKYO", "lat": 35.6608109, "lon": 139.7261258 }, "geometry": { "type": "Point", "coordinates": [ 139.7261258, 35.6608109 ] } },
{ "type": "Feature", "properties": { "name": "style MINAMIAOYAMA", "lat": 35.6684797, "lon": 139.7164937 }, "geometry": { "type": "Point", "coordinates": [ 139.7164937, 35.6684797 ] } },
{ "type": "Feature", "properties": { "name": "Envvy the sonic space", "lat": 35.6649004, "lon": 139.7278571 }, "geometry": { "type": "Point", "coordinates": [ 139.7278571, 35.6649004 ] } },
{ "type": "Feature", "properties": { "name": "Bar audio!", "lat": 35.6465397, "lon": 139.7076616 }, "geometry": { "type": "Point", "coordinates": [ 139.7076616, 35.6465397 ] } },
{ "type": "Feature", "properties": { "name": "JAM Renaissance", "lat": 35.662971, "lon": 139.7100435 }, "geometry": { "type": "Point", "coordinates": [ 139.710043500000012, 35.662971 ] } },
{ "type": "Feature", "properties": { "name": "Studio Cube326", "lat": 35.6443579, "lon": 139.7555848 }, "geometry": { "type": "Point", "coordinates": [ 139.7555848, 35.6443579 ] } },
{ "type": "Feature", "properties": { "name": "Shibuya Aurra", "lat": 35.6564106, "lon": 139.7010796 }, "geometry": { "type": "Point", "coordinates": [ 139.701079600000014, 35.6564106 ] } },
{ "type": "Feature", "properties": { "name": "Bar Quest", "lat": 35.6620882, "lon": 139.7332945 }, "geometry": { "type": "Point", "coordinates": [ 139.7332945, 35.6620882 ] } },
{ "type": "Feature", "properties": { "name": "RISTORAZIONE LE G.A", "lat": 35.6648842, "lon": 139.7297933 }, "geometry": { "type": "Point", "coordinates": [ 139.729793300000011, 35.6648842 ] } },
{ "type": "Feature", "properties": { "name": "O FLOOR", "lat": 35.659715, "lon": 139.6955557 }, "geometry": { "type": "Point", "coordinates": [ 139.6955557, 35.659715 ] } },
{ "type": "Feature", "properties": { "name": "THE SPACE", "lat": 35.6723179, "lon": 139.7217362 }, "geometry": { "type": "Point", "coordinates": [ 139.7217362, 35.6723179 ] } },
{ "type": "Feature", "properties": { "name": "ALAMAS CAFE", "lat": 35.6902607, "lon": 139.7079608 }, "geometry": { "type": "Point", "coordinates": [ 139.7079608, 35.6902607 ] } },
{ "type": "Feature", "properties": { "name": "bar SHIFTY", "lat": 35.6555319, "lon": 139.705986 }, "geometry": { "type": "Point", "coordinates": [ 139.705986, 35.6555319 ] } },
{ "type": "Feature", "properties": { "name": "RUBY ROOM", "lat": 35.659583, "lon": 139.6976588 }, "geometry": { "type": "Point", "coordinates": [ 139.6976588, 35.659583 ] } },
{ "type": "Feature", "properties": { "name": "EN SOF TOKYO", "lat": 35.6601085, "lon": 139.6961331 }, "geometry": { "type": "Point", "coordinates": [ 139.6961331, 35.6601085 ] } },
{ "type": "Feature", "properties": { "name": "Lounge KARASU", "lat": 35.657022, "lon": 139.6970644 }, "geometry": { "type": "Point", "coordinates": [ 139.697064399999988, 35.657022 ] } },
{ "type": "Feature", "properties": { "name": "CLUB HEAVY SICK", "lat": 35.6752316, "lon": 139.6783664 }, "geometry": { "type": "Point", "coordinates": [ 139.678366399999987, 35.6752316 ] } },
{ "type": "Feature", "properties": { "name": "DJ Bar SIGNAL", "lat": 35.7119504, "lon": 139.7071928 }, "geometry": { "type": "Point", "coordinates": [ 139.7071928, 35.7119504 ] } },
{ "type": "Feature", "properties": { "name": "soup", "lat": 35.7108616, "lon": 139.6839179 }, "geometry": { "type": "Point", "coordinates": [ 139.683917900000012, 35.7108616 ] } },
{ "type": "Feature", "properties": { "name": "duo MUSIC EXCHANGE", "lat": 35.6587215, "lon": 139.6956111 }, "geometry": { "type": "Point", "coordinates": [ 139.6956111, 35.6587215 ] } },
{ "type": "Feature", "properties": { "name": "BLUE NOTE TOKYO", "lat": 35.6611138, "lon": 139.7162609 }, "geometry": { "type": "Point", "coordinates": [ 139.7162609, 35.6611138 ] } },
{ "type": "Feature", "properties": { "name": "CUBE", "lat": 35.6605216, "lon": 139.7390373 }, "geometry": { "type": "Point", "coordinates": [ 139.7390373, 35.6605216 ] } },
{ "type": "Feature", "properties": { "name": "Le Baron de Paris", "lat": 35.6674254, "lon": 139.7151324 }, "geometry": { "type": "Point", "coordinates": [ 139.715132399999987, 35.6674254 ] } },
{ "type": "Feature", "properties": { "name": "Bar Jam", "lat": 35.647793, "lon": 139.7081702 }, "geometry": { "type": "Point", "coordinates": [ 139.708170200000012, 35.647793 ] } },
{ "type": "Feature", "properties": { "name": "enjoy!house", "lat": 35.6491559, "lon": 139.7072327 }, "geometry": { "type": "Point", "coordinates": [ 139.7072327, 35.6491559 ] } },
{ "type": "Feature", "properties": { "name": "SuperDeluxe", "lat": 35.6607579, "lon": 139.7274714 }, "geometry": { "type": "Point", "coordinates": [ 139.727471400000013, 35.6607579 ] } },
{ "type": "Feature", "properties": { "name": "UNDERBAR", "lat": 35.6636066, "lon": 139.699374 }, "geometry": { "type": "Point", "coordinates": [ 139.699374, 35.6636066 ] } },
{ "type": "Feature", "properties": { "name": "Organ Bar", "lat": 35.6624804, "lon": 139.6977086 }, "geometry": { "type": "Point", "coordinates": [ 139.6977086, 35.6624804 ] } },
{ "type": "Feature", "properties": { "name": "NOSTYLE", "lat": 35.6575691, "lon": 139.6985768 }, "geometry": { "type": "Point", "coordinates": [ 139.698576800000012, 35.6575691 ] } },
{ "type": "Feature", "properties": { "name": "Lounge Opera", "lat": 35.6645616, "lon": 139.7394963 }, "geometry": { "type": "Point", "coordinates": [ 139.739496300000013, 35.6645616 ] } },
{ "type": "Feature", "properties": { "name": "THE NEW MATRIX BAR", "lat": 35.6628959, "lon": 139.734048 }, "geometry": { "type": "Point", "coordinates": [ 139.734048, 35.6628959 ] } },
{ "type": "Feature", "properties": { "name": "SOUL SONIC BOOGIE", "lat": 35.6612086, "lon": 139.737256 }, "geometry": { "type": "Point", "coordinates": [ 139.737256, 35.6612086 ] } },
{ "type": "Feature", "properties": { "name": "NeoMasquerade", "lat": 35.6915437, "lon": 139.7085891 }, "geometry": { "type": "Point", "coordinates": [ 139.708589100000012, 35.6915437 ] } },
{ "type": "Feature", "properties": { "name": "AISOTOPE LOUNGE", "lat": 35.6904666, "lon": 139.707871 }, "geometry": { "type": "Point", "coordinates": [ 139.707871, 35.6904666 ] } },
{ "type": "Feature", "properties": { "name": "CASABLANCA", "lat": 35.6942082, "lon": 139.702788 }, "geometry": { "type": "Point", "coordinates": [ 139.702788, 35.6942082 ] } },
{ "type": "Feature", "properties": { "name": "NEON", "lat": 35.674846, "lon": 139.7124577 }, "geometry": { "type": "Point", "coordinates": [ 139.712457699999987, 35.674846 ] } },
{ "type": "Feature", "properties": { "name": "Edge End", "lat": 35.6572087, "lon": 139.6969676 }, "geometry": { "type": "Point", "coordinates": [ 139.6969676, 35.6572087 ] } },
{ "type": "Feature", "properties": { "name": "Tomodachi Lounge", "lat": 35.6620101, "lon": 139.7345733 }, "geometry": { "type": "Point", "coordinates": [ 139.7345733, 35.6620101 ] } },
{ "type": "Feature", "properties": { "name": "328", "lat": 35.6595105, "lon": 139.7238011 }, "geometry": { "type": "Point", "coordinates": [ 139.7238011, 35.6595105 ] } },
{ "type": "Feature", "properties": { "name": "BULLET’S", "lat": 35.6610452, "lon": 139.7262188 }, "geometry": { "type": "Point", "coordinates": [ 139.7262188, 35.6610452 ] } },
{ "type": "Feature", "properties": { "name": "club bar FAMILY", "lat": 35.6606844, "lon": 139.7050691 }, "geometry": { "type": "Point", "coordinates": [ 139.7050691, 35.6606844 ] } },
{ "type": "Feature", "properties": { "name": "Club CACTUS", "lat": 35.6681585, "lon": 139.7267942 }, "geometry": { "type": "Point", "coordinates": [ 139.7267942, 35.6681585 ] } },
{ "type": "Feature", "properties": { "name": "ROOTS", "lat": 35.6623354, "lon": 139.6974593 }, "geometry": { "type": "Point", "coordinates": [ 139.6974593, 35.6623354 ] } },
{ "type": "Feature", "properties": { "name": "PLUG IN STUDIO", "lat": 35.6601536, "lon": 139.7010017 }, "geometry": { "type": "Point", "coordinates": [ 139.7010017, 35.6601536 ] } },
{ "type": "Feature", "properties": { "name": "ATLAS", "lat": 35.656595, "lon": 139.6957 }, "geometry": { "type": "Point", "coordinates": [ 139.6957, 35.656595 ] } },
{ "type": "Feature", "properties": { "name": "SOUND MUSEUM VISION", "lat": 35.6580937, "lon": 139.6971203 }, "geometry": { "type": "Point", "coordinates": [ 139.6971203, 35.6580937 ] } },
{ "type": "Feature", "properties": { "name": "GP BAR", "lat": 35.6624746, "lon": 139.7345153 }, "geometry": { "type": "Point", "coordinates": [ 139.7345153, 35.6624746 ] } },
{ "type": "Feature", "properties": { "name": "SECO", "lat": 35.6610321, "lon": 139.70448 }, "geometry": { "type": "Point", "coordinates": [ 139.70448, 35.6610321 ] } },
{ "type": "Feature", "properties": { "name": "27destiny", "lat": 35.658306, "lon": 139.6952739 }, "geometry": { "type": "Point", "coordinates": [ 139.695273899999989, 35.658306 ] } },
{ "type": "Feature", "properties": { "name": "shibuya THE GAME", "lat": 35.6624798, "lon": 139.697888 }, "geometry": { "type": "Point", "coordinates": [ 139.697888, 35.6624798 ] } },
{ "type": "Feature", "properties": { "name": "Club ELF", "lat": 35.6603027, "lon": 139.7081104 }, "geometry": { "type": "Point", "coordinates": [ 139.70811040000001, 35.6603027 ] } },
{ "type": "Feature", "properties": { "name": "GENIUS TOKYO", "lat": 35.6713379, "lon": 139.7617029 }, "geometry": { "type": "Point", "coordinates": [ 139.761702899999989, 35.6713379 ] } },
{ "type": "Feature", "properties": { "name": "KOARA", "lat": 35.6639874, "lon": 139.7004111 }, "geometry": { "type": "Point", "coordinates": [ 139.7004111, 35.6639874 ] } },
{ "type": "Feature", "properties": { "name": "GASPANIC Center-Gai", "lat": 35.6600176, "lon": 139.700102 }, "geometry": { "type": "Point", "coordinates": [ 139.700102, 35.6600176 ] } },
{ "type": "Feature", "properties": { "name": "MICROCOSMOS", "lat": 35.659687, "lon": 139.7014882 }, "geometry": { "type": "Point", "coordinates": [ 139.7014882, 35.659687 ] } },
{ "type": "Feature", "properties": { "name": "VUENOS", "lat": 35.6589959, "lon": 139.6955503 }, "geometry": { "type": "Point", "coordinates": [ 139.6955503, 35.6589959 ] } },
{ "type": "Feature", "properties": { "name": "LOUNGE NEO", "lat": 35.6589959, "lon": 139.6955503 }, "geometry": { "type": "Point", "coordinates": [ 139.6955503, 35.6589959 ] } },
{ "type": "Feature", "properties": { "name": "UCESS THE LOUNGE", "lat": 35.6696267, "lon": 139.7066258 }, "geometry": { "type": "Point", "coordinates": [ 139.706625800000012, 35.6696267 ] } },
{ "type": "Feature", "properties": { "name": "Vanilla Mood", "lat": 35.6619789, "lon": 139.7274933 }, "geometry": { "type": "Point", "coordinates": [ 139.7274933, 35.6619789 ] } },
{ "type": "Feature", "properties": { "name": "ODEON TOKYO", "lat": 35.6623598, "lon": 139.7352481 }, "geometry": { "type": "Point", "coordinates": [ 139.7352481, 35.6623598 ] } },
{ "type": "Feature", "properties": { "name": "IBEX TOKYO", "lat": 35.663129, "lon": 139.7330944 }, "geometry": { "type": "Point", "coordinates": [ 139.7330944, 35.663129 ] } },
{ "type": "Feature", "properties": { "name": "NEW PLANET TOKYO", "lat": 35.6631951, "lon": 139.7333986 }, "geometry": { "type": "Point", "coordinates": [ 139.733398599999987, 35.6631951 ] } },
{ "type": "Feature", "properties": { "name": "24\/7 TWENTY FOUR SEVEN", "lat": 35.6625667, "lon": 139.734926 }, "geometry": { "type": "Point", "coordinates": [ 139.734926, 35.6625667 ] } },
{ "type": "Feature", "properties": { "name": "BAR MIST ex. GREEN LAND", "lat": 35.6624795, "lon": 139.7352278 }, "geometry": { "type": "Point", "coordinates": [ 139.7352278, 35.6624795 ] } },
{ "type": "Feature", "properties": { "name": "ever", "lat": 35.6608612, "lon": 139.7156131 }, "geometry": { "type": "Point", "coordinates": [ 139.715613100000013, 35.6608612 ] } },
{ "type": "Feature", "properties": { "name": "Aoyama Tunnel", "lat": 35.6586497, "lon": 139.709214 }, "geometry": { "type": "Point", "coordinates": [ 139.709214, 35.6586497 ] } },
{ "type": "Feature", "properties": { "name": "OATH", "lat": 35.6577479, "lon": 139.6991906 }, "geometry": { "type": "Point", "coordinates": [ 139.6991906, 35.6577479 ] } },
{ "type": "Feature", "properties": { "name": "LIQUIDROOM", "lat": 35.6490979, "lon": 139.7106403 }, "geometry": { "type": "Point", "coordinates": [ 139.7106403, 35.6490979 ] } },
{ "type": "Feature", "properties": { "name": "SALOON", "lat": 35.6470877, "lon": 139.7023197 }, "geometry": { "type": "Point", "coordinates": [ 139.7023197, 35.6470877 ] } },
{ "type": "Feature", "properties": { "name": "JICOO", "lat": 35.6505105, "lon": 139.7603609 }, "geometry": { "type": "Point", "coordinates": [ 139.7603609, 35.6505105 ] } },
{ "type": "Feature", "properties": { "name": "FETTI", "lat": 35.6624795, "lon": 139.7352278 }, "geometry": { "type": "Point", "coordinates": [ 139.7352278, 35.6624795 ] } },
{ "type": "Feature", "properties": { "name": "UNIT", "lat": 35.6470877, "lon": 139.7023197 }, "geometry": { "type": "Point", "coordinates": [ 139.7023197, 35.6470877 ] } },
{ "type": "Feature", "properties": { "name": "OTO", "lat": 35.6942153, "lon": 139.7012987 }, "geometry": { "type": "Point", "coordinates": [ 139.7012987, 35.6942153 ] } },
{ "type": "Feature", "properties": { "name": "ArcH", "lat": 35.690086, "lon": 139.7077713 }, "geometry": { "type": "Point", "coordinates": [ 139.7077713, 35.690086 ] } },
{ "type": "Feature", "properties": { "name": "ColoR. Tokyo Night Cafe", "lat": 35.6592102, "lon": 139.7325451 }, "geometry": { "type": "Point", "coordinates": [ 139.73254510000001, 35.6592102 ] } },
{ "type": "Feature", "properties": { "name": "module", "lat": 35.6612574, "lon": 139.6963824 }, "geometry": { "type": "Point", "coordinates": [ 139.6963824, 35.6612574 ] } },
{ "type": "Feature", "properties": { "name": "fai aoyama", "lat": 35.6627591, "lon": 139.7110275 }, "geometry": { "type": "Point", "coordinates": [ 139.7110275, 35.6627591 ] } },
{ "type": "Feature", "properties": { "name": "THE FIRST HOUSE", "lat": 35.6616997, "lon": 139.735385 }, "geometry": { "type": "Point", "coordinates": [ 139.735385, 35.6616997 ] } },
{ "type": "Feature", "properties": { "name": "BAR LIGHT", "lat": 35.6616997, "lon": 139.735385 }, "geometry": { "type": "Point", "coordinates": [ 139.735385, 35.6616997 ] } },
{ "type": "Feature", "properties": { "name": "LOOP", "lat": 35.6610578, "lon": 139.7079111 }, "geometry": { "type": "Point", "coordinates": [ 139.7079111, 35.6610578 ] } },
{ "type": "Feature", "properties": { "name": "HARLEM", "lat": 35.658306, "lon": 139.6952739 }, "geometry": { "type": "Point", "coordinates": [ 139.695273899999989, 35.658306 ] } },
{ "type": "Feature", "properties": { "name": "DIX", "lat": 35.6564502, "lon": 139.7348508 }, "geometry": { "type": "Point", "coordinates": [ 139.7348508, 35.6564502 ] } },
{ "type": "Feature", "properties": { "name": "Wall Street House", "lat": 35.6631951, "lon": 139.7333986 }, "geometry": { "type": "Point", "coordinates": [ 139.733398599999987, 35.6631951 ] } },
{ "type": "Feature", "properties": { "name": "MAHARAJA 六本木", "lat": 35.6627267, "lon": 139.7322322 }, "geometry": { "type": "Point", "coordinates": [ 139.7322322, 35.6627267 ] } },
{ "type": "Feature", "properties": { "name": "New Lex Tokyo (Lex Tokyo)", "lat": 35.6629041, "lon": 139.7338373 }, "geometry": { "type": "Point", "coordinates": [ 139.7338373, 35.6629041 ] } },
{ "type": "Feature", "properties": { "name": "西麻布MUSE", "lat": 35.6593708, "lon": 139.7232526 }, "geometry": { "type": "Point", "coordinates": [ 139.7232526, 35.6593708 ] } },
{ "type": "Feature", "properties": { "name": "eleven", "lat": 35.6610436, "lon": 139.7241151 }, "geometry": { "type": "Point", "coordinates": [ 139.7241151, 35.6610436 ] } },
{ "type": "Feature", "properties": { "name": "THE ROOM", "lat": 35.6564569, "lon": 139.7016045 }, "geometry": { "type": "Point", "coordinates": [ 139.7016045, 35.6564569 ] } },
{ "type": "Feature", "properties": { "name": "Club BALL", "lat": 35.6624804, "lon": 139.6977086 }, "geometry": { "type": "Point", "coordinates": [ 139.6977086, 35.6624804 ] } },
{ "type": "Feature", "properties": { "name": "R Lounge", "lat": 35.6624798, "lon": 139.697888 }, "geometry": { "type": "Point", "coordinates": [ 139.697888, 35.6624798 ] } },
{ "type": "Feature", "properties": { "name": "WOMB", "lat": 35.6584268, "lon": 139.695051 }, "geometry": { "type": "Point", "coordinates": [ 139.695051, 35.6584268 ] } },
{ "type": "Feature", "properties": { "name": "club asia", "lat": 35.6590178, "lon": 139.6953307 }, "geometry": { "type": "Point", "coordinates": [ 139.6953307, 35.6590178 ] } },
{ "type": "Feature", "properties": { "name": "amate-raxi", "lat": 35.6541654, "lon": 139.7055971 }, "geometry": { "type": "Point", "coordinates": [ 139.7055971, 35.6541654 ] } },
{ "type": "Feature", "properties": { "name": "AIR", "lat": 35.6533025, "lon": 139.7045199 }, "geometry": { "type": "Point", "coordinates": [ 139.7045199, 35.6533025 ] } },
{ "type": "Feature", "properties": { "name": "Ginza Roots Tokyo", "lat": 35.6742727, "lon": 139.7666442 }, "geometry": { "type": "Point", "coordinates": [ 139.7666442, 35.6742727 ] } },
{ "type": "Feature", "properties": { "name": "砂漠の薔薇", "lat": 35.674383, "lon": 139.7660466 }, "geometry": { "type": "Point", "coordinates": [ 139.76604660000001, 35.674383 ] } },
{ "type": "Feature", "properties": { "name": "AOYAMA HACHI", "lat": 35.6586497, "lon": 139.709214 }, "geometry": { "type": "Point", "coordinates": [ 139.709214, 35.6586497 ] } },
{ "type": "Feature", "properties": { "name": "Club axxcis Shinjuku", "lat": 35.6957333, "lon": 139.7036734 }, "geometry": { "type": "Point", "coordinates": [ 139.703673400000014, 35.6957333 ] } },
{ "type": "Feature", "properties": { "name": "JUMANJI 55", "lat": 35.6631951, "lon": 139.7333986 }, "geometry": { "type": "Point", "coordinates": [ 139.733398599999987, 35.6631951 ] } },
{ "type": "Feature", "properties": { "name": "BLACK HORSE", "lat": 35.6625018, "lon": 139.7343547 }, "geometry": { "type": "Point", "coordinates": [ 139.734354700000011, 35.6625018 ] } },
{ "type": "Feature", "properties": { "name": "CLUB DIANA", "lat": 35.674214, "lon": 139.76008 }, "geometry": { "type": "Point", "coordinates": [ 139.76008, 35.674214 ] } },
{ "type": "Feature", "properties": { "name": "ATOM TOKYO", "lat": 35.658306, "lon": 139.6952739 }, "geometry": { "type": "Point", "coordinates": [ 139.695273899999989, 35.658306 ] } },
{ "type": "Feature", "properties": { "name": "Club Camelot", "lat": 35.6628751, "lon": 139.7001055 }, "geometry": { "type": "Point", "coordinates": [ 139.7001055, 35.6628751 ] } },
{ "type": "Feature", "properties": { "name": "Club axxcis Shibuya", "lat": 35.6552298, "lon": 139.7048989 }, "geometry": { "type": "Point", "coordinates": [ 139.704898899999989, 35.6552298 ] } },
{ "type": "Feature", "properties": { "name": "ESPRIT TOKYO", "lat": 35.6626352, "lon": 139.73313 }, "geometry": { "type": "Point", "coordinates": [ 139.73313, 35.6626352 ] } },
{ "type": "Feature", "properties": { "name": "FERIA TOKYO", "lat": 35.6640238, "lon": 139.7305105 }, "geometry": { "type": "Point", "coordinates": [ 139.7305105, 35.6640238 ] } },
{ "type": "Feature", "properties": { "name": "WAREHOUSE702", "lat": 35.6569619, "lon": 139.7353052 }, "geometry": { "type": "Point", "coordinates": [ 139.7353052, 35.6569619 ] } },
{ "type": "Feature", "properties": { "name": "ageHa", "lat": 35.6421835, "lon": 139.8253785 }, "geometry": { "type": "Point", "coordinates": [ 139.8253785, 35.6421835 ] } },
{ "type": "Feature", "properties": { "name": "VANITY RESTAURANT TOKYO", "lat": 35.6620101, "lon": 139.7345733 }, "geometry": { "type": "Point", "coordinates": [ 139.7345733, 35.6620101 ] } }
]
}
