{
"type": "FeatureCollection",
"crs": { "type": "name", "properties": { "name": "urn:ogc:def:crs:OGC:1.3:CRS84" } },
"features": [
{ "type": "Feature", "properties": { "name": "蒼", "lat": 35.6597076, "lon": 139.7253875 }, "geometry": { "type": "Point", "coordinates": [ 139.725387500000011, 35.6597076 ] } },
{ "type": "Feature", "properties": { "name": "アカ", "lat": 35.686372, "lon": 139.7731296 }, "geometry": { "type": "Point", "coordinates": [ 139.7731296, 35.686372 ] } },
{ "type": "Feature", "properties": { "name": "赤坂 詠月", "lat": 35.6745648, "lon": 139.7375604 }, "geometry": { "type": "Point", "coordinates": [ 139.7375604, 35.6745648 ] } },
{ "type": "Feature", "properties": { "name": "赤坂おぎ乃", "lat": 35.6708827, "lon": 139.7352614 }, "geometry": { "type": "Point", "coordinates": [ 139.735261400000013, 35.6708827 ] } },
{ "type": "Feature", "properties": { "name": "赤坂 菊乃井", "lat": 35.6699391, "lon": 139.7340557 }, "geometry": { "type": "Point", "coordinates": [ 139.7340557, 35.6699391 ] } },
{ "type": "Feature", "properties": { "name": "赤坂 きた福", "lat": 35.6730582, "lon": 139.7377192 }, "geometry": { "type": "Point", "coordinates": [ 139.737719199999987, 35.6730582 ] } },
{ "type": "Feature", "properties": { "name": "赤坂 らいもん", "lat": 35.6768672, "lon": 139.7362432 }, "geometry": { "type": "Point", "coordinates": [ 139.7362432, 35.6768672 ] } },
{ "type": "Feature", "properties": { "name": "ASAHINA Gastronome", "lat": 35.6803869, "lon": 139.7790366 }, "geometry": { "type": "Point", "coordinates": [ 139.779036600000012, 35.6803869 ] } },
{ "type": "Feature", "properties": { "name": "麻布 かどわき", "lat": 35.6559432, "lon": 139.7335607 }, "geometry": { "type": "Point", "coordinates": [ 139.7335607, 35.6559432 ] } },
{ "type": "Feature", "properties": { "name": "麻布室井", "lat": 35.6710873, "lon": 139.7631833 }, "geometry": { "type": "Point", "coordinates": [ 139.7631833, 35.6710873 ] } },
{ "type": "Feature", "properties": { "name": "麻布 幸村", "lat": 35.6573283, "lon": 139.7329213 }, "geometry": { "type": "Point", "coordinates": [ 139.732921299999987, 35.6573283 ] } },
{ "type": "Feature", "properties": { "name": "味満ん", "lat": 35.663284, "lon": 139.7345874 }, "geometry": { "type": "Point", "coordinates": [ 139.7345874, 35.663284 ] } },
{ "type": "Feature", "properties": { "name": "味幸", "lat": 35.6698099, "lon": 139.77769 }, "geometry": { "type": "Point", "coordinates": [ 139.77769, 35.6698099 ] } },
{ "type": "Feature", "properties": { "name": "AZUR et MASA UEKI", "lat": 35.6610177, "lon": 139.721816 }, "geometry": { "type": "Point", "coordinates": [ 139.721816, 35.6610177 ] } },
{ "type": "Feature", "properties": { "name": "アピシウス", "lat": 35.675117, "lon": 139.7609658 }, "geometry": { "type": "Point", "coordinates": [ 139.7609658, 35.675117 ] } },
{ "type": "Feature", "properties": { "name": "アルゴリズム", "lat": 35.6444355, "lon": 139.724759 }, "geometry": { "type": "Point", "coordinates": [ 139.724759, 35.6444355 ] } },
{ "type": "Feature", "properties": { "name": "いちかわ", "lat": 35.6479882, "lon": 139.7359092 }, "geometry": { "type": "Point", "coordinates": [ 139.7359092, 35.6479882 ] } },
{ "type": "Feature", "properties": { "name": "ウェスタ", "lat": 35.6800354, "lon": 139.7734103 }, "geometry": { "type": "Point", "coordinates": [ 139.7734103, 35.6800354 ] } },
{ "type": "Feature", "properties": { "name": "USHIGORO S. GINZA", "lat": 35.6691889, "lon": 139.7619934 }, "geometry": { "type": "Point", "coordinates": [ 139.7619934, 35.6691889 ] } },
{ "type": "Feature", "properties": { "name": "海味", "lat": 35.6676378, "lon": 139.7179302 }, "geometry": { "type": "Point", "coordinates": [ 139.717930200000012, 35.6676378 ] } },
{ "type": "Feature", "properties": { "name": "鍈輝", "lat": 35.6456548, "lon": 139.7169379 }, "geometry": { "type": "Point", "coordinates": [ 139.7169379, 35.6456548 ] } },
{ "type": "Feature", "properties": { "name": "エクアトゥール", "lat": 35.6570579, "lon": 139.7287062 }, "geometry": { "type": "Point", "coordinates": [ 139.7287062, 35.6570579 ] } },
{ "type": "Feature", "properties": { "name": "エスキス", "lat": 35.6717161, "lon": 139.7633311 }, "geometry": { "type": "Point", "coordinates": [ 139.763331099999988, 35.6717161 ] } },
{ "type": "Feature", "properties": { "name": "ete", "lat": 35.6706199, "lon": 139.6834603 }, "geometry": { "type": "Point", "coordinates": [ 139.6834603, 35.6706199 ] } },
{ "type": "Feature", "properties": { "name": "エディション・コウジ シモムラ", "lat": 35.6653635, "lon": 139.7379918 }, "geometry": { "type": "Point", "coordinates": [ 139.7379918, 35.6653635 ] } },
{ "type": "Feature", "properties": { "name": "江戸前晋作", "lat": 35.685642, "lon": 139.7840497 }, "geometry": { "type": "Point", "coordinates": [ 139.7840497, 35.685642 ] } },
{ "type": "Feature", "properties": { "name": "NK", "lat": 35.7013408, "lon": 139.7391271 }, "geometry": { "type": "Point", "coordinates": [ 139.7391271, 35.7013408 ] } },
{ "type": "Feature", "properties": { "name": "恵比寿 えんどう", "lat": 35.6446715, "lon": 139.7104864 }, "geometry": { "type": "Point", "coordinates": [ 139.7104864, 35.6446715 ] } },
{ "type": "Feature", "properties": { "name": "蕃 YORONIKU", "lat": 35.6463317, "lon": 139.7117979 }, "geometry": { "type": "Point", "coordinates": [ 139.7117979, 35.6463317 ] } },
{ "type": "Feature", "properties": { "name": "オオクサ", "lat": 35.6891044, "lon": 139.7222649 }, "geometry": { "type": "Point", "coordinates": [ 139.7222649, 35.6891044 ] } },
{ "type": "Feature", "properties": { "name": "御成門はる", "lat": 35.6601761, "lon": 139.7545584 }, "geometry": { "type": "Point", "coordinates": [ 139.7545584, 35.6601761 ] } },
{ "type": "Feature", "properties": { "name": "おにく 花柳", "lat": 35.6730276, "lon": 139.7697806 }, "geometry": { "type": "Point", "coordinates": [ 139.7697806, 35.6730276 ] } },
{ "type": "Feature", "properties": { "name": "おみ乃 神谷町", "lat": 35.6640428, "lon": 139.7464543 }, "geometry": { "type": "Point", "coordinates": [ 139.746454300000011, 35.6640428 ] } },
{ "type": "Feature", "properties": { "name": "薫 HIROO", "lat": 35.6511293, "lon": 139.7237414 }, "geometry": { "type": "Point", "coordinates": [ 139.7237414, 35.6511293 ] } },
{ "type": "Feature", "properties": { "name": "神楽坂 石かわ", "lat": 35.7013408, "lon": 139.7391271 }, "geometry": { "type": "Point", "coordinates": [ 139.7391271, 35.7013408 ] } },
{ "type": "Feature", "properties": { "name": "かさ原", "lat": 35.7063525, "lon": 139.7397557 }, "geometry": { "type": "Point", "coordinates": [ 139.739755699999989, 35.7063525 ] } },
{ "type": "Feature", "properties": { "name": "割烹 室井", "lat": 35.6617, "lon": 139.7207781 }, "geometry": { "type": "Point", "coordinates": [ 139.7207781, 35.6617 ] } },
{ "type": "Feature", "properties": { "name": "川田", "lat": 35.6853323, "lon": 139.7817067 }, "geometry": { "type": "Point", "coordinates": [ 139.7817067, 35.6853323 ] } },
{ "type": "Feature", "properties": { "name": "感情", "lat": 35.6644785, "lon": 139.7316233 }, "geometry": { "type": "Point", "coordinates": [ 139.7316233, 35.6644785 ] } },
{ "type": "Feature", "properties": { "name": "カンテサンス", "lat": 35.6237579, "lon": 139.7338284 }, "geometry": { "type": "Point", "coordinates": [ 139.7338284, 35.6237579 ] } },
{ "type": "Feature", "properties": { "name": "広東料理 センス", "lat": 35.686372, "lon": 139.7731296 }, "geometry": { "type": "Point", "coordinates": [ 139.7731296, 35.686372 ] } },
{ "type": "Feature", "properties": { "name": "紀尾井町 三谷", "lat": 35.6797366, "lon": 139.7380407 }, "geometry": { "type": "Point", "coordinates": [ 139.7380407, 35.6797366 ] } },
{ "type": "Feature", "properties": { "name": "きざ㐂", "lat": 35.6764362, "lon": 139.735884 }, "geometry": { "type": "Point", "coordinates": [ 139.735884, 35.6764362 ] } },
{ "type": "Feature", "properties": { "name": "北島亭", "lat": 35.6885631, "lon": 139.7270337 }, "geometry": { "type": "Point", "coordinates": [ 139.7270337, 35.6885631 ] } },
{ "type": "Feature", "properties": { "name": "紀茂登", "lat": 35.7063525, "lon": 139.7397557 }, "geometry": { "type": "Point", "coordinates": [ 139.739755699999989, 35.7063525 ] } },
{ "type": "Feature", "properties": { "name": "きよ田 離れ", "lat": 35.6716281, "lon": 139.7637047 }, "geometry": { "type": "Point", "coordinates": [ 139.7637047, 35.6716281 ] } },
{ "type": "Feature", "properties": { "name": "銀座 大石", "lat": 35.6720816, "lon": 139.7682929 }, "geometry": { "type": "Point", "coordinates": [ 139.7682929, 35.6720816 ] } },
{ "type": "Feature", "properties": { "name": "銀座 きた川", "lat": 35.6720816, "lon": 139.7682929 }, "geometry": { "type": "Point", "coordinates": [ 139.7682929, 35.6720816 ] } },
{ "type": "Feature", "properties": { "name": "銀座 きた福", "lat": 35.6701249, "lon": 139.7611427 }, "geometry": { "type": "Point", "coordinates": [ 139.7611427, 35.6701249 ] } },
{ "type": "Feature", "properties": { "name": "銀座 しのはら", "lat": 35.6729358, "lon": 139.7678235 }, "geometry": { "type": "Point", "coordinates": [ 139.7678235, 35.6729358 ] } },
{ "type": "Feature", "properties": { "name": "銀座 上瀧", "lat": 35.6697935, "lon": 139.7610478 }, "geometry": { "type": "Point", "coordinates": [ 139.7610478, 35.6697935 ] } },
{ "type": "Feature", "properties": { "name": "銀座ふじやま", "lat": 35.6731203, "lon": 139.7655234 }, "geometry": { "type": "Point", "coordinates": [ 139.7655234, 35.6731203 ] } },
{ "type": "Feature", "properties": { "name": "銀座 レカン", "lat": 35.6718956, "lon": 139.7653829 }, "geometry": { "type": "Point", "coordinates": [ 139.7653829, 35.6718956 ] } },
{ "type": "Feature", "properties": { "name": "くすのき 本店", "lat": 35.6860739, "lon": 139.7279873 }, "geometry": { "type": "Point", "coordinates": [ 139.7279873, 35.6860739 ] } },
{ "type": "Feature", "properties": { "name": "くろぎ", "lat": 35.6574137, "lon": 139.7526412 }, "geometry": { "type": "Point", "coordinates": [ 139.7526412, 35.6574137 ] } },
{ "type": "Feature", "properties": { "name": "くろ﨑", "lat": 35.6660014, "lon": 139.7167799 }, "geometry": { "type": "Point", "coordinates": [ 139.7167799, 35.6660014 ] } },
{ "type": "Feature", "properties": { "name": "愚直に", "lat": 35.7018057, "lon": 139.7400296 }, "geometry": { "type": "Point", "coordinates": [ 139.740029600000014, 35.7018057 ] } },
{ "type": "Feature", "properties": { "name": "グルマンディーズ", "lat": 35.6580758, "lon": 139.7239833 }, "geometry": { "type": "Point", "coordinates": [ 139.723983299999986, 35.6580758 ] } },
{ "type": "Feature", "properties": { "name": "港式料理 鴻禧", "lat": 35.6668319, "lon": 139.7516011 }, "geometry": { "type": "Point", "coordinates": [ 139.751601099999988, 35.6668319 ] } },
{ "type": "Feature", "properties": { "name": "虎峰", "lat": 35.6631657, "lon": 139.7345428 }, "geometry": { "type": "Point", "coordinates": [ 139.734542800000014, 35.6631657 ] } },
{ "type": "Feature", "properties": { "name": "コート ドール", "lat": 35.647217, "lon": 139.7375566 }, "geometry": { "type": "Point", "coordinates": [ 139.7375566, 35.647217 ] } },
{ "type": "Feature", "properties": { "name": "茶禅華", "lat": 35.6495836, "lon": 139.7283406 }, "geometry": { "type": "Point", "coordinates": [ 139.7283406, 35.6495836 ] } },
{ "type": "Feature", "properties": { "name": "さわ田", "lat": 35.6704576, "lon": 139.765284 }, "geometry": { "type": "Point", "coordinates": [ 139.765284, 35.6704576 ] } },
{ "type": "Feature", "properties": { "name": "三和", "lat": 35.6377436, "lon": 139.7227802 }, "geometry": { "type": "Point", "coordinates": [ 139.722780199999988, 35.6377436 ] } },
{ "type": "Feature", "properties": { "name": "シェ・イノ", "lat": 35.6768788, "lon": 139.7689619 }, "geometry": { "type": "Point", "coordinates": [ 139.7689619, 35.6768788 ] } },
{ "type": "Feature", "properties": { "name": "sio", "lat": 35.6695465, "lon": 139.6821355 }, "geometry": { "type": "Point", "coordinates": [ 139.682135499999987, 35.6695465 ] } },
{ "type": "Feature", "properties": { "name": "ShinoiS", "lat": 35.6393592, "lon": 139.7281112 }, "geometry": { "type": "Point", "coordinates": [ 139.7281112, 35.6393592 ] } },
{ "type": "Feature", "properties": { "name": "島津", "lat": 35.643222, "lon": 139.7336488 }, "geometry": { "type": "Point", "coordinates": [ 139.7336488, 35.643222 ] } },
{ "type": "Feature", "properties": { "name": "車力門 おの澤", "lat": 35.689235, "lon": 139.7226138 }, "geometry": { "type": "Point", "coordinates": [ 139.7226138, 35.689235 ] } },
{ "type": "Feature", "properties": { "name": "白金台こばやし", "lat": 35.6411898, "lon": 139.7195315 }, "geometry": { "type": "Point", "coordinates": [ 139.719531499999988, 35.6411898 ] } },
{ "type": "Feature", "properties": { "name": "sincere", "lat": 35.6769032, "lon": 139.7043254 }, "geometry": { "type": "Point", "coordinates": [ 139.704325399999988, 35.6769032 ] } },
{ "type": "Feature", "properties": { "name": "新ばし 笹田", "lat": 35.6681603, "lon": 139.7515587 }, "geometry": { "type": "Point", "coordinates": [ 139.7515587, 35.6681603 ] } },
{ "type": "Feature", "properties": { "name": "新ばし しみづ", "lat": 35.6663414, "lon": 139.7566148 }, "geometry": { "type": "Point", "coordinates": [ 139.7566148, 35.6663414 ] } },
{ "type": "Feature", "properties": { "name": "新ばし 星野", "lat": 35.6624582, "lon": 139.7553081 }, "geometry": { "type": "Point", "coordinates": [ 139.7553081, 35.6624582 ] } },
{ "type": "Feature", "properties": { "name": "すが弥", "lat": 35.6553562, "lon": 139.7425699 }, "geometry": { "type": "Point", "coordinates": [ 139.7425699, 35.6553562 ] } },
{ "type": "Feature", "properties": { "name": "SUGALABO", "lat": 35.6609477, "lon": 139.743757 }, "geometry": { "type": "Point", "coordinates": [ 139.743757, 35.6609477 ] } },
{ "type": "Feature", "properties": { "name": "鮨 あお", "lat": 35.6643837, "lon": 139.7105042 }, "geometry": { "type": "Point", "coordinates": [ 139.7105042, 35.6643837 ] } },
{ "type": "Feature", "properties": { "name": "すし 良月", "lat": 35.6453541, "lon": 139.7223369 }, "geometry": { "type": "Point", "coordinates": [ 139.722336899999988, 35.6453541 ] } },
{ "type": "Feature", "properties": { "name": "鮨 あらい", "lat": 35.6680421, "lon": 139.7627122 }, "geometry": { "type": "Point", "coordinates": [ 139.76271220000001, 35.6680421 ] } },
{ "type": "Feature", "properties": { "name": "鮨 さいとう", "lat": 35.6656942, "lon": 139.7394446 }, "geometry": { "type": "Point", "coordinates": [ 139.739444600000013, 35.6656942 ] } },
{ "type": "Feature", "properties": { "name": "鮨 さえ喜", "lat": 35.6717568, "lon": 139.7612864 }, "geometry": { "type": "Point", "coordinates": [ 139.761286399999989, 35.6717568 ] } },
{ "type": "Feature", "properties": { "name": "鮨 在", "lat": 35.6505884, "lon": 139.7211304 }, "geometry": { "type": "Point", "coordinates": [ 139.7211304, 35.6505884 ] } },
{ "type": "Feature", "properties": { "name": "鮨しゅんじ", "lat": 35.6570579, "lon": 139.7287062 }, "geometry": { "type": "Point", "coordinates": [ 139.7287062, 35.6570579 ] } },
{ "type": "Feature", "properties": { "name": "すし匠", "lat": 35.6855246, "lon": 139.7275924 }, "geometry": { "type": "Point", "coordinates": [ 139.7275924, 35.6855246 ] } },
{ "type": "Feature", "properties": { "name": "すし匠 齋藤", "lat": 35.6761426, "lon": 139.7356764 }, "geometry": { "type": "Point", "coordinates": [ 139.735676399999988, 35.6761426 ] } },
{ "type": "Feature", "properties": { "name": "寿司 健", "lat": 35.6682565, "lon": 139.7635663 }, "geometry": { "type": "Point", "coordinates": [ 139.7635663, 35.6682565 ] } },
{ "type": "Feature", "properties": { "name": "鮨処 やまと", "lat": 35.6679247, "lon": 139.7737482 }, "geometry": { "type": "Point", "coordinates": [ 139.7737482, 35.6679247 ] } },
{ "type": "Feature", "properties": { "name": "鮨 なんば 日比谷", "lat": 35.6742704, "lon": 139.7592781 }, "geometry": { "type": "Point", "coordinates": [ 139.759278099999989, 35.6742704 ] } },
{ "type": "Feature", "properties": { "name": "鮨 はしぐち", "lat": 35.6775332, "lon": 139.7324515 }, "geometry": { "type": "Point", "coordinates": [ 139.7324515, 35.6775332 ] } },
{ "type": "Feature", "properties": { "name": "鮨 はしもと", "lat": 35.6729301, "lon": 139.7744693 }, "geometry": { "type": "Point", "coordinates": [ 139.7744693, 35.6729301 ] } },
{ "type": "Feature", "properties": { "name": "鮨 ます田", "lat": 35.6655992, "lon": 139.7146293 }, "geometry": { "type": "Point", "coordinates": [ 139.714629300000013, 35.6655992 ] } },
{ "type": "Feature", "properties": { "name": "鮨 まつうら", "lat": 35.6444824, "lon": 139.7276922 }, "geometry": { "type": "Point", "coordinates": [ 139.7276922, 35.6444824 ] } },
{ "type": "Feature", "properties": { "name": "鮨 みずかみ", "lat": 35.6877165, "lon": 139.7433184 }, "geometry": { "type": "Point", "coordinates": [ 139.7433184, 35.6877165 ] } },
{ "type": "Feature", "properties": { "name": "鮨 めい乃", "lat": 35.6566991, "lon": 139.7343481 }, "geometry": { "type": "Point", "coordinates": [ 139.7343481, 35.6566991 ] } },
{ "type": "Feature", "properties": { "name": "鮨 よしたけ", "lat": 35.668884, "lon": 139.7620231 }, "geometry": { "type": "Point", "coordinates": [ 139.7620231, 35.668884 ] } },
{ "type": "Feature", "properties": { "name": "鮨 龍次郎", "lat": 35.6712475, "lon": 139.7209746 }, "geometry": { "type": "Point", "coordinates": [ 139.7209746, 35.6712475 ] } },
{ "type": "Feature", "properties": { "name": "鈴田式", "lat": 35.6611846, "lon": 139.7253052 }, "geometry": { "type": "Point", "coordinates": [ 139.7253052, 35.6611846 ] } },
{ "type": "Feature", "properties": { "name": "炭火焼肉 なかはら", "lat": 35.6891599, "lon": 139.7352518 }, "geometry": { "type": "Point", "coordinates": [ 139.735251799999986, 35.6891599 ] } },
{ "type": "Feature", "properties": { "name": "炭火焼 ゆうじ", "lat": 35.6626422, "lon": 139.6972857 }, "geometry": { "type": "Point", "coordinates": [ 139.6972857, 35.6626422 ] } },
{ "type": "Feature", "properties": { "name": "炭焼 金竜山", "lat": 35.6453454, "lon": 139.7283008 }, "geometry": { "type": "Point", "coordinates": [ 139.7283008, 35.6453454 ] } },
{ "type": "Feature", "properties": { "name": "スリオラ", "lat": 35.6701648, "lon": 139.7627533 }, "geometry": { "type": "Point", "coordinates": [ 139.762753300000014, 35.6701648 ] } },
{ "type": "Feature", "properties": { "name": "SEZANNE", "lat": 35.6782087, "lon": 139.7669714 }, "geometry": { "type": "Point", "coordinates": [ 139.766971399999989, 35.6782087 ] } },
{ "type": "Feature", "properties": { "name": "雪月花 銀座", "lat": 35.6715104, "lon": 139.7618457 }, "geometry": { "type": "Point", "coordinates": [ 139.7618457, 35.6715104 ] } },
{ "type": "Feature", "properties": { "name": "たきや", "lat": 35.6555762, "lon": 139.7346486 }, "geometry": { "type": "Point", "coordinates": [ 139.734648600000014, 35.6555762 ] } },
{ "type": "Feature", "properties": { "name": "TACUBO", "lat": 35.6508458, "lon": 139.7060166 }, "geometry": { "type": "Point", "coordinates": [ 139.7060166, 35.6508458 ] } },
{ "type": "Feature", "properties": { "name": "匠 進吾", "lat": 35.6714095, "lon": 139.7238788 }, "geometry": { "type": "Point", "coordinates": [ 139.7238788, 35.6714095 ] } },
{ "type": "Feature", "properties": { "name": "玉笑", "lat": 35.6644778, "lon": 139.7046895 }, "geometry": { "type": "Point", "coordinates": [ 139.7046895, 35.6644778 ] } },
{ "type": "Feature", "properties": { "name": "CHIUnE", "lat": 35.6787667, "lon": 139.7380662 }, "geometry": { "type": "Point", "coordinates": [ 139.7380662, 35.6787667 ] } },
{ "type": "Feature", "properties": { "name": "千葉たかおか", "lat": 35.6794084, "lon": 139.7689311 }, "geometry": { "type": "Point", "coordinates": [ 139.7689311, 35.6794084 ] } },
{ "type": "Feature", "properties": { "name": "中国飯店 富麗華", "lat": 35.6562703, "lon": 139.7385296 }, "geometry": { "type": "Point", "coordinates": [ 139.7385296, 35.6562703 ] } },
{ "type": "Feature", "properties": { "name": "對馬", "lat": 35.657563, "lon": 139.7276683 }, "geometry": { "type": "Point", "coordinates": [ 139.7276683, 35.657563 ] } },
{ "type": "Feature", "properties": { "name": "津の守坂 小柴", "lat": 35.6910773, "lon": 139.7246981 }, "geometry": { "type": "Point", "coordinates": [ 139.724698100000012, 35.6910773 ] } },
{ "type": "Feature", "properties": { "name": "天ぷら浅沼", "lat": 35.6809812, "lon": 139.7746068 }, "geometry": { "type": "Point", "coordinates": [ 139.774606799999987, 35.6809812 ] } },
{ "type": "Feature", "properties": { "name": "てんぷら 近藤", "lat": 35.6711228, "lon": 139.7630816 }, "geometry": { "type": "Point", "coordinates": [ 139.7630816, 35.6711228 ] } },
{ "type": "Feature", "properties": { "name": "てんぷら 深町", "lat": 35.6764566, "lon": 139.7704595 }, "geometry": { "type": "Point", "coordinates": [ 139.770459499999987, 35.6764566 ] } },
{ "type": "Feature", "properties": { "name": "傳", "lat": 35.6731932, "lon": 139.7127606 }, "geometry": { "type": "Point", "coordinates": [ 139.7127606, 35.6731932 ] } },
{ "type": "Feature", "properties": { "name": "トゥールダルジャン 東京", "lat": 35.6810328, "lon": 139.7340679 }, "geometry": { "type": "Point", "coordinates": [ 139.734067900000014, 35.6810328 ] } },
{ "type": "Feature", "properties": { "name": "東京肉しゃぶ家", "lat": 35.6985348, "lon": 139.7034628 }, "geometry": { "type": "Point", "coordinates": [ 139.703462800000011, 35.6985348 ] } },
{ "type": "Feature", "properties": { "name": "東京肉しゃぶ家 秀彬", "lat": 35.6686564, "lon": 139.7605628 }, "geometry": { "type": "Point", "coordinates": [ 139.7605628, 35.6686564 ] } },
{ "type": "Feature", "properties": { "name": "隼", "lat": 35.6652188, "lon": 139.7324833 }, "geometry": { "type": "Point", "coordinates": [ 139.732483300000013, 35.6652188 ] } },
{ "type": "Feature", "properties": { "name": "冨所", "lat": 35.6619089, "lon": 139.7540576 }, "geometry": { "type": "Point", "coordinates": [ 139.75405760000001, 35.6619089 ] } },
{ "type": "Feature", "properties": { "name": "と村", "lat": 35.6689553, "lon": 139.7501934 }, "geometry": { "type": "Point", "coordinates": [ 139.7501934, 35.6689553 ] } },
{ "type": "Feature", "properties": { "name": "鳥さわ22", "lat": 35.6582048, "lon": 139.7189629 }, "geometry": { "type": "Point", "coordinates": [ 139.7189629, 35.6582048 ] } },
{ "type": "Feature", "properties": { "name": "鳥しき", "lat": 35.6342653, "lon": 139.7169019 }, "geometry": { "type": "Point", "coordinates": [ 139.716901900000011, 35.6342653 ] } },
{ "type": "Feature", "properties": { "name": "鳥茂", "lat": 35.6879536, "lon": 139.698908 }, "geometry": { "type": "Point", "coordinates": [ 139.698908, 35.6879536 ] } },
{ "type": "Feature", "properties": { "name": "鳥匠いし井ひな", "lat": 35.6499925, "lon": 139.7331743 }, "geometry": { "type": "Point", "coordinates": [ 139.7331743, 35.6499925 ] } },
{ "type": "Feature", "properties": { "name": "とり茶太郎", "lat": 35.6540804, "lon": 139.7022691 }, "geometry": { "type": "Point", "coordinates": [ 139.7022691, 35.6540804 ] } },
{ "type": "Feature", "properties": { "name": "NARISAWA", "lat": 35.6715648, "lon": 139.7218885 }, "geometry": { "type": "Point", "coordinates": [ 139.7218885, 35.6715648 ] } },
{ "type": "Feature", "properties": { "name": "肉割烹 上", "lat": 35.6601566, "lon": 139.7224755 }, "geometry": { "type": "Point", "coordinates": [ 139.7224755, 35.6601566 ] } },
{ "type": "Feature", "properties": { "name": "肉屋 田中", "lat": 35.6715104, "lon": 139.7618457 }, "geometry": { "type": "Point", "coordinates": [ 139.7618457, 35.6715104 ] } },
{ "type": "Feature", "properties": { "name": "日本橋蛎殻町 すぎた", "lat": 35.6818515, "lon": 139.7849984 }, "geometry": { "type": "Point", "coordinates": [ 139.7849984, 35.6818515 ] } },
{ "type": "Feature", "properties": { "name": "日本橋 蕎ノ字", "lat": 35.6862925, "lon": 139.7845504 }, "geometry": { "type": "Point", "coordinates": [ 139.7845504, 35.6862925 ] } },
{ "type": "Feature", "properties": { "name": "日本料理 久丹", "lat": 35.6715885, "lon": 139.7740274 }, "geometry": { "type": "Point", "coordinates": [ 139.7740274, 35.6715885 ] } },
{ "type": "Feature", "properties": { "name": "日本料理 晴山", "lat": 35.6474366, "lon": 139.7401592 }, "geometry": { "type": "Point", "coordinates": [ 139.7401592, 35.6474366 ] } },
{ "type": "Feature", "properties": { "name": "日本料理 太月", "lat": 35.6640889, "lon": 139.7094477 }, "geometry": { "type": "Point", "coordinates": [ 139.7094477, 35.6640889 ] } },
{ "type": "Feature", "properties": { "name": "伯雲", "lat": 35.666029, "lon": 139.718085 }, "geometry": { "type": "Point", "coordinates": [ 139.718085, 35.666029 ] } },
{ "type": "Feature", "properties": { "name": "長谷川 稔", "lat": 35.6511293, "lon": 139.7237414 }, "geometry": { "type": "Point", "coordinates": [ 139.7237414, 35.6511293 ] } },
{ "type": "Feature", "properties": { "name": "はっこく", "lat": 35.670536, "lon": 139.762782 }, "geometry": { "type": "Point", "coordinates": [ 139.762782, 35.670536 ] } },
{ "type": "Feature", "properties": { "name": "波濤", "lat": 35.7021692, "lon": 139.7390111 }, "geometry": { "type": "Point", "coordinates": [ 139.7390111, 35.7021692 ] } },
{ "type": "Feature", "properties": { "name": "はらまさ", "lat": 35.6880701, "lon": 139.7166065 }, "geometry": { "type": "Point", "coordinates": [ 139.716606500000012, 35.6880701 ] } },
{ "type": "Feature", "properties": { "name": "青空", "lat": 35.6692505, "lon": 139.7592458 }, "geometry": { "type": "Point", "coordinates": [ 139.7592458, 35.6692505 ] } },
{ "type": "Feature", "properties": { "name": "東麻布 天本", "lat": 35.6573486, "lon": 139.7434681 }, "geometry": { "type": "Point", "coordinates": [ 139.7434681, 35.6573486 ] } },
{ "type": "Feature", "properties": { "name": "樋口", "lat": 35.673458, "lon": 139.7101767 }, "geometry": { "type": "Point", "coordinates": [ 139.7101767, 35.673458 ] } },
{ "type": "Feature", "properties": { "name": "ひろ作", "lat": 35.6661736, "lon": 139.7552532 }, "geometry": { "type": "Point", "coordinates": [ 139.7552532, 35.6661736 ] } },
{ "type": "Feature", "properties": { "name": "美会", "lat": 35.66537, "lon": 139.727931 }, "geometry": { "type": "Point", "coordinates": [ 139.727931, 35.66537 ] } },
{ "type": "Feature", "properties": { "name": "フルタ", "lat": 35.6725118, "lon": 139.7707091 }, "geometry": { "type": "Point", "coordinates": [ 139.7707091, 35.6725118 ] } },
{ "type": "Feature", "properties": { "name": "プリズマ", "lat": 35.6615191, "lon": 139.7164092 }, "geometry": { "type": "Point", "coordinates": [ 139.716409199999987, 35.6615191 ] } },
{ "type": "Feature", "properties": { "name": "ペレグリーノ", "lat": 35.648029, "lon": 139.7184741 }, "geometry": { "type": "Point", "coordinates": [ 139.7184741, 35.648029 ] } },
{ "type": "Feature", "properties": { "name": "ボニュ", "lat": 35.6812558, "lon": 139.6913014 }, "geometry": { "type": "Point", "coordinates": [ 139.691301399999986, 35.6812558 ] } },
{ "type": "Feature", "properties": { "name": "薪鳥新神戸", "lat": 35.6772902, "lon": 139.7362154 }, "geometry": { "type": "Point", "coordinates": [ 139.7362154, 35.6772902 ] } },
{ "type": "Feature", "properties": { "name": "まき村", "lat": 35.5908437, "lon": 139.7354372 }, "geometry": { "type": "Point", "coordinates": [ 139.7354372, 35.5908437 ] } },
{ "type": "Feature", "properties": { "name": "MAZ", "lat": 35.6787667, "lon": 139.7380662 }, "geometry": { "type": "Point", "coordinates": [ 139.7380662, 35.6787667 ] } },
{ "type": "Feature", "properties": { "name": "松川", "lat": 35.6674621, "lon": 139.7423903 }, "geometry": { "type": "Point", "coordinates": [ 139.742390300000011, 35.6674621 ] } },
{ "type": "Feature", "properties": { "name": "malca", "lat": 35.6685882, "lon": 139.7169946 }, "geometry": { "type": "Point", "coordinates": [ 139.7169946, 35.6685882 ] } },
{ "type": "Feature", "properties": { "name": "みかわ 是山居", "lat": 35.6755048, "lon": 139.7930987 }, "geometry": { "type": "Point", "coordinates": [ 139.7930987, 35.6755048 ] } },
{ "type": "Feature", "properties": { "name": "味享", "lat": 35.6675596, "lon": 139.753299 }, "geometry": { "type": "Point", "coordinates": [ 139.753299, 35.6675596 ] } },
{ "type": "Feature", "properties": { "name": "三谷", "lat": 35.6875649, "lon": 139.7278518 }, "geometry": { "type": "Point", "coordinates": [ 139.7278518, 35.6875649 ] } },
{ "type": "Feature", "properties": { "name": "南青山 七鳥目", "lat": 35.6571045, "lon": 139.718034 }, "geometry": { "type": "Point", "coordinates": [ 139.718034, 35.6571045 ] } },
{ "type": "Feature", "properties": { "name": "宮坂", "lat": 35.6618703, "lon": 139.7142247 }, "geometry": { "type": "Point", "coordinates": [ 139.714224699999988, 35.6618703 ] } },
{ "type": "Feature", "properties": { "name": "明寂", "lat": 35.6594393, "lon": 139.7267062 }, "geometry": { "type": "Point", "coordinates": [ 139.7267062, 35.6594393 ] } },
{ "type": "Feature", "properties": { "name": "森ふじ", "lat": 35.6977486, "lon": 139.7337915 }, "geometry": { "type": "Point", "coordinates": [ 139.7337915, 35.6977486 ] } },
{ "type": "Feature", "properties": { "name": "YAKITORI 燃 es", "lat": 35.6637268, "lon": 139.7302863 }, "geometry": { "type": "Point", "coordinates": [ 139.730286299999989, 35.6637268 ] } },
{ "type": "Feature", "properties": { "name": "焼肉 静龍苑", "lat": 35.6842687, "lon": 139.7983122 }, "geometry": { "type": "Point", "coordinates": [ 139.7983122, 35.6842687 ] } },
{ "type": "Feature", "properties": { "name": "山﨑", "lat": 35.6617996, "lon": 139.7232725 }, "geometry": { "type": "Point", "coordinates": [ 139.7232725, 35.6617996 ] } },
{ "type": "Feature", "properties": { "name": "unis", "lat": 35.6666599, "lon": 139.7486179 }, "geometry": { "type": "Point", "coordinates": [ 139.7486179, 35.6666599 ] } },
{ "type": "Feature", "properties": { "name": "よろにく", "lat": 35.6603816, "lon": 139.7179753 }, "geometry": { "type": "Point", "coordinates": [ 139.7179753, 35.6603816 ] } },
{ "type": "Feature", "properties": { "name": "YORONIKU TOKYO AZABUDAIHILLS", "lat": 35.6607581, "lon": 139.7409436 }, "geometry": { "type": "Point", "coordinates": [ 139.7409436, 35.6607581 ] } },
{ "type": "Feature", "properties": { "name": "4000 Chinese Restaurant", "lat": 35.6588354, "lon": 139.7186628 }, "geometry": { "type": "Point", "coordinates": [ 139.7186628, 35.6588354 ] } },
{ "type": "Feature", "properties": { "name": "ラチュレ", "lat": 35.6607645, "lon": 139.7085533 }, "geometry": { "type": "Point", "coordinates": [ 139.7085533, 35.6607645 ] } },
{ "type": "Feature", "properties": { "name": "ラ・ブランシュ", "lat": 35.6599442, "lon": 139.7088359 }, "geometry": { "type": "Point", "coordinates": [ 139.7088359, 35.6599442 ] } },
{ "type": "Feature", "properties": { "name": "龍吟", "lat": 35.6742704, "lon": 139.7592781 }, "geometry": { "type": "Point", "coordinates": [ 139.759278099999989, 35.6742704 ] } },
{ "type": "Feature", "properties": { "name": "ル・マンジュ・トゥー", "lat": 35.6981627, "lon": 139.7325712 }, "geometry": { "type": "Point", "coordinates": [ 139.7325712, 35.6981627 ] } },
{ "type": "Feature", "properties": { "name": "レストラン ラフィナージュ", "lat": 35.6701935, "lon": 139.7650003 }, "geometry": { "type": "Point", "coordinates": [ 139.7650003, 35.6701935 ] } },
{ "type": "Feature", "properties": { "name": "レストラン ラ フィネス", "lat": 35.6643388, "lon": 139.7563864 }, "geometry": { "type": "Point", "coordinates": [ 139.7563864, 35.6643388 ] } },
{ "type": "Feature", "properties": { "name": "レストラン リューズ", "lat": 35.6647207, "lon": 139.7335553 }, "geometry": { "type": "Point", "coordinates": [ 139.7335553, 35.6647207 ] } },
{ "type": "Feature", "properties": { "name": "レ セゾン", "lat": 35.6724056, "lon": 139.7583398 }, "geometry": { "type": "Point", "coordinates": [ 139.758339799999987, 35.6724056 ] } },
{ "type": "Feature", "properties": { "name": "レフェルヴェソンス", "lat": 35.6602169, "lon": 139.7194309 }, "geometry": { "type": "Point", "coordinates": [ 139.7194309, 35.6602169 ] } },
{ "type": "Feature", "properties": { "name": "蓮 三四七", "lat": 35.670056, "lon": 139.7602259 }, "geometry": { "type": "Point", "coordinates": [ 139.7602259, 35.670056 ] } },
{ "type": "Feature", "properties": { "name": "ロオジエ", "lat": 35.6698761, "lon": 139.7613223 }, "geometry": { "type": "Point", "coordinates": [ 139.761322299999989, 35.6698761 ] } },
{ "type": "Feature", "properties": { "name": "わさ", "lat": 35.6497997, "lon": 139.7100875 }, "geometry": { "type": "Point", "coordinates": [ 139.710087499999986, 35.6497997 ] } }
]
}
