{
"type": "FeatureCollection",
"name": "conveniencestores2025",
"crs": { "type": "name", "properties": { "name": "urn:ogc:def:crs:OGC:1.3:CRS84" } },
"features": [
{ "type": "Feature", "properties": { "lat": 35.6876366, "lon": 139.7623328, "title": "セブンイレブン AIM三井物産ビル店" }, "geometry": { "type": "Point", "coordinates": [ 139.7623328, 35.6876366 ] } },
{ "type": "Feature", "properties": { "lat": 35.682111, "lon": 139.7691588, "title": "NewDays グランスタ丸の内北口" }, "geometry": { "type": "Point", "coordinates": [ 139.769158800000014, 35.682111 ] } },
{ "type": "Feature", "properties": { "lat": 35.682111, "lon": 139.7691588, "title": "NewDays KIOSK 東京駅新幹線ホーム6D" }, "geometry": { "type": "Point", "coordinates": [ 139.769158800000014, 35.682111 ] } },
{ "type": "Feature", "properties": { "lat": 35.67465, "lon": 139.7427389, "title": "セブンイレブン 衆議院第一議員会館店" }, "geometry": { "type": "Point", "coordinates": [ 139.7427389, 35.67465 ] } },
{ "type": "Feature", "properties": { "lat": 35.7020385, "lon": 139.7544269, "title": "NewDays 水道橋西口" }, "geometry": { "type": "Point", "coordinates": [ 139.7544269, 35.7020385 ] } },
{ "type": "Feature", "properties": { "lat": 35.682111, "lon": 139.7691588, "title": "NewDays グランスタ八重洲地下南" }, "geometry": { "type": "Point", "coordinates": [ 139.769158800000014, 35.682111 ] } },
{ "type": "Feature", "properties": { "lat": 35.6959319, "lon": 139.7576272, "title": "ローソン 神保町メトロピア店" }, "geometry": { "type": "Point", "coordinates": [ 139.7576272, 35.6959319 ] } },
{ "type": "Feature", "properties": { "lat": 35.6786366, "lon": 139.767382, "title": "セブンイレブン リクルートサウスタワー店" }, "geometry": { "type": "Point", "coordinates": [ 139.767382, 35.6786366 ] } },
{ "type": "Feature", "properties": { "lat": 35.68946, "lon": 139.7452298, "title": "セブンイレブン 千代田三番町店" }, "geometry": { "type": "Point", "coordinates": [ 139.7452298, 35.68946 ] } },
{ "type": "Feature", "properties": { "lat": 35.6876366, "lon": 139.7623328, "title": "セブンイレブン Otemachi One タワ店" }, "geometry": { "type": "Point", "coordinates": [ 139.7623328, 35.6876366 ] } },
{ "type": "Feature", "properties": { "lat": 35.6791077, "lon": 139.7621731, "title": "セブンイレブン 明治安田生命本社ビル店" }, "geometry": { "type": "Point", "coordinates": [ 139.762173100000012, 35.6791077 ] } },
{ "type": "Feature", "properties": { "lat": 35.6918201, "lon": 139.7707487, "title": "セブンイレブン 神田駅北口店" }, "geometry": { "type": "Point", "coordinates": [ 139.770748700000013, 35.6918201 ] } },
{ "type": "Feature", "properties": { "lat": 35.6853494, "lon": 139.7632784, "title": "ナチュラルローソン NL大手町メトロピア店" }, "geometry": { "type": "Point", "coordinates": [ 139.7632784, 35.6853494 ] } },
{ "type": "Feature", "properties": { "lat": 35.6837178, "lon": 139.7686113, "title": "ファミリーマート ファミマサピアタワー/S店" }, "geometry": { "type": "Point", "coordinates": [ 139.7686113, 35.6837178 ] } },
{ "type": "Feature", "properties": { "lat": 35.6831279, "lon": 139.7703003, "title": "ローソン TEKKOavenue店" }, "geometry": { "type": "Point", "coordinates": [ 139.7703003, 35.6831279 ] } },
{ "type": "Feature", "properties": { "lat": 35.6790639, "lon": 139.764569, "title": "ローソン KITTE丸の内店" }, "geometry": { "type": "Point", "coordinates": [ 139.764569, 35.6790639 ] } },
{ "type": "Feature", "properties": { "lat": 35.6790605, "lon": 139.7619232, "title": "セブンイレブン 丸の内二重橋ビル店" }, "geometry": { "type": "Point", "coordinates": [ 139.761923200000012, 35.6790605 ] } },
{ "type": "Feature", "properties": { "lat": 35.6825995, "lon": 139.7643435, "title": "セブンイレブン 新丸ビル店" }, "geometry": { "type": "Point", "coordinates": [ 139.7643435, 35.682599499999988 ] } },
{ "type": "Feature", "properties": { "lat": 35.6785783, "lon": 139.7649684, "title": "セブンイレブン 丸の内東京ビル店" }, "geometry": { "type": "Point", "coordinates": [ 139.764968399999987, 35.6785783 ] } },
{ "type": "Feature", "properties": { "lat": 35.6816113, "lon": 139.7689686, "title": "cisca グラントウキョウ店" }, "geometry": { "type": "Point", "coordinates": [ 139.7689686, 35.6816113 ] } },
{ "type": "Feature", "properties": { "lat": 35.6973332, "lon": 139.757112, "title": "ローソン 神田神保町白山通り店" }, "geometry": { "type": "Point", "coordinates": [ 139.757112, 35.6973332 ] } },
{ "type": "Feature", "properties": { "lat": 35.6756622, "lon": 139.7646289, "title": "ファミリーマート PCP丸の内店" }, "geometry": { "type": "Point", "coordinates": [ 139.7646289, 35.6756622 ] } },
{ "type": "Feature", "properties": { "lat": 35.6809158, "lon": 139.7340561, "title": "ファミリーマート ガーデンコート店" }, "geometry": { "type": "Point", "coordinates": [ 139.7340561, 35.6809158 ] } },
{ "type": "Feature", "properties": { "lat": 35.6802223, "lon": 139.7692184, "title": "セブンイレブン ヤエチカ店" }, "geometry": { "type": "Point", "coordinates": [ 139.7692184, 35.6802223 ] } },
{ "type": "Feature", "properties": { "lat": 35.6694061, "lon": 139.7585416, "title": "セブンイレブン 内幸町1丁目店" }, "geometry": { "type": "Point", "coordinates": [ 139.7585416, 35.6694061 ] } },
{ "type": "Feature", "properties": { "lat": 35.684827, "lon": 139.7372343, "title": "ファミリーマート 麹町駅前店" }, "geometry": { "type": "Point", "coordinates": [ 139.737234300000011, 35.684827 ] } },
{ "type": "Feature", "properties": { "lat": 35.6846529, "lon": 139.7614386, "title": "セブンイレブン 丸の内パレスビル店" }, "geometry": { "type": "Point", "coordinates": [ 139.7614386, 35.6846529 ] } },
{ "type": "Feature", "properties": { "lat": 35.6979939, "lon": 139.7752336, "title": "セブンイレブン 秋葉原駅前店" }, "geometry": { "type": "Point", "coordinates": [ 139.7752336, 35.6979939 ] } },
{ "type": "Feature", "properties": { "lat": 35.695787, "lon": 139.7417634, "title": "セブンイレブン 法政大学市ヶ谷キャンパス店" }, "geometry": { "type": "Point", "coordinates": [ 139.7417634, 35.695787 ] } },
{ "type": "Feature", "properties": { "lat": 35.6938359, "lon": 139.7706392, "title": "ファミリーマート 神田鍛冶町三丁目店" }, "geometry": { "type": "Point", "coordinates": [ 139.7706392, 35.6938359 ] } },
{ "type": "Feature", "properties": { "lat": 35.6859413, "lon": 139.7670983, "title": "ローソン アーバンネット大手町店" }, "geometry": { "type": "Point", "coordinates": [ 139.767098299999986, 35.6859413 ] } },
{ "type": "Feature", "properties": { "lat": 35.6899149, "lon": 139.766299, "title": "ファミリーマート 内神田鎌倉橋店" }, "geometry": { "type": "Point", "coordinates": [ 139.766299, 35.6899149 ] } },
{ "type": "Feature", "properties": { "lat": 35.6843691, "lon": 139.770429, "title": "セブンイレブン 常盤橋タワー3F店" }, "geometry": { "type": "Point", "coordinates": [ 139.770429, 35.6843691 ] } },
{ "type": "Feature", "properties": { "lat": 35.6785703, "lon": 139.7625325, "title": "ローソン 丸の内パークビル店" }, "geometry": { "type": "Point", "coordinates": [ 139.7625325, 35.6785703 ] } },
{ "type": "Feature", "properties": { "lat": 35.6836611, "lon": 139.7688178, "title": "ファミリーマート ファミマサピアタワー店" }, "geometry": { "type": "Point", "coordinates": [ 139.7688178, 35.6836611 ] } },
{ "type": "Feature", "properties": { "lat": 35.6748881, "lon": 139.7595952, "title": "ナチュラルローソン NL日比谷メトロピア店" }, "geometry": { "type": "Point", "coordinates": [ 139.7595952, 35.6748881 ] } },
{ "type": "Feature", "properties": { "lat": 35.6957677, "lon": 139.7505941, "title": "セブンイレブン 北の丸スクエア店" }, "geometry": { "type": "Point", "coordinates": [ 139.7505941, 35.6957677 ] } },
{ "type": "Feature", "properties": { "lat": 35.6921581, "lon": 139.7717774, "title": "ファミリーマート 神田駅東口店" }, "geometry": { "type": "Point", "coordinates": [ 139.7717774, 35.6921581 ] } },
{ "type": "Feature", "properties": { "lat": 35.6904542, "lon": 139.7710743, "title": "ファミリーマート 神田鍛冶町店" }, "geometry": { "type": "Point", "coordinates": [ 139.7710743, 35.6904542 ] } },
{ "type": "Feature", "properties": { "lat": 35.6741334, "lon": 139.763855, "title": "セブンイレブン 有楽町イトシア店" }, "geometry": { "type": "Point", "coordinates": [ 139.763855, 35.6741334 ] } },
{ "type": "Feature", "properties": { "lat": 35.6943275, "lon": 139.7472289, "title": "ファミリーマート 九段下駅西店" }, "geometry": { "type": "Point", "coordinates": [ 139.74722890000001, 35.6943275 ] } },
{ "type": "Feature", "properties": { "lat": 35.6828352, "lon": 139.7380653, "title": "ファミリーマート 紀尾井町三番地店" }, "geometry": { "type": "Point", "coordinates": [ 139.738065299999988, 35.6828352 ] } },
{ "type": "Feature", "properties": { "lat": 35.6887064, "lon": 139.7631543, "title": "セブンイレブン 大手町カンファレンスセンター店" }, "geometry": { "type": "Point", "coordinates": [ 139.7631543, 35.6887064 ] } },
{ "type": "Feature", "properties": { "lat": 35.7002686, "lon": 139.7739676, "title": "ファミリーマート 秋葉原富士ソフトビル店" }, "geometry": { "type": "Point", "coordinates": [ 139.7739676, 35.7002686 ] } },
{ "type": "Feature", "properties": { "lat": 35.6860801, "lon": 139.7619087, "title": "ファミリーマート ファミマ大手門タワー店" }, "geometry": { "type": "Point", "coordinates": [ 139.7619087, 35.6860801 ] } },
{ "type": "Feature", "properties": { "lat": 35.6840637, "lon": 139.7657671, "title": "セブンイレブン 丸の内センタービル店" }, "geometry": { "type": "Point", "coordinates": [ 139.7657671, 35.6840637 ] } },
{ "type": "Feature", "properties": { "lat": 35.6741854, "lon": 139.7613293, "title": "ローソン 有楽町一丁目店" }, "geometry": { "type": "Point", "coordinates": [ 139.7613293, 35.6741854 ] } },
{ "type": "Feature", "properties": { "lat": 35.6694365, "lon": 139.7569856, "title": "ローソン 内幸町一丁目店" }, "geometry": { "type": "Point", "coordinates": [ 139.7569856, 35.6694365 ] } },
{ "type": "Feature", "properties": { "lat": 35.6786778, "lon": 139.7673644, "title": "ファミリーマート ファミマサウスタワー店" }, "geometry": { "type": "Point", "coordinates": [ 139.7673644, 35.6786778 ] } },
{ "type": "Feature", "properties": { "lat": 35.682111, "lon": 139.7691588, "title": "NewDaysミニ 丸地下2A" }, "geometry": { "type": "Point", "coordinates": [ 139.769158800000014, 35.682111 ] } },
{ "type": "Feature", "properties": { "lat": 35.7010487, "lon": 139.7449749, "title": "ファミリーマート 飯田橋駅前店" }, "geometry": { "type": "Point", "coordinates": [ 139.744974899999988, 35.7010487 ] } },
{ "type": "Feature", "properties": { "lat": 35.6936645, "lon": 139.7450307, "title": "ファミリーマート 九段南二丁目店" }, "geometry": { "type": "Point", "coordinates": [ 139.7450307, 35.6936645 ] } },
{ "type": "Feature", "properties": { "lat": 35.7032459, "lon": 139.7714779, "title": "ローソン 末広町駅前店" }, "geometry": { "type": "Point", "coordinates": [ 139.7714779, 35.7032459 ] } },
{ "type": "Feature", "properties": { "lat": 35.683259, "lon": 139.7697422, "title": "ファミリーマート 丸の内トラストタワー店" }, "geometry": { "type": "Point", "coordinates": [ 139.7697422, 35.683259 ] } },
{ "type": "Feature", "properties": { "lat": 35.6915305, "lon": 139.7714622, "title": "ローソン 神田駅東口店" }, "geometry": { "type": "Point", "coordinates": [ 139.7714622, 35.6915305 ] } },
{ "type": "Feature", "properties": { "lat": 35.7020741, "lon": 139.7450226, "title": "ニューデイズ飯田橋1号" }, "geometry": { "type": "Point", "coordinates": [ 139.7450226, 35.7020741 ] } },
{ "type": "Feature", "properties": { "lat": 35.6974579, "lon": 139.7798156, "title": "ファミリーマート 神田佐久間町店" }, "geometry": { "type": "Point", "coordinates": [ 139.7798156, 35.6974579 ] } },
{ "type": "Feature", "properties": { "lat": 35.6960301, "lon": 139.7719971, "title": "ファミリーマート 神田須田町二丁目店" }, "geometry": { "type": "Point", "coordinates": [ 139.7719971, 35.6960301 ] } },
{ "type": "Feature", "properties": { "lat": 35.6791227, "lon": 139.7404343, "title": "セブンイレブン 千代田平河町2丁目店" }, "geometry": { "type": "Point", "coordinates": [ 139.7404343, 35.6791227 ] } },
{ "type": "Feature", "properties": { "lat": 35.6771745, "lon": 139.7375005, "title": "セブンイレブン 赤坂東急プラザ店" }, "geometry": { "type": "Point", "coordinates": [ 139.73750050000001, 35.6771745 ] } },
{ "type": "Feature", "properties": { "lat": 35.682111, "lon": 139.7691588, "title": "NewDaysミニ 京葉2B" }, "geometry": { "type": "Point", "coordinates": [ 139.769158800000014, 35.682111 ] } },
{ "type": "Feature", "properties": { "lat": 35.6791077, "lon": 139.7621731, "title": "ナチュラルローソン NL丸の内マイプラザ店" }, "geometry": { "type": "Point", "coordinates": [ 139.762173100000012, 35.6791077 ] } },
{ "type": "Feature", "properties": { "lat": 35.6811765, "lon": 139.7380918, "title": "ファミリーマート 紀尾井町店" }, "geometry": { "type": "Point", "coordinates": [ 139.7380918, 35.6811765 ] } },
{ "type": "Feature", "properties": { "lat": 35.6992223, "lon": 139.762699, "title": "ファミリーマート 御茶ノ水駅前店" }, "geometry": { "type": "Point", "coordinates": [ 139.762699, 35.6992223 ] } },
{ "type": "Feature", "properties": { "lat": 35.6837107, "lon": 139.7365368, "title": "セブンイレブン 千代田区麹町4丁目店" }, "geometry": { "type": "Point", "coordinates": [ 139.73653680000001, 35.6837107 ] } },
{ "type": "Feature", "properties": { "lat": 35.6990522, "lon": 139.7751523, "title": "ファミリーマート 秋葉原昭和通り店" }, "geometry": { "type": "Point", "coordinates": [ 139.7751523, 35.6990522 ] } },
{ "type": "Feature", "properties": { "lat": 35.6873979, "lon": 139.7421109, "title": "セブンイレブン 千代田一番町店" }, "geometry": { "type": "Point", "coordinates": [ 139.7421109, 35.6873979 ] } },
{ "type": "Feature", "properties": { "lat": 35.6906009, "lon": 139.7724564, "title": "セブンイレブン 千代田鍛冶町1丁目店" }, "geometry": { "type": "Point", "coordinates": [ 139.77245640000001, 35.6906009 ] } },
{ "type": "Feature", "properties": { "lat": 35.6862771, "lon": 139.7365026, "title": "セブンイレブン 麹町駅前店" }, "geometry": { "type": "Point", "coordinates": [ 139.7365026, 35.6862771 ] } },
{ "type": "Feature", "properties": { "lat": 35.6874275, "lon": 139.7661614, "title": "セブンイレブン 大成大手町ビル店" }, "geometry": { "type": "Point", "coordinates": [ 139.766161399999987, 35.6874275 ] } },
{ "type": "Feature", "properties": { "lat": 35.6917216, "lon": 139.7741623, "title": "セブンイレブン 神田紺屋町店" }, "geometry": { "type": "Point", "coordinates": [ 139.7741623, 35.6917216 ] } },
{ "type": "Feature", "properties": { "lat": 35.6945931, "lon": 139.7755507, "title": "セブンイレブン 千代田岩本町3丁目店" }, "geometry": { "type": "Point", "coordinates": [ 139.7755507, 35.6945931 ] } },
{ "type": "Feature", "properties": { "lat": 35.696159, "lon": 139.7588711, "title": "ファミリーマート FUNDES神保町店" }, "geometry": { "type": "Point", "coordinates": [ 139.7588711, 35.696159 ] } },
{ "type": "Feature", "properties": { "lat": 35.6975901, "lon": 139.7548706, "title": "セブンイレブン 神田専大通り店" }, "geometry": { "type": "Point", "coordinates": [ 139.7548706, 35.6975901 ] } },
{ "type": "Feature", "properties": { "lat": 35.695058, "lon": 139.7708347, "title": "セブンイレブン 神田須田町中央通り店" }, "geometry": { "type": "Point", "coordinates": [ 139.7708347, 35.695058 ] } },
{ "type": "Feature", "properties": { "lat": 35.6712173, "lon": 139.7532291, "title": "セブンイレブン 日比谷パークフロント店" }, "geometry": { "type": "Point", "coordinates": [ 139.7532291, 35.6712173 ] } },
{ "type": "Feature", "properties": { "lat": 35.673898, "lon": 139.7606757, "title": "セブンイレブン 日比谷駅前店" }, "geometry": { "type": "Point", "coordinates": [ 139.7606757, 35.673898 ] } },
{ "type": "Feature", "properties": { "lat": 35.7007849, "lon": 139.7491568, "title": "NewDays エドモント飯田橋" }, "geometry": { "type": "Point", "coordinates": [ 139.7491568, 35.7007849 ] } },
{ "type": "Feature", "properties": { "lat": 35.673259, "lon": 139.7530429, "title": "セブンイレブン 中央合同庁舎5号館店" }, "geometry": { "type": "Point", "coordinates": [ 139.7530429, 35.673259 ] } },
{ "type": "Feature", "properties": { "lat": 35.678604, "lon": 139.7408902, "title": "ローソン 永田町一丁目店" }, "geometry": { "type": "Point", "coordinates": [ 139.7408902, 35.678604 ] } },
{ "type": "Feature", "properties": { "lat": 35.6853494, "lon": 139.7632784, "title": "ナチュラルローソン NL大手町西メトロピア店" }, "geometry": { "type": "Point", "coordinates": [ 139.7632784, 35.6853494 ] } },
{ "type": "Feature", "properties": { "lat": 35.6922539, "lon": 139.7434717, "title": "セブンイレブン 九段南大妻通り店" }, "geometry": { "type": "Point", "coordinates": [ 139.743471699999986, 35.6922539 ] } },
{ "type": "Feature", "properties": { "lat": 35.7019661, "lon": 139.7719078, "title": "ファミリーマート 外神田四丁目店" }, "geometry": { "type": "Point", "coordinates": [ 139.7719078, 35.7019661 ] } },
{ "type": "Feature", "properties": { "lat": 35.6708506, "lon": 139.7552752, "title": "ファミリーマート 内幸町富国生命ビル店" }, "geometry": { "type": "Point", "coordinates": [ 139.7552752, 35.6708506 ] } },
{ "type": "Feature", "properties": { "lat": 35.6964345, "lon": 139.757755, "title": "セブンイレブン 神田神保町2丁目店" }, "geometry": { "type": "Point", "coordinates": [ 139.757755, 35.6964345 ] } },
{ "type": "Feature", "properties": { "lat": 35.7027427, "lon": 139.7693074, "title": "セブンイレブン 外神田2丁目妻恋坂店" }, "geometry": { "type": "Point", "coordinates": [ 139.7693074, 35.7027427 ] } },
{ "type": "Feature", "properties": { "lat": 35.6824137, "lon": 139.7348934, "title": "セブンイレブン 紀尾井坂店" }, "geometry": { "type": "Point", "coordinates": [ 139.7348934, 35.6824137 ] } },
{ "type": "Feature", "properties": { "lat": 35.6841522, "lon": 139.7327545, "title": "セブンイレブン 上智大学店" }, "geometry": { "type": "Point", "coordinates": [ 139.7327545, 35.6841522 ] } },
{ "type": "Feature", "properties": { "lat": 35.6950356, "lon": 139.7678103, "title": "セブンイレブン 神田須田町1丁目店" }, "geometry": { "type": "Point", "coordinates": [ 139.7678103, 35.6950356 ] } },
{ "type": "Feature", "properties": { "lat": 35.7020385, "lon": 139.7544269, "title": "NewDays 水道橋東口" }, "geometry": { "type": "Point", "coordinates": [ 139.7544269, 35.7020385 ] } },
{ "type": "Feature", "properties": { "lat": 35.6931483, "lon": 139.7789467, "title": "デイリーヤマザキ 神田岩本町店" }, "geometry": { "type": "Point", "coordinates": [ 139.7789467, 35.6931483 ] } },
{ "type": "Feature", "properties": { "lat": 35.6952883, "lon": 139.7764398, "title": "デイリーヤマザキ 岩本町3丁目店" }, "geometry": { "type": "Point", "coordinates": [ 139.7764398, 35.6952883 ] } },
{ "type": "Feature", "properties": { "lat": 35.701331, "lon": 139.7521722, "title": "ファミリーマート 水道橋西通り店" }, "geometry": { "type": "Point", "coordinates": [ 139.7521722, 35.701331 ] } },
{ "type": "Feature", "properties": { "lat": 35.6931713, "lon": 139.7632877, "title": "ローソン 神田スクエア店" }, "geometry": { "type": "Point", "coordinates": [ 139.7632877, 35.6931713 ] } },
{ "type": "Feature", "properties": { "lat": 35.6752811, "lon": 139.7523823, "title": "ファミリーマート 東京高等裁判所内店" }, "geometry": { "type": "Point", "coordinates": [ 139.7523823, 35.6752811 ] } },
{ "type": "Feature", "properties": { "lat": 35.6794453, "lon": 139.737261, "title": "ファミリーマート ファミマ東京ガーデンテラス店" }, "geometry": { "type": "Point", "coordinates": [ 139.737261, 35.6794453 ] } },
{ "type": "Feature", "properties": { "lat": 35.6712436, "lon": 139.7471765, "title": "ファミリーマート ファミマ霞が関ビルディング店" }, "geometry": { "type": "Point", "coordinates": [ 139.7471765, 35.6712436 ] } },
{ "type": "Feature", "properties": { "lat": 35.6923842, "lon": 139.767644, "title": "ファミリーマート 神田司町店" }, "geometry": { "type": "Point", "coordinates": [ 139.767644, 35.6923842 ] } },
{ "type": "Feature", "properties": { "lat": 35.698958, "lon": 139.7742547, "title": "ファミリーマート TX秋葉原駅店" }, "geometry": { "type": "Point", "coordinates": [ 139.7742547, 35.698958 ] } },
{ "type": "Feature", "properties": { "lat": 35.6877592, "lon": 139.7350358, "title": "ファミリーマート 六番町日テレ前店" }, "geometry": { "type": "Point", "coordinates": [ 139.7350358, 35.6877592 ] } },
{ "type": "Feature", "properties": { "lat": 35.6926894, "lon": 139.759521, "title": "ミニストップ 神田錦町3丁目店" }, "geometry": { "type": "Point", "coordinates": [ 139.759521, 35.6926894 ] } },
{ "type": "Feature", "properties": { "lat": 35.6948643, "lon": 139.7518974, "title": "ミニストップ 九段南1丁目店" }, "geometry": { "type": "Point", "coordinates": [ 139.7518974, 35.694864300000013 ] } },
{ "type": "Feature", "properties": { "lat": 35.6927387, "lon": 139.7709376, "title": "ファミリーマート 神田駅北口店" }, "geometry": { "type": "Point", "coordinates": [ 139.7709376, 35.6927387 ] } },
{ "type": "Feature", "properties": { "lat": 35.6738684, "lon": 139.7458101, "title": "ファミリーマート 参議院/S店" }, "geometry": { "type": "Point", "coordinates": [ 139.7458101, 35.6738684 ] } },
{ "type": "Feature", "properties": { "lat": 35.6937316, "lon": 139.7656244, "title": "ミニストップ 神田美土代町店" }, "geometry": { "type": "Point", "coordinates": [ 139.7656244, 35.6937316 ] } },
{ "type": "Feature", "properties": { "lat": 35.6924592, "lon": 139.7415321, "title": "セブンイレブン 九段南3丁目店" }, "geometry": { "type": "Point", "coordinates": [ 139.7415321, 35.6924592 ] } },
{ "type": "Feature", "properties": { "lat": 35.6933182, "lon": 139.7780281, "title": "セブンイレブン 千代田岩本町2丁目店" }, "geometry": { "type": "Point", "coordinates": [ 139.7780281, 35.6933182 ] } },
{ "type": "Feature", "properties": { "lat": 35.6871691, "lon": 139.767138, "title": "ローソン JPローソン大手町プレイス地下2F店" }, "geometry": { "type": "Point", "coordinates": [ 139.767138, 35.6871691 ] } },
{ "type": "Feature", "properties": { "lat": 35.6825995, "lon": 139.7643435, "title": "セブンイレブン 新丸ビルフロアナイン店" }, "geometry": { "type": "Point", "coordinates": [ 139.7643435, 35.682599499999988 ] } },
{ "type": "Feature", "properties": { "lat": 35.6947683, "lon": 139.7648685, "title": "セブンイレブン 神田小川町2丁目店" }, "geometry": { "type": "Point", "coordinates": [ 139.7648685, 35.6947683 ] } },
{ "type": "Feature", "properties": { "lat": 35.682111, "lon": 139.7691588, "title": "NewDays 八重洲中央改札内" }, "geometry": { "type": "Point", "coordinates": [ 139.769158800000014, 35.682111 ] } },
{ "type": "Feature", "properties": { "lat": 35.67397, "lon": 139.7410663, "title": "セブンイレブン 東急キャピトルタワー店" }, "geometry": { "type": "Point", "coordinates": [ 139.7410663, 35.67397 ] } },
{ "type": "Feature", "properties": { "lat": 35.6877322, "lon": 139.7647547, "title": "セブンイレブン KDDI大手町ビル店" }, "geometry": { "type": "Point", "coordinates": [ 139.7647547, 35.6877322 ] } },
{ "type": "Feature", "properties": { "lat": 35.677514, "lon": 139.7624926, "title": "ナチュラルローソン NL新東京ビル店" }, "geometry": { "type": "Point", "coordinates": [ 139.7624926, 35.677514 ] } },
{ "type": "Feature", "properties": { "lat": 35.6891695, "lon": 139.735847, "title": "ナチュラルローソン NL千代田四番町店" }, "geometry": { "type": "Point", "coordinates": [ 139.735847, 35.6891695 ] } },
{ "type": "Feature", "properties": { "lat": 35.6915163, "lon": 139.7633045, "title": "セブンイレブン 神田錦町2丁目店" }, "geometry": { "type": "Point", "coordinates": [ 139.7633045, 35.6915163 ] } },
{ "type": "Feature", "properties": { "lat": 35.7033951, "lon": 139.7721031, "title": "ローソン 秋葉原中央通店" }, "geometry": { "type": "Point", "coordinates": [ 139.77210310000001, 35.7033951 ] } },
{ "type": "Feature", "properties": { "lat": 35.6742704, "lon": 139.7592781, "title": "セブンイレブン 東京ミッドタウン日比谷ラウンジ店" }, "geometry": { "type": "Point", "coordinates": [ 139.759278099999989, 35.6742704 ] } },
{ "type": "Feature", "properties": { "lat": 35.682111, "lon": 139.7691588, "title": "NewDays KIOSK 東京駅中央線ホーム北" }, "geometry": { "type": "Point", "coordinates": [ 139.769158800000014, 35.682111 ] } },
{ "type": "Feature", "properties": { "lat": 35.7020741, "lon": 139.7450226, "title": "NewDays エキュートエディション 飯田橋西口" }, "geometry": { "type": "Point", "coordinates": [ 139.7450226, 35.7020741 ] } },
{ "type": "Feature", "properties": { "lat": 35.6911339, "lon": 139.7733452, "title": "ミニストップ 神田鍛冶町店" }, "geometry": { "type": "Point", "coordinates": [ 139.7733452, 35.6911339 ] } },
{ "type": "Feature", "properties": { "lat": 35.6812921, "lon": 139.7664399, "title": "ローソン 丸の内テラス店" }, "geometry": { "type": "Point", "coordinates": [ 139.7664399, 35.6812921 ] } },
{ "type": "Feature", "properties": { "lat": 35.6964531, "lon": 139.7600368, "title": "ミニストップ 神田神保町1丁目店" }, "geometry": { "type": "Point", "coordinates": [ 139.7600368, 35.6964531 ] } },
{ "type": "Feature", "properties": { "lat": 35.6833053, "lon": 139.7418314, "title": "ファミリーマート 半蔵門駅南店" }, "geometry": { "type": "Point", "coordinates": [ 139.7418314, 35.6833053 ] } },
{ "type": "Feature", "properties": { "lat": 35.6922807, "lon": 139.7645104, "title": "ミニストップ 神田錦町1丁目店" }, "geometry": { "type": "Point", "coordinates": [ 139.7645104, 35.6922807 ] } },
{ "type": "Feature", "properties": { "lat": 35.6767504, "lon": 139.7634509, "title": "ファミリーマート 東京国際フォーラム店" }, "geometry": { "type": "Point", "coordinates": [ 139.7634509, 35.6767504 ] } },
{ "type": "Feature", "properties": { "lat": 35.6962848, "lon": 139.7549027, "title": "ファミリーマート 専大通り店" }, "geometry": { "type": "Point", "coordinates": [ 139.7549027, 35.6962848 ] } },
{ "type": "Feature", "properties": { "lat": 35.6910905, "lon": 139.7395254, "title": "ミニストップ 九段南4丁目店" }, "geometry": { "type": "Point", "coordinates": [ 139.7395254, 35.6910905 ] } },
{ "type": "Feature", "properties": { "lat": 35.6935374, "lon": 139.776463, "title": "ミニストップ 岩本町2丁目店" }, "geometry": { "type": "Point", "coordinates": [ 139.776463, 35.6935374 ] } },
{ "type": "Feature", "properties": { "lat": 35.6743187, "lon": 139.7536284, "title": "生活彩家 弁護士会館店" }, "geometry": { "type": "Point", "coordinates": [ 139.7536284, 35.6743187 ] } },
{ "type": "Feature", "properties": { "lat": 35.6942826, "lon": 139.7562685, "title": "セブンイレブン 千代田一ツ橋2丁目店" }, "geometry": { "type": "Point", "coordinates": [ 139.7562685, 35.6942826 ] } },
{ "type": "Feature", "properties": { "lat": 35.6849672, "lon": 139.7416922, "title": "ファミリーマート 麹町一丁目店" }, "geometry": { "type": "Point", "coordinates": [ 139.741692199999989, 35.6849672 ] } },
{ "type": "Feature", "properties": { "lat": 35.699049, "lon": 139.7447854, "title": "ミニストップ 飯田橋駅西口店" }, "geometry": { "type": "Point", "coordinates": [ 139.744785400000012, 35.699049 ] } },
{ "type": "Feature", "properties": { "lat": 35.6717446, "lon": 139.74781, "title": "cisca 霞が関コモンゲート店" }, "geometry": { "type": "Point", "coordinates": [ 139.74781, 35.6717446 ] } },
{ "type": "Feature", "properties": { "lat": 35.6948494, "lon": 139.7735609, "title": "生活彩家 神田東店" }, "geometry": { "type": "Point", "coordinates": [ 139.7735609, 35.6948494 ] } },
{ "type": "Feature", "properties": { "lat": 35.6709468, "lon": 139.7457208, "title": "セブンイレブン 特許庁店" }, "geometry": { "type": "Point", "coordinates": [ 139.745720799999987, 35.6709468 ] } },
{ "type": "Feature", "properties": { "lat": 35.6908048, "lon": 139.7669252, "title": "セブンイレブン 内神田1丁目店" }, "geometry": { "type": "Point", "coordinates": [ 139.7669252, 35.6908048 ] } },
{ "type": "Feature", "properties": { "lat": 35.6897889, "lon": 139.7675078, "title": "セブンイレブン 内神田2丁目店" }, "geometry": { "type": "Point", "coordinates": [ 139.7675078, 35.6897889 ] } },
{ "type": "Feature", "properties": { "lat": 35.6988933, "lon": 139.7639165, "title": "セブンイレブン 駿河台三楽病院店" }, "geometry": { "type": "Point", "coordinates": [ 139.7639165, 35.6988933 ] } },
{ "type": "Feature", "properties": { "lat": 35.6756858, "lon": 139.7430279, "title": "セブンイレブン 衆議院第二議員会館店" }, "geometry": { "type": "Point", "coordinates": [ 139.743027899999987, 35.6756858 ] } },
{ "type": "Feature", "properties": { "lat": 35.7027054, "lon": 139.7722767, "title": "セブンイレブン 外神田4丁目店" }, "geometry": { "type": "Point", "coordinates": [ 139.7722767, 35.7027054 ] } },
{ "type": "Feature", "properties": { "lat": 35.6996704, "lon": 139.7460123, "title": "セブンイレブン 千代田大神宮通り店" }, "geometry": { "type": "Point", "coordinates": [ 139.7460123, 35.6996704 ] } },
{ "type": "Feature", "properties": { "lat": 35.7002728, "lon": 139.7758712, "title": "セブンイレブン 神田和泉町店" }, "geometry": { "type": "Point", "coordinates": [ 139.775871200000012, 35.7002728 ] } },
{ "type": "Feature", "properties": { "lat": 35.6979155, "lon": 139.7764367, "title": "セブンイレブン 秋葉原昭和通り店" }, "geometry": { "type": "Point", "coordinates": [ 139.7764367, 35.6979155 ] } },
{ "type": "Feature", "properties": { "lat": 35.6971459, "lon": 139.7674443, "title": "セブンイレブン 神田淡路町ワテラス店" }, "geometry": { "type": "Point", "coordinates": [ 139.7674443, 35.6971459 ] } },
{ "type": "Feature", "properties": { "lat": 35.6765591, "lon": 139.7423471, "title": "セブンイレブン 参議院議員会館店" }, "geometry": { "type": "Point", "coordinates": [ 139.742347099999989, 35.6765591 ] } },
{ "type": "Feature", "properties": { "lat": 35.6842777, "lon": 139.7650482, "title": "セブンイレブン 丸の内永楽ビル店" }, "geometry": { "type": "Point", "coordinates": [ 139.7650482, 35.6842777 ] } },
{ "type": "Feature", "properties": { "lat": 35.6844152, "lon": 139.7334774, "title": "セブンイレブン 麹町5丁目店" }, "geometry": { "type": "Point", "coordinates": [ 139.7334774, 35.6844152 ] } },
{ "type": "Feature", "properties": { "lat": 35.6921818, "lon": 139.7598846, "title": "セブンイレブン 神田錦町千代田通り店" }, "geometry": { "type": "Point", "coordinates": [ 139.7598846, 35.6921818 ] } },
{ "type": "Feature", "properties": { "lat": 35.699768, "lon": 139.7741333, "title": "セブンイレブン 秋葉原駅北店" }, "geometry": { "type": "Point", "coordinates": [ 139.774133299999988, 35.699768 ] } },
{ "type": "Feature", "properties": { "lat": 35.6909195, "lon": 139.7574614, "title": "セブンイレブン パレスサイドビル店" }, "geometry": { "type": "Point", "coordinates": [ 139.757461400000011, 35.6909195 ] } },
{ "type": "Feature", "properties": { "lat": 35.6758386, "lon": 139.7546621, "title": "セブンイレブン DJ中央合同庁舎6号館店" }, "geometry": { "type": "Point", "coordinates": [ 139.7546621, 35.6758386 ] } },
{ "type": "Feature", "properties": { "lat": 35.6742556, "lon": 139.7627339, "title": "セブンイレブン 有楽町駅前店" }, "geometry": { "type": "Point", "coordinates": [ 139.7627339, 35.6742556 ] } },
{ "type": "Feature", "properties": { "lat": 35.6992908, "lon": 139.7739578, "title": "セブンイレブン 秋葉原フコク生命ビル店" }, "geometry": { "type": "Point", "coordinates": [ 139.7739578, 35.6992908 ] } },
{ "type": "Feature", "properties": { "lat": 35.6832388, "lon": 139.7386075, "title": "セブンイレブン 千代田区麹町3丁目店" }, "geometry": { "type": "Point", "coordinates": [ 139.7386075, 35.6832388 ] } },
{ "type": "Feature", "properties": { "lat": 35.6960459, "lon": 139.7540095, "title": "セブンイレブン 神田神保町3丁目店" }, "geometry": { "type": "Point", "coordinates": [ 139.7540095, 35.6960459 ] } },
{ "type": "Feature", "properties": { "lat": 35.6856247, "lon": 139.7340705, "title": "セブンイレブン 千代田二番町店" }, "geometry": { "type": "Point", "coordinates": [ 139.7340705, 35.6856247 ] } },
{ "type": "Feature", "properties": { "lat": 35.7001269, "lon": 139.7478551, "title": "セブンイレブン 飯田橋4丁目店" }, "geometry": { "type": "Point", "coordinates": [ 139.74785510000001, 35.7001269 ] } },
{ "type": "Feature", "properties": { "lat": 35.6909839, "lon": 139.7685126, "title": "セブンイレブン 神田駅西口通り店" }, "geometry": { "type": "Point", "coordinates": [ 139.7685126, 35.6909839 ] } },
{ "type": "Feature", "properties": { "lat": 35.700409, "lon": 139.7505294, "title": "セブンイレブン KDDI本社店" }, "geometry": { "type": "Point", "coordinates": [ 139.7505294, 35.700409 ] } },
{ "type": "Feature", "properties": { "lat": 35.6991374, "lon": 139.7512629, "title": "セブンイレブン 大和ハウス九段ビル店" }, "geometry": { "type": "Point", "coordinates": [ 139.7512629, 35.6991374 ] } },
{ "type": "Feature", "properties": { "lat": 35.6708825, "lon": 139.7527569, "title": "セブンイレブン 内幸町2丁目店" }, "geometry": { "type": "Point", "coordinates": [ 139.7527569, 35.6708825 ] } },
{ "type": "Feature", "properties": { "lat": 35.7011756, "lon": 139.7500145, "title": "セブンイレブン 飯田橋アイガーデンテラス店" }, "geometry": { "type": "Point", "coordinates": [ 139.7500145, 35.7011756 ] } },
{ "type": "Feature", "properties": { "lat": 35.6958038, "lon": 139.7796657, "title": "セブンイレブン 東神田2丁目店" }, "geometry": { "type": "Point", "coordinates": [ 139.77966570000001, 35.6958038 ] } },
{ "type": "Feature", "properties": { "lat": 35.6904472, "lon": 139.7359039, "title": "セブンイレブン 市ヶ谷駅前店" }, "geometry": { "type": "Point", "coordinates": [ 139.735903900000011, 35.6904472 ] } },
{ "type": "Feature", "properties": { "lat": 35.6921303, "lon": 139.7565027, "title": "セブンイレブン 住友商事竹橋ビル店" }, "geometry": { "type": "Point", "coordinates": [ 139.7565027, 35.6921303 ] } },
{ "type": "Feature", "properties": { "lat": 35.6910585, "lon": 139.7711534, "title": "セブンイレブン 神田駅南口店" }, "geometry": { "type": "Point", "coordinates": [ 139.7711534, 35.6910585 ] } },
{ "type": "Feature", "properties": { "lat": 35.6932536, "lon": 139.7647487, "title": "セブンイレブン 神田錦町1丁目店" }, "geometry": { "type": "Point", "coordinates": [ 139.764748700000013, 35.6932536 ] } },
{ "type": "Feature", "properties": { "lat": 35.7002374, "lon": 139.753289, "title": "セブンイレブン 神田三崎町2丁目店" }, "geometry": { "type": "Point", "coordinates": [ 139.753289, 35.7002374 ] } },
{ "type": "Feature", "properties": { "lat": 35.6869994, "lon": 139.7654691, "title": "セブンイレブン 東京サンケイビル店" }, "geometry": { "type": "Point", "coordinates": [ 139.7654691, 35.6869994 ] } },
{ "type": "Feature", "properties": { "lat": 35.6920551, "lon": 139.7778216, "title": "セブンイレブン 千代田岩本町1丁目店" }, "geometry": { "type": "Point", "coordinates": [ 139.77782160000001, 35.6920551 ] } },
{ "type": "Feature", "properties": { "lat": 35.6740974, "lon": 139.7595307, "title": "セブンイレブン 東京ミッドタウン日比谷店" }, "geometry": { "type": "Point", "coordinates": [ 139.7595307, 35.6740974 ] } },
{ "type": "Feature", "properties": { "lat": 35.6985164, "lon": 139.7570489, "title": "セブンイレブン 神田神保町1丁目店" }, "geometry": { "type": "Point", "coordinates": [ 139.7570489, 35.6985164 ] } },
{ "type": "Feature", "properties": { "lat": 35.6920699, "lon": 139.7386963, "title": "セブンイレブン 九段北4丁目店" }, "geometry": { "type": "Point", "coordinates": [ 139.738696299999987, 35.6920699 ] } },
{ "type": "Feature", "properties": { "lat": 35.6876366, "lon": 139.7623328, "title": "セブンイレブン Otemachi One店" }, "geometry": { "type": "Point", "coordinates": [ 139.7623328, 35.6876366 ] } },
{ "type": "Feature", "properties": { "lat": 35.6827243, "lon": 139.7416012, "title": "セブンイレブン 千代田平河町1丁目店" }, "geometry": { "type": "Point", "coordinates": [ 139.7416012, 35.6827243 ] } },
{ "type": "Feature", "properties": { "lat": 35.6964834, "lon": 139.769611, "title": "セブンイレブン 神田万世橋南店" }, "geometry": { "type": "Point", "coordinates": [ 139.769611, 35.6964834 ] } },
{ "type": "Feature", "properties": { "lat": 35.6756187, "lon": 139.73864, "title": "セブンイレブン プルデンシャルタワー店" }, "geometry": { "type": "Point", "coordinates": [ 139.73864, 35.6756187 ] } },
{ "type": "Feature", "properties": { "lat": 35.6926342, "lon": 139.7752921, "title": "セブンイレブン 神田岩本町店" }, "geometry": { "type": "Point", "coordinates": [ 139.7752921, 35.6926342 ] } },
{ "type": "Feature", "properties": { "lat": 35.6765591, "lon": 139.7423471, "title": "セブンイレブン DJ参議院議員会館店" }, "geometry": { "type": "Point", "coordinates": [ 139.742347099999989, 35.6765591 ] } },
{ "type": "Feature", "properties": { "lat": 35.6871691, "lon": 139.767138, "title": "セブンイレブン NTTCom大手町プレイス店" }, "geometry": { "type": "Point", "coordinates": [ 139.767138, 35.6871691 ] } },
{ "type": "Feature", "properties": { "lat": 35.682111, "lon": 139.7691588, "title": "NewDays 東ホ6A" }, "geometry": { "type": "Point", "coordinates": [ 139.769158800000014, 35.682111 ] } },
{ "type": "Feature", "properties": { "lat": 35.6901849, "lon": 139.7342675, "title": "NewDays 市ヶ谷" }, "geometry": { "type": "Point", "coordinates": [ 139.734267499999987, 35.690184900000013 ] } },
{ "type": "Feature", "properties": { "lat": 35.6955438, "lon": 139.7590885, "title": "セブンイレブン 神田すずらん通り店" }, "geometry": { "type": "Point", "coordinates": [ 139.7590885, 35.6955438 ] } },
{ "type": "Feature", "properties": { "lat": 35.682111, "lon": 139.7691588, "title": "NewDays+HANAGATAYA グランスタ東京京葉ストリート" }, "geometry": { "type": "Point", "coordinates": [ 139.769158800000014, 35.682111 ] } },
{ "type": "Feature", "properties": { "lat": 35.6984138, "lon": 139.7723965, "title": "NewDaysミニ 秋葉原3号" }, "geometry": { "type": "Point", "coordinates": [ 139.772396500000013, 35.6984138 ] } },
{ "type": "Feature", "properties": { "lat": 35.6987711, "lon": 139.7719214, "title": "セブンイレブン 秋葉原電気街口店" }, "geometry": { "type": "Point", "coordinates": [ 139.7719214, 35.6987711 ] } },
{ "type": "Feature", "properties": { "lat": 35.6906492, "lon": 139.7597087, "title": "セブンイレブン 丸紅ビル店" }, "geometry": { "type": "Point", "coordinates": [ 139.7597087, 35.6906492 ] } },
{ "type": "Feature", "properties": { "lat": 35.6933903, "lon": 139.7724844, "title": "セブンイレブン 千代田鍛冶町2丁目店" }, "geometry": { "type": "Point", "coordinates": [ 139.7724844, 35.6933903 ] } },
{ "type": "Feature", "properties": { "lat": 35.6862409, "lon": 139.735904, "title": "セブンイレブン 二番町ファーストビル店" }, "geometry": { "type": "Point", "coordinates": [ 139.735904, 35.6862409 ] } },
{ "type": "Feature", "properties": { "lat": 35.6832444, "lon": 139.7383696, "title": "セブンイレブン 麹町3丁目店" }, "geometry": { "type": "Point", "coordinates": [ 139.7383696, 35.6832444 ] } },
{ "type": "Feature", "properties": { "lat": 35.697987, "lon": 139.7464814, "title": "セブンイレブン 千代田富士見1丁目店" }, "geometry": { "type": "Point", "coordinates": [ 139.7464814, 35.697987 ] } },
{ "type": "Feature", "properties": { "lat": 35.6910219, "lon": 139.7366517, "title": "セブンイレブン 九段南4丁目店" }, "geometry": { "type": "Point", "coordinates": [ 139.73665170000001, 35.6910219 ] } },
{ "type": "Feature", "properties": { "lat": 35.7007498, "lon": 139.752579, "title": "セブンイレブン 大和ハウスリアルティマネジメン店" }, "geometry": { "type": "Point", "coordinates": [ 139.752579, 35.7007498 ] } },
{ "type": "Feature", "properties": { "lat": 35.6942062, "lon": 139.7592182, "title": "セブンイレブン 神保町駅前店" }, "geometry": { "type": "Point", "coordinates": [ 139.7592182, 35.6942062 ] } },
{ "type": "Feature", "properties": { "lat": 35.682111, "lon": 139.7691588, "title": "NewDaysミニ 丸地下7号" }, "geometry": { "type": "Point", "coordinates": [ 139.769158800000014, 35.682111 ] } },
{ "type": "Feature", "properties": { "lat": 35.6984138, "lon": 139.7723965, "title": "NewDays メッツ秋葉原" }, "geometry": { "type": "Point", "coordinates": [ 139.772396500000013, 35.6984138 ] } },
{ "type": "Feature", "properties": { "lat": 35.682111, "lon": 139.7691588, "title": "NewDays 東京幹線ホ5A" }, "geometry": { "type": "Point", "coordinates": [ 139.769158800000014, 35.682111 ] } },
{ "type": "Feature", "properties": { "lat": 35.682111, "lon": 139.7691588, "title": "NewDays グランスタ東京中央通路" }, "geometry": { "type": "Point", "coordinates": [ 139.769158800000014, 35.682111 ] } },
{ "type": "Feature", "properties": { "lat": 35.682111, "lon": 139.7691588, "title": "NewDays グランスタ八重洲北口" }, "geometry": { "type": "Point", "coordinates": [ 139.769158800000014, 35.682111 ] } },
{ "type": "Feature", "properties": { "lat": 35.6850642, "lon": 139.7316193, "title": "NewDaysミニ 四ツ谷2号" }, "geometry": { "type": "Point", "coordinates": [ 139.7316193, 35.6850642 ] } },
{ "type": "Feature", "properties": { "lat": 35.7021219, "lon": 139.7449152, "title": "NewDays 飯田橋" }, "geometry": { "type": "Point", "coordinates": [ 139.7449152, 35.7021219 ] } },
{ "type": "Feature", "properties": { "lat": 35.6933764, "lon": 139.7712942, "title": "NewDays 神田南口改札外" }, "geometry": { "type": "Point", "coordinates": [ 139.7712942, 35.6933764 ] } },
{ "type": "Feature", "properties": { "lat": 35.6917479, "lon": 139.770799, "title": "NewDays 神田北口" }, "geometry": { "type": "Point", "coordinates": [ 139.770799, 35.6917479 ] } },
{ "type": "Feature", "properties": { "lat": 35.682111, "lon": 139.7691588, "title": "NewDays グランスタ東京北通路" }, "geometry": { "type": "Point", "coordinates": [ 139.769158800000014, 35.682111 ] } },
{ "type": "Feature", "properties": { "lat": 35.6968856, "lon": 139.7700348, "title": "NewDays 神田万世橋ビル" }, "geometry": { "type": "Point", "coordinates": [ 139.7700348, 35.6968856 ] } },
{ "type": "Feature", "properties": { "lat": 35.6984138, "lon": 139.7723965, "title": "NewDays エキュート秋葉原" }, "geometry": { "type": "Point", "coordinates": [ 139.772396500000013, 35.6984138 ] } },
{ "type": "Feature", "properties": { "lat": 35.6753907, "lon": 139.7639012, "title": "NewDays 有楽町日比谷口" }, "geometry": { "type": "Point", "coordinates": [ 139.7639012, 35.6753907 ] } },
{ "type": "Feature", "properties": { "lat": 35.6904018, "lon": 139.7370742, "title": "NewDays 都営市ヶ谷" }, "geometry": { "type": "Point", "coordinates": [ 139.7370742, 35.6904018 ] } },
{ "type": "Feature", "properties": { "lat": 35.700322, "lon": 139.761055, "title": "NewDays エキュートエディション御茶ノ水" }, "geometry": { "type": "Point", "coordinates": [ 139.761055, 35.700322 ] } },
{ "type": "Feature", "properties": { "lat": 35.6767148, "lon": 139.7612147, "title": "ローソン 丸の内国際ビル店" }, "geometry": { "type": "Point", "coordinates": [ 139.761214700000011, 35.6767148 ] } },
{ "type": "Feature", "properties": { "lat": 35.6811829, "lon": 139.7637704, "title": "ナチュラルローソン NL丸の内ビルディング店" }, "geometry": { "type": "Point", "coordinates": [ 139.7637704, 35.6811829 ] } },
{ "type": "Feature", "properties": { "lat": 35.6801396, "lon": 139.7625539, "title": "ローソン 丸の内仲通りビル店" }, "geometry": { "type": "Point", "coordinates": [ 139.7625539, 35.6801396 ] } },
{ "type": "Feature", "properties": { "lat": 35.6807543, "lon": 139.7621981, "title": "ローソン 丸の内二重橋前店" }, "geometry": { "type": "Point", "coordinates": [ 139.7621981, 35.6807543 ] } },
{ "type": "Feature", "properties": { "lat": 35.6719445, "lon": 139.7464795, "title": "ナチュラルローソン NL新霞が関ビル店" }, "geometry": { "type": "Point", "coordinates": [ 139.7464795, 35.6719445 ] } },
{ "type": "Feature", "properties": { "lat": 35.6838017, "lon": 139.7349674, "title": "ローソン 麹町五丁目店" }, "geometry": { "type": "Point", "coordinates": [ 139.734967399999988, 35.6838017 ] } },
{ "type": "Feature", "properties": { "lat": 35.6975763, "lon": 139.7432623, "title": "ローソン JPローソン東京逓信病院店" }, "geometry": { "type": "Point", "coordinates": [ 139.7432623, 35.6975763 ] } },
{ "type": "Feature", "properties": { "lat": 35.6961004, "lon": 139.7562735, "title": "ローソン 神田神保町二丁目店" }, "geometry": { "type": "Point", "coordinates": [ 139.7562735, 35.6961004 ] } },
{ "type": "Feature", "properties": { "lat": 35.6970077, "lon": 139.7511303, "title": "ローソン 九段北目白通店" }, "geometry": { "type": "Point", "coordinates": [ 139.7511303, 35.6970077 ] } },
{ "type": "Feature", "properties": { "lat": 35.7008551, "lon": 139.7738343, "title": "ローソン 秋葉原北口店" }, "geometry": { "type": "Point", "coordinates": [ 139.7738343, 35.7008551 ] } },
{ "type": "Feature", "properties": { "lat": 35.683519, "lon": 139.7411129, "title": "ローソン 麹町二丁目店" }, "geometry": { "type": "Point", "coordinates": [ 139.7411129, 35.683519 ] } },
{ "type": "Feature", "properties": { "lat": 35.6957284, "lon": 139.7778128, "title": "ローソン 岩本町三丁目店" }, "geometry": { "type": "Point", "coordinates": [ 139.7778128, 35.6957284 ] } },
{ "type": "Feature", "properties": { "lat": 35.682111, "lon": 139.7691588, "title": "NewDaysミニ 東ホ5C" }, "geometry": { "type": "Point", "coordinates": [ 139.769158800000014, 35.682111 ] } },
{ "type": "Feature", "properties": { "lat": 35.6970817, "lon": 139.7633241, "title": "ローソン 神田駿河台一丁目店" }, "geometry": { "type": "Point", "coordinates": [ 139.7633241, 35.6970817 ] } },
{ "type": "Feature", "properties": { "lat": 35.6965111, "lon": 139.7520965, "title": "ローソン 九段北一丁目店" }, "geometry": { "type": "Point", "coordinates": [ 139.7520965, 35.6965111 ] } },
{ "type": "Feature", "properties": { "lat": 35.6767148, "lon": 139.7612147, "title": "ナチュラルローソン NLS帝劇ビル店" }, "geometry": { "type": "Point", "coordinates": [ 139.761214700000011, 35.6767148 ] } },
{ "type": "Feature", "properties": { "lat": 35.6831279, "lon": 139.7703003, "title": "ナチュラルローソン NLTEKKOavenue店" }, "geometry": { "type": "Point", "coordinates": [ 139.7703003, 35.6831279 ] } },
{ "type": "Feature", "properties": { "lat": 35.6850064, "lon": 139.767045, "title": "ローソン H新大手町ビル店" }, "geometry": { "type": "Point", "coordinates": [ 139.767045, 35.6850064 ] } },
{ "type": "Feature", "properties": { "lat": 35.6912777, "lon": 139.7455304, "title": "ナチュラルローソン NL千代田三番町店" }, "geometry": { "type": "Point", "coordinates": [ 139.7455304, 35.6912777 ] } },
{ "type": "Feature", "properties": { "lat": 35.6802718, "lon": 139.7402148, "title": "ローソンサテライト JA共済ビル店" }, "geometry": { "type": "Point", "coordinates": [ 139.7402148, 35.6802718 ] } },
{ "type": "Feature", "properties": { "lat": 35.7000136, "lon": 139.7688233, "title": "ローソン 神田明神店" }, "geometry": { "type": "Point", "coordinates": [ 139.7688233, 35.7000136 ] } },
{ "type": "Feature", "properties": { "lat": 35.7001786, "lon": 139.7703307, "title": "ローソン 外神田三丁目店" }, "geometry": { "type": "Point", "coordinates": [ 139.770330699999988, 35.7001786 ] } },
{ "type": "Feature", "properties": { "lat": 35.6880316, "lon": 139.7658683, "title": "ナチュラルローソン NL大手町フィナンシャルシティノース店" }, "geometry": { "type": "Point", "coordinates": [ 139.7658683, 35.6880316 ] } },
{ "type": "Feature", "properties": { "lat": 35.6984525, "lon": 139.7433883, "title": "ローソン 飯田橋サクラテラス店" }, "geometry": { "type": "Point", "coordinates": [ 139.7433883, 35.6984525 ] } },
{ "type": "Feature", "properties": { "lat": 35.6905562, "lon": 139.7692358, "title": "ローソン 内神田三丁目店" }, "geometry": { "type": "Point", "coordinates": [ 139.7692358, 35.6905562 ] } },
{ "type": "Feature", "properties": { "lat": 35.690762, "lon": 139.7679091, "title": "ローソン 内神田二丁目店" }, "geometry": { "type": "Point", "coordinates": [ 139.7679091, 35.690762 ] } },
{ "type": "Feature", "properties": { "lat": 35.6911977, "lon": 139.7722779, "title": "ナチュラルローソン NL神田鍛冶町二丁目店" }, "geometry": { "type": "Point", "coordinates": [ 139.7722779, 35.6911977 ] } },
{ "type": "Feature", "properties": { "lat": 35.7000136, "lon": 139.7616651, "title": "ローソン H神田駿河台店" }, "geometry": { "type": "Point", "coordinates": [ 139.761665099999988, 35.7000136 ] } },
{ "type": "Feature", "properties": { "lat": 35.6876996, "lon": 139.7657372, "title": "ナチュラルローソン NLS大手町フィナンシャルシティサウス店" }, "geometry": { "type": "Point", "coordinates": [ 139.7657372, 35.687699599999988 ] } },
{ "type": "Feature", "properties": { "lat": 35.6796367, "lon": 139.7414921, "title": "ナチュラルローソン NL平河町森タワー店" }, "geometry": { "type": "Point", "coordinates": [ 139.741492099999988, 35.6796367 ] } },
{ "type": "Feature", "properties": { "lat": 35.6882783, "lon": 139.7648584, "title": "ローソン 大手町フィナンシャルシティグランキューブ店" }, "geometry": { "type": "Point", "coordinates": [ 139.7648584, 35.6882783 ] } },
{ "type": "Feature", "properties": { "lat": 35.6807543, "lon": 139.7621981, "title": "ローソン MC FOREST店" }, "geometry": { "type": "Point", "coordinates": [ 139.7621981, 35.6807543 ] } },
{ "type": "Feature", "properties": { "lat": 35.6871691, "lon": 139.767138, "title": "ローソン JPローソン大手町プレイス2F店" }, "geometry": { "type": "Point", "coordinates": [ 139.767138, 35.6871691 ] } },
{ "type": "Feature", "properties": { "lat": 35.6931416, "lon": 139.7624554, "title": "ローソン 千代田神田錦町三丁目店" }, "geometry": { "type": "Point", "coordinates": [ 139.7624554, 35.6931416 ] } },
{ "type": "Feature", "properties": { "lat": 35.6985839, "lon": 139.7440754, "title": "ローソン 千代田富士見二丁目店" }, "geometry": { "type": "Point", "coordinates": [ 139.744075400000014, 35.6985839 ] } },
{ "type": "Feature", "properties": { "lat": 35.6698412, "lon": 139.7549727, "title": "ナチュラルローソン NL日比谷国際ビル店" }, "geometry": { "type": "Point", "coordinates": [ 139.7549727, 35.6698412 ] } },
{ "type": "Feature", "properties": { "lat": 35.7013431, "lon": 139.7748727, "title": "ローソン JEBL秋葉原スクエア店" }, "geometry": { "type": "Point", "coordinates": [ 139.7748727, 35.7013431 ] } },
{ "type": "Feature", "properties": { "lat": 35.6917904, "lon": 139.7613357, "title": "ローソン 神田錦町店" }, "geometry": { "type": "Point", "coordinates": [ 139.761335699999989, 35.6917904 ] } },
{ "type": "Feature", "properties": { "lat": 35.697902, "lon": 139.7737145, "title": "ローソン アキバ・トリム店" }, "geometry": { "type": "Point", "coordinates": [ 139.773714500000011, 35.697902 ] } },
{ "type": "Feature", "properties": { "lat": 35.6857056, "lon": 139.7629362, "title": "ローソン 大手センタービル店" }, "geometry": { "type": "Point", "coordinates": [ 139.762936200000013, 35.6857056 ] } },
{ "type": "Feature", "properties": { "lat": 35.6973366, "lon": 139.7627321, "title": "ナチュラルローソン NL日本大学病院店" }, "geometry": { "type": "Point", "coordinates": [ 139.7627321, 35.6973366 ] } },
{ "type": "Feature", "properties": { "lat": 35.6823145, "lon": 139.739635, "title": "ローソン 平河町一丁目店" }, "geometry": { "type": "Point", "coordinates": [ 139.739635, 35.6823145 ] } },
{ "type": "Feature", "properties": { "lat": 35.6949699, "lon": 139.7656173, "title": "ローソン 神田小川町一丁目店" }, "geometry": { "type": "Point", "coordinates": [ 139.7656173, 35.6949699 ] } },
{ "type": "Feature", "properties": { "lat": 35.6949697, "lon": 139.7672047, "title": "ファミリーマート 神田淡路町店" }, "geometry": { "type": "Point", "coordinates": [ 139.7672047, 35.6949697 ] } },
{ "type": "Feature", "properties": { "lat": 35.6987986, "lon": 139.7651566, "title": "ローソン お茶の水サンクレール店" }, "geometry": { "type": "Point", "coordinates": [ 139.765156600000012, 35.6987986 ] } },
{ "type": "Feature", "properties": { "lat": 35.7003295, "lon": 139.7545467, "title": "ファミリーマート 三崎神社通り店" }, "geometry": { "type": "Point", "coordinates": [ 139.7545467, 35.7003295 ] } },
{ "type": "Feature", "properties": { "lat": 35.6747337, "lon": 139.7539478, "title": "ファミリーマート 東京家庭裁判所内店" }, "geometry": { "type": "Point", "coordinates": [ 139.7539478, 35.6747337 ] } },
{ "type": "Feature", "properties": { "lat": 35.6949841, "lon": 139.7595086, "title": "ファミリーマート 神田神保町一丁目店" }, "geometry": { "type": "Point", "coordinates": [ 139.7595086, 35.6949841 ] } },
{ "type": "Feature", "properties": { "lat": 35.6936797, "lon": 139.7605659, "title": "ファミリーマート テラススクエア店" }, "geometry": { "type": "Point", "coordinates": [ 139.760565899999989, 35.6936797 ] } },
{ "type": "Feature", "properties": { "lat": 35.6898953, "lon": 139.7604411, "title": "ファミリーマート ファミマ大手町パークビル店" }, "geometry": { "type": "Point", "coordinates": [ 139.7604411, 35.6898953 ] } },
{ "type": "Feature", "properties": { "lat": 35.6744289, "lon": 139.7629618, "title": "ファミリーマート 有楽町駅前店" }, "geometry": { "type": "Point", "coordinates": [ 139.7629618, 35.6744289 ] } },
{ "type": "Feature", "properties": { "lat": 35.6990347, "lon": 139.7639839, "title": "ファミリーマート 御茶ノ水駅南店" }, "geometry": { "type": "Point", "coordinates": [ 139.7639839, 35.6990347 ] } },
{ "type": "Feature", "properties": { "lat": 35.6955893, "lon": 139.7808274, "title": "ファミリーマート 東神田二丁目店" }, "geometry": { "type": "Point", "coordinates": [ 139.7808274, 35.6955893 ] } },
{ "type": "Feature", "properties": { "lat": 35.6971459, "lon": 139.7674443, "title": "ファミリーマート ホテルマイステイズ御茶ノ水店" }, "geometry": { "type": "Point", "coordinates": [ 139.7674443, 35.6971459 ] } },
{ "type": "Feature", "properties": { "lat": 35.7003937, "lon": 139.7486551, "title": "ファミリーマート 飯田橋三丁目店" }, "geometry": { "type": "Point", "coordinates": [ 139.7486551, 35.7003937 ] } },
{ "type": "Feature", "properties": { "lat": 35.7009897, "lon": 139.744711, "title": "ファミリーマート 飯田橋プラーノ店" }, "geometry": { "type": "Point", "coordinates": [ 139.744711, 35.7009897 ] } },
{ "type": "Feature", "properties": { "lat": 35.6951716, "lon": 139.756312, "title": "ファミリーマート 神田神保町二丁目店" }, "geometry": { "type": "Point", "coordinates": [ 139.756312, 35.6951716 ] } },
{ "type": "Feature", "properties": { "lat": 35.6960134, "lon": 139.7638089, "title": "ファミリーマート 神田駿河台三丁目店" }, "geometry": { "type": "Point", "coordinates": [ 139.763808899999987, 35.6960134 ] } },
{ "type": "Feature", "properties": { "lat": 35.6990309, "lon": 139.7496559, "title": "ファミリーマート 飯田橋二丁目店" }, "geometry": { "type": "Point", "coordinates": [ 139.7496559, 35.6990309 ] } },
{ "type": "Feature", "properties": { "lat": 35.6731952, "lon": 139.7605159, "title": "ファミリーマート 日比谷シャンテ前店" }, "geometry": { "type": "Point", "coordinates": [ 139.7605159, 35.673195199999988 ] } },
{ "type": "Feature", "properties": { "lat": 35.7016236, "lon": 139.7531692, "title": "ファミリーマート 水道橋駅西口店" }, "geometry": { "type": "Point", "coordinates": [ 139.7531692, 35.7016236 ] } },
{ "type": "Feature", "properties": { "lat": 35.6995532, "lon": 139.7699603, "title": "ファミリーマート 外神田一丁目店" }, "geometry": { "type": "Point", "coordinates": [ 139.7699603, 35.6995532 ] } },
{ "type": "Feature", "properties": { "lat": 35.6925279, "lon": 139.7696915, "title": "ファミリーマート 神田駅北店" }, "geometry": { "type": "Point", "coordinates": [ 139.7696915, 35.6925279 ] } },
{ "type": "Feature", "properties": { "lat": 35.6986098, "lon": 139.7763305, "title": "ファミリーマート 秋葉原駅前店" }, "geometry": { "type": "Point", "coordinates": [ 139.7763305, 35.6986098 ] } },
{ "type": "Feature", "properties": { "lat": 35.6909358, "lon": 139.7575803, "title": "ファミリーマート パレスサイドビル店" }, "geometry": { "type": "Point", "coordinates": [ 139.7575803, 35.6909358 ] } },
{ "type": "Feature", "properties": { "lat": 35.6909907, "lon": 139.7699054, "title": "ファミリーマート 神田西口店" }, "geometry": { "type": "Point", "coordinates": [ 139.7699054, 35.6909907 ] } },
{ "type": "Feature", "properties": { "lat": 35.7005495, "lon": 139.7726153, "title": "ファミリーマート ファミマ!!秋葉原UDX店" }, "geometry": { "type": "Point", "coordinates": [ 139.772615300000012, 35.7005495 ] } },
{ "type": "Feature", "properties": { "lat": 35.6990955, "lon": 139.7561637, "title": "ファミリーマート 西神田二丁目店" }, "geometry": { "type": "Point", "coordinates": [ 139.7561637, 35.6990955 ] } },
{ "type": "Feature", "properties": { "lat": 35.6992721, "lon": 139.7452745, "title": "ファミリーマート 千代田富士見二丁目店" }, "geometry": { "type": "Point", "coordinates": [ 139.7452745, 35.6992721 ] } },
{ "type": "Feature", "properties": { "lat": 35.7003403, "lon": 139.7768897, "title": "ファミリーマート 神田和泉町店" }, "geometry": { "type": "Point", "coordinates": [ 139.7768897, 35.7003403 ] } },
{ "type": "Feature", "properties": { "lat": 35.6916581, "lon": 139.7372533, "title": "ファミリーマート 市ヶ谷店" }, "geometry": { "type": "Point", "coordinates": [ 139.7372533, 35.691658100000012 ] } },
{ "type": "Feature", "properties": { "lat": 35.6979149, "lon": 139.7719571, "title": "ファミリーマート 秋葉原ラジオ会館店" }, "geometry": { "type": "Point", "coordinates": [ 139.7719571, 35.6979149 ] } },
{ "type": "Feature", "properties": { "lat": 35.7011779, "lon": 139.7711033, "title": "ファミリーマート 外神田三丁目東店" }, "geometry": { "type": "Point", "coordinates": [ 139.7711033, 35.7011779 ] } },
{ "type": "Feature", "properties": { "lat": 35.6987839, "lon": 139.7667853, "title": "ファミリーマート ファミマ御茶ノ水ソラシティ店" }, "geometry": { "type": "Point", "coordinates": [ 139.7667853, 35.6987839 ] } },
{ "type": "Feature", "properties": { "lat": 35.6938363, "lon": 139.7697007, "title": "ファミリーマート 神田多町店" }, "geometry": { "type": "Point", "coordinates": [ 139.769700699999987, 35.6938363 ] } },
{ "type": "Feature", "properties": { "lat": 35.6864055, "lon": 139.7648086, "title": "ファミリーマート 大手町ビル店" }, "geometry": { "type": "Point", "coordinates": [ 139.7648086, 35.6864055 ] } },
{ "type": "Feature", "properties": { "lat": 35.6860468, "lon": 139.7428501, "title": "ファミリーマート 半蔵門駅前店" }, "geometry": { "type": "Point", "coordinates": [ 139.7428501, 35.6860468 ] } },
{ "type": "Feature", "properties": { "lat": 35.6716007, "lon": 139.7483826, "title": "ファミリーマート 南山堂中央合同庁舎7号館店" }, "geometry": { "type": "Point", "coordinates": [ 139.748382600000014, 35.6716007 ] } },
{ "type": "Feature", "properties": { "lat": 35.6764907, "lon": 139.7382988, "title": "ファミリーマート 永田町店" }, "geometry": { "type": "Point", "coordinates": [ 139.7382988, 35.6764907 ] } },
{ "type": "Feature", "properties": { "lat": 35.6915859, "lon": 139.765787, "title": "ファミリーマート 内神田一丁目店" }, "geometry": { "type": "Point", "coordinates": [ 139.765787, 35.6915859 ] } },
{ "type": "Feature", "properties": { "lat": 35.6951407, "lon": 139.7572039, "title": "ファミリーマート 神保町さくら通り店" }, "geometry": { "type": "Point", "coordinates": [ 139.7572039, 35.6951407 ] } },
{ "type": "Feature", "properties": { "lat": 35.6858912, "lon": 139.7646888, "title": "ファミリーマート ファーストスクエア店" }, "geometry": { "type": "Point", "coordinates": [ 139.764688799999988, 35.6858912 ] } },
{ "type": "Feature", "properties": { "lat": 35.6730941, "lon": 139.7404021, "title": "ファミリーマート 山王パークタワー店" }, "geometry": { "type": "Point", "coordinates": [ 139.740402100000011, 35.6730941 ] } },
{ "type": "Feature", "properties": { "lat": 35.6979655, "lon": 139.7623328, "title": "ファミリーマート 御茶ノ水とちの木通り店" }, "geometry": { "type": "Point", "coordinates": [ 139.7623328, 35.6979655 ] } },
{ "type": "Feature", "properties": { "lat": 35.6986273, "lon": 139.7618814, "title": "ファミリーマート 明大マート駿河台店" }, "geometry": { "type": "Point", "coordinates": [ 139.7618814, 35.6986273 ] } },
{ "type": "Feature", "properties": { "lat": 35.6942863, "lon": 139.7513414, "title": "ファミリーマート 九段会館テラス店" }, "geometry": { "type": "Point", "coordinates": [ 139.7513414, 35.6942863 ] } },
{ "type": "Feature", "properties": { "lat": 35.6947581, "lon": 139.7635907, "title": "ファミリーマート 千代田小川町店" }, "geometry": { "type": "Point", "coordinates": [ 139.7635907, 35.6947581 ] } },
{ "type": "Feature", "properties": { "lat": 35.6979049, "lon": 139.7742137, "title": "ファミリーマート 秋葉原駅中央口前店" }, "geometry": { "type": "Point", "coordinates": [ 139.7742137, 35.6979049 ] } },
{ "type": "Feature", "properties": { "lat": 35.6961658, "lon": 139.7514524, "title": "ファミリーマート 九段北一丁目店" }, "geometry": { "type": "Point", "coordinates": [ 139.7514524, 35.6961658 ] } },
{ "type": "Feature", "properties": { "lat": 35.6951799, "lon": 139.7668774, "title": "ファミリーマート 都営小川町店" }, "geometry": { "type": "Point", "coordinates": [ 139.7668774, 35.6951799 ] } },
{ "type": "Feature", "properties": { "lat": 35.6916748, "lon": 139.775133, "title": "ファミリーマート 神田岩本町一丁目店" }, "geometry": { "type": "Point", "coordinates": [ 139.775133, 35.6916748 ] } },
{ "type": "Feature", "properties": { "lat": 35.7013322, "lon": 139.7549209, "title": "ファミリーマート 水道橋駅東口店" }, "geometry": { "type": "Point", "coordinates": [ 139.7549209, 35.7013322 ] } },
{ "type": "Feature", "properties": { "lat": 35.6760963, "lon": 139.7506962, "title": "ファミリーマート 霞ヶ関合同庁舎店" }, "geometry": { "type": "Point", "coordinates": [ 139.7506962, 35.6760963 ] } },
{ "type": "Feature", "properties": { "lat": 35.7017753, "lon": 139.751245, "title": "ファミリーマート 三崎町三丁目店" }, "geometry": { "type": "Point", "coordinates": [ 139.751245, 35.7017753 ] } },
{ "type": "Feature", "properties": { "lat": 35.6854775, "lon": 139.7656705, "title": "ファミリーマート OOTEMORI店" }, "geometry": { "type": "Point", "coordinates": [ 139.7656705, 35.6854775 ] } },
{ "type": "Feature", "properties": { "lat": 35.6920795, "lon": 139.7681239, "title": "ファミリーマート 内神田二丁目店" }, "geometry": { "type": "Point", "coordinates": [ 139.7681239, 35.6920795 ] } },
{ "type": "Feature", "properties": { "lat": 35.6791752, "lon": 139.7389326, "title": "ファミリーマート 都道府県会館店" }, "geometry": { "type": "Point", "coordinates": [ 139.7389326, 35.6791752 ] } },
{ "type": "Feature", "properties": { "lat": 35.6822349, "lon": 139.7368032, "title": "ファミリーマート 紀尾井町ビル店" }, "geometry": { "type": "Point", "coordinates": [ 139.7368032, 35.6822349 ] } },
{ "type": "Feature", "properties": { "lat": 35.6970745, "lon": 139.7665058, "title": "ファミリーマート 神田淡路町二丁目店" }, "geometry": { "type": "Point", "coordinates": [ 139.7665058, 35.6970745 ] } },
{ "type": "Feature", "properties": { "lat": 35.6834964, "lon": 139.7665704, "title": "ファミリーマート 丸の内オアゾ店" }, "geometry": { "type": "Point", "coordinates": [ 139.7665704, 35.6834964 ] } },
{ "type": "Feature", "properties": { "lat": 35.6868433, "lon": 139.7410165, "title": "ファミリーマート 一番町店" }, "geometry": { "type": "Point", "coordinates": [ 139.7410165, 35.6868433 ] } },
{ "type": "Feature", "properties": { "lat": 35.6835127, "lon": 139.7404044, "title": "ファミリーマート 麹町二丁目店" }, "geometry": { "type": "Point", "coordinates": [ 139.740404399999989, 35.6835127 ] } },
{ "type": "Feature", "properties": { "lat": 35.68429, "lon": 139.7390572, "title": "ファミリーマート 麹町三丁目店" }, "geometry": { "type": "Point", "coordinates": [ 139.7390572, 35.68429 ] } },
{ "type": "Feature", "properties": { "lat": 35.6743187, "lon": 139.7536284, "title": "ファミリーマート 弁護士会館/S店" }, "geometry": { "type": "Point", "coordinates": [ 139.7536284, 35.6743187 ] } },
{ "type": "Feature", "properties": { "lat": 35.6937983, "lon": 139.7520633, "title": "ファミリーマート 九段坂病院/S店" }, "geometry": { "type": "Point", "coordinates": [ 139.7520633, 35.6937983 ] } },
{ "type": "Feature", "properties": { "lat": 35.6812996, "lon": 139.7670658, "title": "NEWDAYS MINI(ニューデイズミニ) 東ホ5C店" }, "geometry": { "type": "Point", "coordinates": [ 139.767065800000012, 35.6812996 ] } },
{ "type": "Feature", "properties": { "lat": 35.6936809, "lon": 139.7544922, "title": "(株)オーキッド" }, "geometry": { "type": "Point", "coordinates": [ 139.754492199999987, 35.6936809 ] } },
{ "type": "Feature", "properties": { "lat": 35.6963563, "lon": 139.7759189, "title": "デイリーヤマザキ 岩本町和泉橋店" }, "geometry": { "type": "Point", "coordinates": [ 139.7759189, 35.6963563 ] } },
{ "type": "Feature", "properties": { "lat": 35.6859413, "lon": 139.7670983, "title": "生活彩家 アーバンネット大手町店" }, "geometry": { "type": "Point", "coordinates": [ 139.767098299999986, 35.6859413 ] } },
{ "type": "Feature", "properties": { "lat": 35.6979162, "lon": 139.772676, "title": "ニューデイズメッツ秋葉原" }, "geometry": { "type": "Point", "coordinates": [ 139.772676, 35.6979162 ] } },
{ "type": "Feature", "properties": { "lat": 35.6953317, "lon": 139.7685325, "title": "ファミリーマート 神田須田町一丁目店" }, "geometry": { "type": "Point", "coordinates": [ 139.7685325, 35.6953317 ] } },
{ "type": "Feature", "properties": { "lat": 35.7014504, "lon": 139.7472406, "title": "ファミリーマート 東京区政会館店" }, "geometry": { "type": "Point", "coordinates": [ 139.7472406, 35.7014504 ] } },
{ "type": "Feature", "properties": { "lat": 35.6731093, "lon": 139.7480226, "title": "ファミリーマート 財務省本庁舎店" }, "geometry": { "type": "Point", "coordinates": [ 139.748022600000013, 35.6731093 ] } },
{ "type": "Feature", "properties": { "lat": 35.6764213, "lon": 139.7620932, "title": "ファミリーマート 丸の内新国際ビル店" }, "geometry": { "type": "Point", "coordinates": [ 139.76209320000001, 35.6764213 ] } },
{ "type": "Feature", "properties": { "lat": 35.6975141, "lon": 139.7675829, "title": "セブンイレブン ワテラス店" }, "geometry": { "type": "Point", "coordinates": [ 139.7675829, 35.6975141 ] } },
{ "type": "Feature", "properties": { "lat": 35.696752, "lon": 139.7609961, "title": "デイリーヤマザキ 神田小川町店" }, "geometry": { "type": "Point", "coordinates": [ 139.7609961, 35.696752 ] } },
{ "type": "Feature", "properties": { "lat": 35.6819822, "lon": 139.7666071, "title": "NewDays(ニューデイズ) グランスタ丸の内北口店" }, "geometry": { "type": "Point", "coordinates": [ 139.766607099999987, 35.6819822 ] } },
{ "type": "Feature", "properties": { "lat": 35.6745717, "lon": 139.7443393, "title": "Mマート衆議院店" }, "geometry": { "type": "Point", "coordinates": [ 139.7443393, 35.6745717 ] } },
{ "type": "Feature", "properties": { "lat": 35.69897, "lon": 139.769349, "title": "リーベンハウス 秋葉原ファーストビル店" }, "geometry": { "type": "Point", "coordinates": [ 139.769349, 35.69897 ] } },
{ "type": "Feature", "properties": { "lat": 35.6917479, "lon": 139.770799, "title": "ニューデイズ神田北口" }, "geometry": { "type": "Point", "coordinates": [ 139.770799, 35.6917479 ] } },
{ "type": "Feature", "properties": { "lat": 35.682111, "lon": 139.7691588, "title": "ニューデイズ東京新幹線ホ5A" }, "geometry": { "type": "Point", "coordinates": [ 139.769158800000014, 35.682111 ] } },
{ "type": "Feature", "properties": { "lat": 35.7021219, "lon": 139.7449152, "title": "ニューデイズ飯田橋" }, "geometry": { "type": "Point", "coordinates": [ 139.7449152, 35.7021219 ] } },
{ "type": "Feature", "properties": { "lat": 35.6917479, "lon": 139.770799, "title": "ニューデイズ神田南口改札外" }, "geometry": { "type": "Point", "coordinates": [ 139.770799, 35.6917479 ] } },
{ "type": "Feature", "properties": { "lat": 35.6749053, "lon": 139.7634405, "title": "ニューデイズ有楽町日比谷口店" }, "geometry": { "type": "Point", "coordinates": [ 139.7634405, 35.6749053 ] } },
{ "type": "Feature", "properties": { "lat": 35.6904018, "lon": 139.7370742, "title": "ニューデイズ都営市ヶ谷" }, "geometry": { "type": "Point", "coordinates": [ 139.7370742, 35.6904018 ] } },
{ "type": "Feature", "properties": { "lat": 35.696752, "lon": 139.7609961, "title": "デイリーヤマザキ神田小川町店" }, "geometry": { "type": "Point", "coordinates": [ 139.7609961, 35.696752 ] } },
{ "type": "Feature", "properties": { "lat": 35.6802223, "lon": 139.7692184, "title": "ファミリーマート ヤエチカ店" }, "geometry": { "type": "Point", "coordinates": [ 139.7692184, 35.6802223 ] } },
{ "type": "Feature", "properties": { "lat": 35.6661823, "lon": 139.7705593, "title": "ローソン 築地四丁目店" }, "geometry": { "type": "Point", "coordinates": [ 139.7705593, 35.6661823 ] } },
{ "type": "Feature", "properties": { "lat": 35.6684741, "lon": 139.759897, "title": "セブンイレブン 銀座8丁目店" }, "geometry": { "type": "Point", "coordinates": [ 139.759897, 35.6684741 ] } },
{ "type": "Feature", "properties": { "lat": 35.6688505, "lon": 139.7597174, "title": "ローソン 銀座八丁目店" }, "geometry": { "type": "Point", "coordinates": [ 139.7597174, 35.6688505 ] } },
{ "type": "Feature", "properties": { "lat": 35.6638902, "lon": 139.7740388, "title": "ローソン 築地六丁目店" }, "geometry": { "type": "Point", "coordinates": [ 139.7740388, 35.6638902 ] } },
{ "type": "Feature", "properties": { "lat": 35.6671177, "lon": 139.7705282, "title": "ローソン 築地二丁目店" }, "geometry": { "type": "Point", "coordinates": [ 139.7705282, 35.6671177 ] } },
{ "type": "Feature", "properties": { "lat": 35.6802734, "lon": 139.7799069, "title": "ローソン メトロス茅場町中央口店" }, "geometry": { "type": "Point", "coordinates": [ 139.779906899999986, 35.6802734 ] } },
{ "type": "Feature", "properties": { "lat": 35.6529064, "lon": 139.7770098, "title": "セブンイレブン 晴海店" }, "geometry": { "type": "Point", "coordinates": [ 139.7770098, 35.6529064 ] } },
{ "type": "Feature", "properties": { "lat": 35.6679875, "lon": 139.7606142, "title": "ファミリーマート 銀座御門通り店" }, "geometry": { "type": "Point", "coordinates": [ 139.7606142, 35.6679875 ] } },
{ "type": "Feature", "properties": { "lat": 35.6696453, "lon": 139.7679861, "title": "セブンイレブン 歌舞伎座店" }, "geometry": { "type": "Point", "coordinates": [ 139.7679861, 35.6696453 ] } },
{ "type": "Feature", "properties": { "lat": 35.6690636, "lon": 139.7671765, "title": "セブンイレブン 東銀座駅前店" }, "geometry": { "type": "Point", "coordinates": [ 139.7671765, 35.6690636 ] } },
{ "type": "Feature", "properties": { "lat": 35.6753348, "lon": 139.7664339, "title": "ファミリーマート 銀座桜通り店" }, "geometry": { "type": "Point", "coordinates": [ 139.76643390000001, 35.6753348 ] } },
{ "type": "Feature", "properties": { "lat": 35.6829958, "lon": 139.7709516, "title": "セブンイレブン 八重洲1丁目店" }, "geometry": { "type": "Point", "coordinates": [ 139.770951599999989, 35.6829958 ] } },
{ "type": "Feature", "properties": { "lat": 35.6719859, "lon": 139.7635301, "title": "セブンイレブン 銀座地下街店" }, "geometry": { "type": "Point", "coordinates": [ 139.7635301, 35.6719859 ] } },
{ "type": "Feature", "properties": { "lat": 35.6757485, "lon": 139.7700801, "title": "セブンイレブン 京橋相互館110タワー店" }, "geometry": { "type": "Point", "coordinates": [ 139.7700801, 35.6757485 ] } },
{ "type": "Feature", "properties": { "lat": 35.6534719, "lon": 139.7697984, "title": "ファミリーマート 豊海町店" }, "geometry": { "type": "Point", "coordinates": [ 139.769798400000013, 35.6534719 ] } },
{ "type": "Feature", "properties": { "lat": 35.6802223, "lon": 139.7692184, "title": "ローソン ヤエチカ店" }, "geometry": { "type": "Point", "coordinates": [ 139.7692184, 35.6802223 ] } },
{ "type": "Feature", "properties": { "lat": 35.6841407, "lon": 139.7845849, "title": "ファミリーマート 水天宮前店" }, "geometry": { "type": "Point", "coordinates": [ 139.7845849, 35.6841407 ] } },
{ "type": "Feature", "properties": { "lat": 35.6695222, "lon": 139.7610351, "title": "ナチュラルローソン NL銀座並木通店" }, "geometry": { "type": "Point", "coordinates": [ 139.761035099999987, 35.6695222 ] } },
{ "type": "Feature", "properties": { "lat": 35.6640024, "lon": 139.7847954, "title": "ローソン 月島駅前店" }, "geometry": { "type": "Point", "coordinates": [ 139.7847954, 35.6640024 ] } },
{ "type": "Feature", "properties": { "lat": 35.6788067, "lon": 139.7825968, "title": "ファミリーマート 茅場町駅東店" }, "geometry": { "type": "Point", "coordinates": [ 139.7825968, 35.6788067 ] } },
{ "type": "Feature", "properties": { "lat": 35.6681854, "lon": 139.7601341, "title": "ファミリーマート K2銀座八丁目店" }, "geometry": { "type": "Point", "coordinates": [ 139.760134099999988, 35.6681854 ] } },
{ "type": "Feature", "properties": { "lat": 35.6651627, "lon": 139.7723999, "title": "ファミリーマート 築地六丁目店" }, "geometry": { "type": "Point", "coordinates": [ 139.772399900000011, 35.6651627 ] } },
{ "type": "Feature", "properties": { "lat": 35.688285, "lon": 139.7734349, "title": "セブンイレブン 日本橋室町3丁目店" }, "geometry": { "type": "Point", "coordinates": [ 139.773434900000012, 35.688285 ] } },
{ "type": "Feature", "properties": { "lat": 35.6556628, "lon": 139.78064, "title": "セブンイレブン 晴海ウェーブガーデン店" }, "geometry": { "type": "Point", "coordinates": [ 139.78064, 35.6556628 ] } },
{ "type": "Feature", "properties": { "lat": 35.6704137, "lon": 139.7850789, "title": "ナチュラルローソン NL佃二丁目店" }, "geometry": { "type": "Point", "coordinates": [ 139.7850789, 35.6704137 ] } },
{ "type": "Feature", "properties": { "lat": 35.6748307, "lon": 139.767926, "title": "セブンイレブン 銀座1丁目桜通り店" }, "geometry": { "type": "Point", "coordinates": [ 139.767926, 35.6748307 ] } },
{ "type": "Feature", "properties": { "lat": 35.6607482, "lon": 139.7769287, "title": "セブンイレブン 勝どきグロウスタウン店" }, "geometry": { "type": "Point", "coordinates": [ 139.776928700000013, 35.6607482 ] } },
{ "type": "Feature", "properties": { "lat": 35.6793843, "lon": 139.7705593, "title": "セブンイレブン 八重洲ダイビル店" }, "geometry": { "type": "Point", "coordinates": [ 139.7705593, 35.6793843 ] } },
{ "type": "Feature", "properties": { "lat": 35.67476, "lon": 139.7657087, "title": "ファミリーマート 銀座二丁目店" }, "geometry": { "type": "Point", "coordinates": [ 139.7657087, 35.67476 ] } },
{ "type": "Feature", "properties": { "lat": 35.689095, "lon": 139.7714753, "title": "ファミリーマート 日本橋日銀通り店" }, "geometry": { "type": "Point", "coordinates": [ 139.7714753, 35.689095 ] } },
{ "type": "Feature", "properties": { "lat": 35.6764105, "lon": 139.7782677, "title": "ローソン 八丁堀二丁目店" }, "geometry": { "type": "Point", "coordinates": [ 139.778267699999986, 35.6764105 ] } },
{ "type": "Feature", "properties": { "lat": 35.6785268, "lon": 139.7726295, "title": "ナチュラルローソン NL京橋一丁目店" }, "geometry": { "type": "Point", "coordinates": [ 139.7726295, 35.6785268 ] } },
{ "type": "Feature", "properties": { "lat": 35.6815387, "lon": 139.7864911, "title": "セブンイレブン 日本橋TCAT店" }, "geometry": { "type": "Point", "coordinates": [ 139.7864911, 35.6815387 ] } },
{ "type": "Feature", "properties": { "lat": 35.68557, "lon": 139.7886925, "title": "ファミリーマート 日本橋浜町Fタワー店" }, "geometry": { "type": "Point", "coordinates": [ 139.7886925, 35.68557 ] } },
{ "type": "Feature", "properties": { "lat": 35.670226, "lon": 139.768273, "title": "ローソン 銀座四丁目昭和通店" }, "geometry": { "type": "Point", "coordinates": [ 139.768273, 35.670226 ] } },
{ "type": "Feature", "properties": { "lat": 35.6933943, "lon": 139.7796057, "title": "ファミリーマート KABUTO ONE店" }, "geometry": { "type": "Point", "coordinates": [ 139.7796057, 35.6933943 ] } },
{ "type": "Feature", "properties": { "lat": 35.6754398, "lon": 139.7724731, "title": "ミニストップ 宝町駅前店" }, "geometry": { "type": "Point", "coordinates": [ 139.772473100000013, 35.6754398 ] } },
{ "type": "Feature", "properties": { "lat": 35.6767456, "lon": 139.7852427, "title": "ナチュラルローソン NL新川一丁目店" }, "geometry": { "type": "Point", "coordinates": [ 139.7852427, 35.6767456 ] } },
{ "type": "Feature", "properties": { "lat": 35.6707477, "lon": 139.7600117, "title": "セブンイレブン 銀座7丁目店" }, "geometry": { "type": "Point", "coordinates": [ 139.7600117, 35.6707477 ] } },
{ "type": "Feature", "properties": { "lat": 35.6744456, "lon": 139.7764396, "title": "ファミリーマート 八丁堀四丁目店" }, "geometry": { "type": "Point", "coordinates": [ 139.7764396, 35.6744456 ] } },
{ "type": "Feature", "properties": { "lat": 35.6671058, "lon": 139.7632279, "title": "ナチュラルローソン NL銀座三井ビル店" }, "geometry": { "type": "Point", "coordinates": [ 139.7632279, 35.6671058 ] } },
{ "type": "Feature", "properties": { "lat": 35.6782762, "lon": 139.7730754, "title": "セブンイレブン 京橋1丁目店" }, "geometry": { "type": "Point", "coordinates": [ 139.77307540000001, 35.6782762 ] } },
{ "type": "Feature", "properties": { "lat": 35.6711196, "lon": 139.7690025, "title": "ファミリーマート 銀座三丁目店" }, "geometry": { "type": "Point", "coordinates": [ 139.7690025, 35.6711196 ] } },
{ "type": "Feature", "properties": { "lat": 35.6871259, "lon": 139.7839305, "title": "セブンイレブン 日本橋人形町2丁目店" }, "geometry": { "type": "Point", "coordinates": [ 139.7839305, 35.6871259 ] } },
{ "type": "Feature", "properties": { "lat": 35.6795151, "lon": 139.7695231, "title": "ファミリーマート 東京ミッドタウン八重洲/S店" }, "geometry": { "type": "Point", "coordinates": [ 139.769523099999986, 35.6795151 ] } },
{ "type": "Feature", "properties": { "lat": 35.6721033, "lon": 139.7678613, "title": "ローソン H銀座三丁目店" }, "geometry": { "type": "Point", "coordinates": [ 139.7678613, 35.6721033 ] } },
{ "type": "Feature", "properties": { "lat": 35.6693531, "lon": 139.7661429, "title": "ローソン 王子ホールディングス1号館店" }, "geometry": { "type": "Point", "coordinates": [ 139.7661429, 35.6693531 ] } },
{ "type": "Feature", "properties": { "lat": 35.6489011, "lon": 139.7729663, "title": "ファミリーマート HARUMI FLAG店" }, "geometry": { "type": "Point", "coordinates": [ 139.7729663, 35.6489011 ] } },
{ "type": "Feature", "properties": { "lat": 35.6754927, "lon": 139.7708075, "title": "ファミリーマート ホテルインターゲート東京 京橋店" }, "geometry": { "type": "Point", "coordinates": [ 139.770807499999989, 35.6754927 ] } },
{ "type": "Feature", "properties": { "lat": 35.6664323, "lon": 139.7635118, "title": "ファミリーマート 銀座昭和通り店" }, "geometry": { "type": "Point", "coordinates": [ 139.7635118, 35.6664323 ] } },
{ "type": "Feature", "properties": { "lat": 35.6580701, "lon": 139.7769097, "title": "ファミリーマート 勝どき駅前店" }, "geometry": { "type": "Point", "coordinates": [ 139.7769097, 35.6580701 ] } },
{ "type": "Feature", "properties": { "lat": 35.6638639, "lon": 139.7835803, "title": "セブンイレブン 月島駅前店" }, "geometry": { "type": "Point", "coordinates": [ 139.783580300000011, 35.6638639 ] } },
{ "type": "Feature", "properties": { "lat": 35.6886051, "lon": 139.7805857, "title": "セブンイレブン 日本橋堀留町2丁目店" }, "geometry": { "type": "Point", "coordinates": [ 139.780585699999989, 35.6886051 ] } },
{ "type": "Feature", "properties": { "lat": 35.6754405, "lon": 139.7849781, "title": "ローソン 東京ダイヤビルディング店" }, "geometry": { "type": "Point", "coordinates": [ 139.784978099999989, 35.6754405 ] } },
{ "type": "Feature", "properties": { "lat": 35.6641635, "lon": 139.7718059, "title": "ファミリーマート 築地市場前店" }, "geometry": { "type": "Point", "coordinates": [ 139.7718059, 35.6641635 ] } },
{ "type": "Feature", "properties": { "lat": 35.6689975, "lon": 139.7644692, "title": "セブンイレブン 銀座6丁目中央店" }, "geometry": { "type": "Point", "coordinates": [ 139.7644692, 35.6689975 ] } },
{ "type": "Feature", "properties": { "lat": 35.6767554, "lon": 139.7702423, "title": "セブンイレブン 京橋駅前店" }, "geometry": { "type": "Point", "coordinates": [ 139.7702423, 35.6767554 ] } },
{ "type": "Feature", "properties": { "lat": 35.6747207, "lon": 139.7718015, "title": "ファミリーマート 宝町駅前店" }, "geometry": { "type": "Point", "coordinates": [ 139.7718015, 35.6747207 ] } },
{ "type": "Feature", "properties": { "lat": 35.6567207, "lon": 139.7725562, "title": "セブンイレブン 勝どき5丁目店" }, "geometry": { "type": "Point", "coordinates": [ 139.7725562, 35.6567207 ] } },
{ "type": "Feature", "properties": { "lat": 35.6557094, "lon": 139.779045, "title": "セブンイレブン ベイシティ晴海店" }, "geometry": { "type": "Point", "coordinates": [ 139.779045, 35.6557094 ] } },
{ "type": "Feature", "properties": { "lat": 35.6790006, "lon": 139.7730255, "title": "ローソン 日本橋三丁目店" }, "geometry": { "type": "Point", "coordinates": [ 139.773025499999989, 35.679000599999988 ] } },
{ "type": "Feature", "properties": { "lat": 35.6753493, "lon": 139.7818427, "title": "セブンイレブン 中央区新川2丁目店" }, "geometry": { "type": "Point", "coordinates": [ 139.7818427, 35.6753493 ] } },
{ "type": "Feature", "properties": { "lat": 35.6795151, "lon": 139.7695231, "title": "セブンイレブン 東京ミッドタウン八重洲店" }, "geometry": { "type": "Point", "coordinates": [ 139.769523099999986, 35.6795151 ] } },
{ "type": "Feature", "properties": { "lat": 35.6777549, "lon": 139.7759366, "title": "ローソン H八丁堀一丁目店" }, "geometry": { "type": "Point", "coordinates": [ 139.7759366, 35.6777549 ] } },
{ "type": "Feature", "properties": { "lat": 35.6577976, "lon": 139.7758712, "title": "ローソン 勝どき四丁目店" }, "geometry": { "type": "Point", "coordinates": [ 139.775871200000012, 35.657797599999988 ] } },
{ "type": "Feature", "properties": { "lat": 35.6795151, "lon": 139.7695231, "title": "ファミリーマート ファミマ東京ミッドタウン八重洲店" }, "geometry": { "type": "Point", "coordinates": [ 139.769523099999986, 35.6795151 ] } },
{ "type": "Feature", "properties": { "lat": 35.6675902, "lon": 139.7724164, "title": "ファミリーマート 築地本願寺前店" }, "geometry": { "type": "Point", "coordinates": [ 139.7724164, 35.6675902 ] } },
{ "type": "Feature", "properties": { "lat": 35.6758859, "lon": 139.7686226, "title": "ナチュラルローソン NL東京スクエアガーデン3階店" }, "geometry": { "type": "Point", "coordinates": [ 139.768622599999986, 35.6758859 ] } },
{ "type": "Feature", "properties": { "lat": 35.6745029, "lon": 139.7740356, "title": "セブンイレブン 中央区八丁堀4丁目店" }, "geometry": { "type": "Point", "coordinates": [ 139.7740356, 35.6745029 ] } },
{ "type": "Feature", "properties": { "lat": 35.6662257, "lon": 139.7745985, "title": "セブンイレブン 築地7丁目店" }, "geometry": { "type": "Point", "coordinates": [ 139.7745985, 35.6662257 ] } },
{ "type": "Feature", "properties": { "lat": 35.6545919, "lon": 139.7785548, "title": "セブンイレブン 晴海3丁目店" }, "geometry": { "type": "Point", "coordinates": [ 139.7785548, 35.6545919 ] } },
{ "type": "Feature", "properties": { "lat": 35.682983, "lon": 139.7848805, "title": "セブンイレブン 水天宮前店" }, "geometry": { "type": "Point", "coordinates": [ 139.784880500000014, 35.682983 ] } },
{ "type": "Feature", "properties": { "lat": 35.6729899, "lon": 139.7738942, "title": "ローソン 新富一丁目店" }, "geometry": { "type": "Point", "coordinates": [ 139.7738942, 35.6729899 ] } },
{ "type": "Feature", "properties": { "lat": 35.6712577, "lon": 139.7758027, "title": "セブンイレブン 中央区入船3丁目店" }, "geometry": { "type": "Point", "coordinates": [ 139.775802700000014, 35.6712577 ] } },
{ "type": "Feature", "properties": { "lat": 35.679294, "lon": 139.7867064, "title": "ファミリーマート MSH日本橋箱崎ビル店" }, "geometry": { "type": "Point", "coordinates": [ 139.786706400000014, 35.679294 ] } },
{ "type": "Feature", "properties": { "lat": 35.6678242, "lon": 139.7686521, "title": "ナチュラルローソン NL築地東劇ビル店" }, "geometry": { "type": "Point", "coordinates": [ 139.7686521, 35.6678242 ] } },
{ "type": "Feature", "properties": { "lat": 35.6764547, "lon": 139.7730216, "title": "ローソンサテライト 清水建設新社屋店" }, "geometry": { "type": "Point", "coordinates": [ 139.7730216, 35.6764547 ] } },
{ "type": "Feature", "properties": { "lat": 35.6820945, "lon": 139.7788603, "title": "セブンイレブン 兜町東証前店" }, "geometry": { "type": "Point", "coordinates": [ 139.7788603, 35.6820945 ] } },
{ "type": "Feature", "properties": { "lat": 35.6903802, "lon": 139.7782378, "title": "セブンイレブン 小伝馬町駅前店" }, "geometry": { "type": "Point", "coordinates": [ 139.7782378, 35.6903802 ] } },
{ "type": "Feature", "properties": { "lat": 35.6806475, "lon": 139.7803482, "title": "ファミリーマート 京王プレッソイン茅場町店" }, "geometry": { "type": "Point", "coordinates": [ 139.7803482, 35.6806475 ] } },
{ "type": "Feature", "properties": { "lat": 35.6820276, "lon": 139.7877568, "title": "セブンイレブン TCAT2階店" }, "geometry": { "type": "Point", "coordinates": [ 139.787756800000011, 35.6820276 ] } },
{ "type": "Feature", "properties": { "lat": 35.682022, "lon": 139.7857374, "title": "ファミリーマート 日本橋かきがら町店" }, "geometry": { "type": "Point", "coordinates": [ 139.785737399999988, 35.682022 ] } },
{ "type": "Feature", "properties": { "lat": 35.6799654, "lon": 139.779494, "title": "セブンイレブン 茅場町駅前店" }, "geometry": { "type": "Point", "coordinates": [ 139.779494, 35.6799654 ] } },
{ "type": "Feature", "properties": { "lat": 35.6734929, "lon": 139.7827614, "title": "ファミリーマート 新川中央大橋店" }, "geometry": { "type": "Point", "coordinates": [ 139.7827614, 35.6734929 ] } },
{ "type": "Feature", "properties": { "lat": 35.6596126, "lon": 139.7765502, "title": "セブンイレブン 勝どき駅前店" }, "geometry": { "type": "Point", "coordinates": [ 139.7765502, 35.6596126 ] } },
{ "type": "Feature", "properties": { "lat": 35.6799253, "lon": 139.7739241, "title": "ファミリーマート 日本橋三丁目店" }, "geometry": { "type": "Point", "coordinates": [ 139.773924099999988, 35.6799253 ] } },
{ "type": "Feature", "properties": { "lat": 35.6690739, "lon": 139.7784707, "title": "ファミリーマート 中央明石町店" }, "geometry": { "type": "Point", "coordinates": [ 139.778470700000014, 35.6690739 ] } },
{ "type": "Feature", "properties": { "lat": 35.6878726, "lon": 139.7716676, "title": "セブンイレブン 日本橋本石町3丁目店" }, "geometry": { "type": "Point", "coordinates": [ 139.7716676, 35.6878726 ] } },
{ "type": "Feature", "properties": { "lat": 35.6684275, "lon": 139.7694846, "title": "ファミリーマート 銀座松竹スクエア店" }, "geometry": { "type": "Point", "coordinates": [ 139.7694846, 35.6684275 ] } },
{ "type": "Feature", "properties": { "lat": 35.6827475, "lon": 139.7723777, "title": "ナチュラルローソン NL日本橋二丁目店" }, "geometry": { "type": "Point", "coordinates": [ 139.7723777, 35.6827475 ] } },
{ "type": "Feature", "properties": { "lat": 35.6858459, "lon": 139.781924, "title": "ローソン 人形町駅前店" }, "geometry": { "type": "Point", "coordinates": [ 139.781924, 35.6858459 ] } },
{ "type": "Feature", "properties": { "lat": 35.6623318, "lon": 139.7815581, "title": "ファミリーマート 中央月島三丁目店" }, "geometry": { "type": "Point", "coordinates": [ 139.781558100000012, 35.6623318 ] } },
{ "type": "Feature", "properties": { "lat": 35.6890342, "lon": 139.773303, "title": "NewDaysミニ 新日本橋1号" }, "geometry": { "type": "Point", "coordinates": [ 139.773303, 35.6890342 ] } },
{ "type": "Feature", "properties": { "lat": 35.6678667, "lon": 139.7635754, "title": "セブンイレブン 銀座7丁目中央店" }, "geometry": { "type": "Point", "coordinates": [ 139.7635754, 35.6678667 ] } },
{ "type": "Feature", "properties": { "lat": 35.6728318, "lon": 139.776525, "title": "ローソン H入船一丁目店" }, "geometry": { "type": "Point", "coordinates": [ 139.776525, 35.6728318 ] } },
{ "type": "Feature", "properties": { "lat": 35.6699791, "lon": 139.7648785, "title": "ファミリーマート 銀座みゆき通り店" }, "geometry": { "type": "Point", "coordinates": [ 139.7648785, 35.6699791 ] } },
{ "type": "Feature", "properties": { "lat": 35.66266, "lon": 139.7829122, "title": "ファミリーマート 月島二丁目店" }, "geometry": { "type": "Point", "coordinates": [ 139.7829122, 35.66266 ] } },
{ "type": "Feature", "properties": { "lat": 35.6855424, "lon": 139.7811093, "title": "セブンイレブン 人形町駅西店" }, "geometry": { "type": "Point", "coordinates": [ 139.7811093, 35.6855424 ] } },
{ "type": "Feature", "properties": { "lat": 35.6665933, "lon": 139.7651297, "title": "ローソン 銀座七丁目店" }, "geometry": { "type": "Point", "coordinates": [ 139.765129699999989, 35.6665933 ] } },
{ "type": "Feature", "properties": { "lat": 35.680024, "lon": 139.7851382, "title": "ローソン 箱崎湊橋店" }, "geometry": { "type": "Point", "coordinates": [ 139.7851382, 35.680024 ] } },
{ "type": "Feature", "properties": { "lat": 35.655466, "lon": 139.7828613, "title": "ファミリーマート 晴海センタービル店" }, "geometry": { "type": "Point", "coordinates": [ 139.7828613, 35.655466 ] } },
{ "type": "Feature", "properties": { "lat": 35.6681009, "lon": 139.7625482, "title": "ファミリーマート 銀座八丁目店" }, "geometry": { "type": "Point", "coordinates": [ 139.7625482, 35.6681009 ] } },
{ "type": "Feature", "properties": { "lat": 35.6846354, "lon": 139.7866862, "title": "セブンイレブン 日本橋浜町店" }, "geometry": { "type": "Point", "coordinates": [ 139.7866862, 35.6846354 ] } },
{ "type": "Feature", "properties": { "lat": 35.6680013, "lon": 139.7717816, "title": "セブンイレブン 築地駅前店" }, "geometry": { "type": "Point", "coordinates": [ 139.7717816, 35.6680013 ] } },
{ "type": "Feature", "properties": { "lat": 35.6887289, "lon": 139.7799257, "title": "ファミリーマート 日本橋堀留町一丁目店" }, "geometry": { "type": "Point", "coordinates": [ 139.7799257, 35.6887289 ] } },
{ "type": "Feature", "properties": { "lat": 35.6773026, "lon": 139.7698405, "title": "ローソン 京橋エドグラン店" }, "geometry": { "type": "Point", "coordinates": [ 139.769840499999987, 35.6773026 ] } },
{ "type": "Feature", "properties": { "lat": 35.6696453, "lon": 139.7679861, "title": "セブンイレブン 歌舞伎座タワー店" }, "geometry": { "type": "Point", "coordinates": [ 139.7679861, 35.6696453 ] } },
{ "type": "Feature", "properties": { "lat": 35.6788865, "lon": 139.7798007, "title": "ローソン 日本橋茅場町店" }, "geometry": { "type": "Point", "coordinates": [ 139.77980070000001, 35.6788865 ] } },
{ "type": "Feature", "properties": { "lat": 35.682899, "lon": 139.7831805, "title": "ミニストップ 日本橋蛎殻町店" }, "geometry": { "type": "Point", "coordinates": [ 139.783180499999986, 35.682899 ] } },
{ "type": "Feature", "properties": { "lat": 35.6876083, "lon": 139.7863049, "title": "ローソン 日本橋浜町二丁目店" }, "geometry": { "type": "Point", "coordinates": [ 139.7863049, 35.6876083 ] } },
{ "type": "Feature", "properties": { "lat": 35.654995, "lon": 139.7806156, "title": "ローソン 中央晴海三丁目店" }, "geometry": { "type": "Point", "coordinates": [ 139.7806156, 35.654995 ] } },
{ "type": "Feature", "properties": { "lat": 35.6761237, "lon": 139.7756715, "title": "セブンイレブン 八丁堀2丁目店" }, "geometry": { "type": "Point", "coordinates": [ 139.775671499999987, 35.6761237 ] } },
{ "type": "Feature", "properties": { "lat": 35.6783527, "lon": 139.7816419, "title": "セブンイレブン 新川1丁目中央店" }, "geometry": { "type": "Point", "coordinates": [ 139.781641900000011, 35.6783527 ] } },
{ "type": "Feature", "properties": { "lat": 35.6730585, "lon": 139.7691416, "title": "ファミリーマート 銀座柳通り店" }, "geometry": { "type": "Point", "coordinates": [ 139.769141600000012, 35.6730585 ] } },
{ "type": "Feature", "properties": { "lat": 35.6666318, "lon": 139.7784923, "title": "セブンイレブン 聖路加タワー店" }, "geometry": { "type": "Point", "coordinates": [ 139.778492300000011, 35.6666318 ] } },
{ "type": "Feature", "properties": { "lat": 35.6945707, "lon": 139.7849584, "title": "セブンイレブン 日本橋横山町店" }, "geometry": { "type": "Point", "coordinates": [ 139.7849584, 35.6945707 ] } },
{ "type": "Feature", "properties": { "lat": 35.6698382, "lon": 139.7726944, "title": "セブンイレブン 中央区築地2丁目店" }, "geometry": { "type": "Point", "coordinates": [ 139.7726944, 35.6698382 ] } },
{ "type": "Feature", "properties": { "lat": 35.6685409, "lon": 139.7855859, "title": "ローソン 佃二丁目店" }, "geometry": { "type": "Point", "coordinates": [ 139.7855859, 35.6685409 ] } },
{ "type": "Feature", "properties": { "lat": 35.6881228, "lon": 139.772439, "title": "デイリーヤマザキ コレド室町テラス店" }, "geometry": { "type": "Point", "coordinates": [ 139.772439, 35.6881228 ] } },
{ "type": "Feature", "properties": { "lat": 35.686372, "lon": 139.7731296, "title": "ファミリーマート 日本橋三井タワー店" }, "geometry": { "type": "Point", "coordinates": [ 139.7731296, 35.686372 ] } },
{ "type": "Feature", "properties": { "lat": 35.6709503, "lon": 139.7677881, "title": "ファミリーマート 銀座松屋通り店" }, "geometry": { "type": "Point", "coordinates": [ 139.7677881, 35.6709503 ] } },
{ "type": "Feature", "properties": { "lat": 35.675267, "lon": 139.7840272, "title": "生活彩家 新川ダイヤビル店" }, "geometry": { "type": "Point", "coordinates": [ 139.7840272, 35.675267 ] } },
{ "type": "Feature", "properties": { "lat": 35.6954638, "lon": 139.7828075, "title": "ミニストップ 日本橋馬喰町2丁目店" }, "geometry": { "type": "Point", "coordinates": [ 139.7828075, 35.6954638 ] } },
{ "type": "Feature", "properties": { "lat": 35.6762939, "lon": 139.784559, "title": "ミニストップ 新川1丁目店" }, "geometry": { "type": "Point", "coordinates": [ 139.784559, 35.6762939 ] } },
{ "type": "Feature", "properties": { "lat": 35.6813517, "lon": 139.7716558, "title": "ファミリーマート 八重洲さくら通り店" }, "geometry": { "type": "Point", "coordinates": [ 139.7716558, 35.6813517 ] } },
{ "type": "Feature", "properties": { "lat": 35.6742382, "lon": 139.7770095, "title": "ロボットマート 八丁堀店" }, "geometry": { "type": "Point", "coordinates": [ 139.7770095, 35.6742382 ] } },
{ "type": "Feature", "properties": { "lat": 35.6875489, "lon": 139.7704941, "title": "ミニストップ 日本橋本石町店" }, "geometry": { "type": "Point", "coordinates": [ 139.7704941, 35.6875489 ] } },
{ "type": "Feature", "properties": { "lat": 35.6833127, "lon": 139.7828924, "title": "セブンイレブン 日本橋蛎殻町店" }, "geometry": { "type": "Point", "coordinates": [ 139.7828924, 35.6833127 ] } },
{ "type": "Feature", "properties": { "lat": 35.6920438, "lon": 139.7804005, "title": "ファミリーマート 小伝馬町鞍掛橋店" }, "geometry": { "type": "Point", "coordinates": [ 139.780400500000013, 35.6920438 ] } },
{ "type": "Feature", "properties": { "lat": 35.6708696, "lon": 139.7790566, "title": "ファミリーマート 湊二丁目店" }, "geometry": { "type": "Point", "coordinates": [ 139.7790566, 35.6708696 ] } },
{ "type": "Feature", "properties": { "lat": 35.6894688, "lon": 139.7747329, "title": "ファミリーマート 新日本橋駅前店" }, "geometry": { "type": "Point", "coordinates": [ 139.7747329, 35.6894688 ] } },
{ "type": "Feature", "properties": { "lat": 35.6823393, "lon": 139.7765902, "title": "ファミリーマート 日本橋一丁目昭和通り店" }, "geometry": { "type": "Point", "coordinates": [ 139.776590199999987, 35.6823393 ] } },
{ "type": "Feature", "properties": { "lat": 35.6909254, "lon": 139.7843186, "title": "ミニストップ 東日本橋3丁目店" }, "geometry": { "type": "Point", "coordinates": [ 139.7843186, 35.6909254 ] } },
{ "type": "Feature", "properties": { "lat": 35.6626906, "lon": 139.7649609, "title": "生活彩家 浜離宮三井ビル店" }, "geometry": { "type": "Point", "coordinates": [ 139.7649609, 35.6626906 ] } },
{ "type": "Feature", "properties": { "lat": 35.6698185, "lon": 139.769669, "title": "セブンイレブン 銀座3丁目店" }, "geometry": { "type": "Point", "coordinates": [ 139.769669, 35.6698185 ] } },
{ "type": "Feature", "properties": { "lat": 35.6941388, "lon": 139.7829481, "title": "セブンイレブン 日本橋馬喰町店" }, "geometry": { "type": "Point", "coordinates": [ 139.7829481, 35.6941388 ] } },
{ "type": "Feature", "properties": { "lat": 35.6742306, "lon": 139.7842967, "title": "セブンイレブン 東京住友ツインビル西館店" }, "geometry": { "type": "Point", "coordinates": [ 139.7842967, 35.6742306 ] } },
{ "type": "Feature", "properties": { "lat": 35.6786679, "lon": 139.7790666, "title": "セブンイレブン 日本橋茅場町2丁目店" }, "geometry": { "type": "Point", "coordinates": [ 139.7790666, 35.6786679 ] } },
{ "type": "Feature", "properties": { "lat": 35.6737081, "lon": 139.772041, "title": "セブンイレブン 銀座1丁目店" }, "geometry": { "type": "Point", "coordinates": [ 139.772041, 35.6737081 ] } },
{ "type": "Feature", "properties": { "lat": 35.6679708, "lon": 139.7742568, "title": "セブンイレブン 築地日刊スポーツ本社店" }, "geometry": { "type": "Point", "coordinates": [ 139.774256799999989, 35.6679708 ] } },
{ "type": "Feature", "properties": { "lat": 35.6714618, "lon": 139.7709196, "title": "セブンイレブン 銀座2丁目店" }, "geometry": { "type": "Point", "coordinates": [ 139.770919600000013, 35.6714618 ] } },
{ "type": "Feature", "properties": { "lat": 35.6854873, "lon": 139.7799253, "title": "セブンイレブン 日本橋人形町3丁目店" }, "geometry": { "type": "Point", "coordinates": [ 139.7799253, 35.6854873 ] } },
{ "type": "Feature", "properties": { "lat": 35.6812364, "lon": 139.7814033, "title": "セブンイレブン 日本橋小網町店" }, "geometry": { "type": "Point", "coordinates": [ 139.7814033, 35.6812364 ] } },
{ "type": "Feature", "properties": { "lat": 35.6912782, "lon": 139.7832207, "title": "セブンイレブン 東日本橋3丁目店" }, "geometry": { "type": "Point", "coordinates": [ 139.783220699999987, 35.6912782 ] } },
{ "type": "Feature", "properties": { "lat": 35.6769702, "lon": 139.7859599, "title": "セブンイレブン 中央区新川1丁目店" }, "geometry": { "type": "Point", "coordinates": [ 139.7859599, 35.6769702 ] } },
{ "type": "Feature", "properties": { "lat": 35.6914513, "lon": 139.7788968, "title": "セブンイレブン 日本橋小伝馬町店" }, "geometry": { "type": "Point", "coordinates": [ 139.778896800000012, 35.6914513 ] } },
{ "type": "Feature", "properties": { "lat": 35.6672143, "lon": 139.7653144, "title": "セブンイレブン 銀座7丁目東店" }, "geometry": { "type": "Point", "coordinates": [ 139.7653144, 35.6672143 ] } },
{ "type": "Feature", "properties": { "lat": 35.6662954, "lon": 139.7846788, "title": "セブンイレブン 中央区佃2丁目店" }, "geometry": { "type": "Point", "coordinates": [ 139.7846788, 35.6662954 ] } },
{ "type": "Feature", "properties": { "lat": 35.6713546, "lon": 139.7725662, "title": "セブンイレブン 中央区役所前店" }, "geometry": { "type": "Point", "coordinates": [ 139.7725662, 35.6713546 ] } },
{ "type": "Feature", "properties": { "lat": 35.680347, "lon": 139.7743934, "title": "セブンイレブン AIM太陽生命日本橋ビル店" }, "geometry": { "type": "Point", "coordinates": [ 139.7743934, 35.680347 ] } },
{ "type": "Feature", "properties": { "lat": 35.6569192, "lon": 139.7867489, "title": "セブンイレブン 晴海2丁目店" }, "geometry": { "type": "Point", "coordinates": [ 139.7867489, 35.6569192 ] } },
{ "type": "Feature", "properties": { "lat": 35.6573718, "lon": 139.7827814, "title": "セブンイレブン 晴海トリトンスクエア店" }, "geometry": { "type": "Point", "coordinates": [ 139.7827814, 35.6573718 ] } },
{ "type": "Feature", "properties": { "lat": 35.6926728, "lon": 139.7818651, "title": "セブンイレブン 馬喰町駅前店" }, "geometry": { "type": "Point", "coordinates": [ 139.7818651, 35.6926728 ] } },
{ "type": "Feature", "properties": { "lat": 35.67737, "lon": 139.7708589, "title": "セブンイレブン DR東京京橋ロイネット店" }, "geometry": { "type": "Point", "coordinates": [ 139.7708589, 35.67737 ] } },
{ "type": "Feature", "properties": { "lat": 35.6735585, "lon": 139.7690018, "title": "セブンイレブン 銀座1丁目中央店" }, "geometry": { "type": "Point", "coordinates": [ 139.769001800000012, 35.6735585 ] } },
{ "type": "Feature", "properties": { "lat": 35.6655577, "lon": 139.783061, "title": "セブンイレブン 中央区月島1丁目店" }, "geometry": { "type": "Point", "coordinates": [ 139.783061, 35.6655577 ] } },
{ "type": "Feature", "properties": { "lat": 35.6891307, "lon": 139.7763505, "title": "セブンイレブン 日本橋本町3丁目店" }, "geometry": { "type": "Point", "coordinates": [ 139.7763505, 35.6891307 ] } },
{ "type": "Feature", "properties": { "lat": 35.6688722, "lon": 139.7775188, "title": "セブンイレブン 中央区明石町店" }, "geometry": { "type": "Point", "coordinates": [ 139.7775188, 35.6688722 ] } },
{ "type": "Feature", "properties": { "lat": 35.6816953, "lon": 139.7718206, "title": "セブンイレブン 日本橋2丁目店" }, "geometry": { "type": "Point", "coordinates": [ 139.771820600000012, 35.6816953 ] } },
{ "type": "Feature", "properties": { "lat": 35.6673716, "lon": 139.7771094, "title": "セブンイレブン KOYO聖路加国際病院店" }, "geometry": { "type": "Point", "coordinates": [ 139.7771094, 35.6673716 ] } },
{ "type": "Feature", "properties": { "lat": 35.6894671, "lon": 139.7849805, "title": "セブンイレブン 日本橋久松町店" }, "geometry": { "type": "Point", "coordinates": [ 139.784980499999989, 35.6894671 ] } },
{ "type": "Feature", "properties": { "lat": 35.6793571, "lon": 139.7763127, "title": "セブンイレブン 日本橋兜町店" }, "geometry": { "type": "Point", "coordinates": [ 139.7763127, 35.6793571 ] } },
{ "type": "Feature", "properties": { "lat": 35.6773026, "lon": 139.7698405, "title": "セブンイレブン 京橋エドグランフロアスリー店" }, "geometry": { "type": "Point", "coordinates": [ 139.769840499999987, 35.6773026 ] } },
{ "type": "Feature", "properties": { "lat": 35.671776, "lon": 139.7808041, "title": "セブンイレブン 中央区湊1丁目店" }, "geometry": { "type": "Point", "coordinates": [ 139.780804100000012, 35.671776 ] } },
{ "type": "Feature", "properties": { "lat": 35.6829748, "lon": 139.7718298, "title": "ローソン 八重洲一丁目店" }, "geometry": { "type": "Point", "coordinates": [ 139.7718298, 35.6829748 ] } },
{ "type": "Feature", "properties": { "lat": 35.6573718, "lon": 139.7827814, "title": "ローソン 晴海トリトンスクエア店" }, "geometry": { "type": "Point", "coordinates": [ 139.7827814, 35.6573718 ] } },
{ "type": "Feature", "properties": { "lat": 35.6623182, "lon": 139.7656638, "title": "ローソン 築地五丁目店" }, "geometry": { "type": "Point", "coordinates": [ 139.7656638, 35.6623182 ] } },
{ "type": "Feature", "properties": { "lat": 35.6683215, "lon": 139.7667642, "title": "ローソン 銀座五丁目店" }, "geometry": { "type": "Point", "coordinates": [ 139.766764200000011, 35.6683215 ] } },
{ "type": "Feature", "properties": { "lat": 35.6744861, "lon": 139.7818996, "title": "ナチュラルローソン NL新川二丁目店" }, "geometry": { "type": "Point", "coordinates": [ 139.7818996, 35.6744861 ] } },
{ "type": "Feature", "properties": { "lat": 35.6770352, "lon": 139.7786641, "title": "セブンイレブン 八丁堀1丁目店" }, "geometry": { "type": "Point", "coordinates": [ 139.778664099999986, 35.677035200000013 ] } },
{ "type": "Feature", "properties": { "lat": 35.6929145, "lon": 139.782302, "title": "NewDaysミニ 馬喰町1号" }, "geometry": { "type": "Point", "coordinates": [ 139.782302, 35.6929145 ] } },
{ "type": "Feature", "properties": { "lat": 35.6726299, "lon": 139.7614943, "title": "セブンイレブン 銀座ファイブ店" }, "geometry": { "type": "Point", "coordinates": [ 139.76149430000001, 35.6726299 ] } },
{ "type": "Feature", "properties": { "lat": 35.6851714, "lon": 139.7775644, "title": "セブンイレブン 日本橋本町1丁目店" }, "geometry": { "type": "Point", "coordinates": [ 139.777564399999989, 35.6851714 ] } },
{ "type": "Feature", "properties": { "lat": 35.6690745, "lon": 139.7648907, "title": "セブンイレブン 銀座6丁目中央店" }, "geometry": { "type": "Point", "coordinates": [ 139.7648907, 35.6690745 ] } },
{ "type": "Feature", "properties": { "lat": 35.6580977, "lon": 139.7784991, "title": "ローソン 勝どき二丁目店" }, "geometry": { "type": "Point", "coordinates": [ 139.7784991, 35.6580977 ] } },
{ "type": "Feature", "properties": { "lat": 35.6712796, "lon": 139.7775574, "title": "ローソン 入船店" }, "geometry": { "type": "Point", "coordinates": [ 139.7775574, 35.6712796 ] } },
{ "type": "Feature", "properties": { "lat": 35.6708817, "lon": 139.7701999, "title": "ナチュラルローソン NL銀座二丁目店" }, "geometry": { "type": "Point", "coordinates": [ 139.7701999, 35.6708817 ] } },
{ "type": "Feature", "properties": { "lat": 35.6783071, "lon": 139.771662, "title": "セブンイレブン TODA BUILDING店" }, "geometry": { "type": "Point", "coordinates": [ 139.771662, 35.6783071 ] } },
{ "type": "Feature", "properties": { "lat": 35.6918328, "lon": 139.7838999, "title": "セブンイレブン 東日本橋駅前店" }, "geometry": { "type": "Point", "coordinates": [ 139.7838999, 35.6918328 ] } },
{ "type": "Feature", "properties": { "lat": 35.6874401, "lon": 139.7753047, "title": "ローソン 日本橋本町二丁目店" }, "geometry": { "type": "Point", "coordinates": [ 139.7753047, 35.6874401 ] } },
{ "type": "Feature", "properties": { "lat": 35.6656639, "lon": 139.774503, "title": "ローソンストア100 LS築地七丁目店" }, "geometry": { "type": "Point", "coordinates": [ 139.774503, 35.665663900000013 ] } },
{ "type": "Feature", "properties": { "lat": 35.6918784, "lon": 139.7856953, "title": "ローソン 東日本橋二丁目店" }, "geometry": { "type": "Point", "coordinates": [ 139.785695299999986, 35.6918784 ] } },
{ "type": "Feature", "properties": { "lat": 35.660619, "lon": 139.780961, "title": "ローソン H月島勝どき店" }, "geometry": { "type": "Point", "coordinates": [ 139.780961, 35.660619 ] } },
{ "type": "Feature", "properties": { "lat": 35.6706351, "lon": 139.7719965, "title": "ローソン 新富町メトロピア店" }, "geometry": { "type": "Point", "coordinates": [ 139.7719965, 35.6706351 ] } },
{ "type": "Feature", "properties": { "lat": 35.6743991, "lon": 139.7787716, "title": "ローソン H八丁堀四丁目店" }, "geometry": { "type": "Point", "coordinates": [ 139.7787716, 35.6743991 ] } },
{ "type": "Feature", "properties": { "lat": 35.6611178, "lon": 139.7837142, "title": "ローソン H月島四丁目店" }, "geometry": { "type": "Point", "coordinates": [ 139.7837142, 35.6611178 ] } },
{ "type": "Feature", "properties": { "lat": 35.6751352, "lon": 139.7825666, "title": "ローソン H新川二丁目店" }, "geometry": { "type": "Point", "coordinates": [ 139.7825666, 35.6751352 ] } },
{ "type": "Feature", "properties": { "lat": 35.6799556, "lon": 139.7869602, "title": "ローソン 日本橋箱崎店" }, "geometry": { "type": "Point", "coordinates": [ 139.78696020000001, 35.6799556 ] } },
{ "type": "Feature", "properties": { "lat": 35.6837576, "lon": 139.7813833, "title": "ローソン 日本橋蛎殻町一丁目店" }, "geometry": { "type": "Point", "coordinates": [ 139.781383299999987, 35.6837576 ] } },
{ "type": "Feature", "properties": { "lat": 35.6759641, "lon": 139.7686818, "title": "ローソン 東京スクエアガーデン店" }, "geometry": { "type": "Point", "coordinates": [ 139.7686818, 35.6759641 ] } },
{ "type": "Feature", "properties": { "lat": 35.6733485, "lon": 139.7691715, "title": "ナチュラルローソン NL中央銀座一丁目店" }, "geometry": { "type": "Point", "coordinates": [ 139.7691715, 35.6733485 ] } },
{ "type": "Feature", "properties": { "lat": 35.6688349, "lon": 139.7684603, "title": "ローソン 東銀座駅前店" }, "geometry": { "type": "Point", "coordinates": [ 139.768460299999987, 35.6688349 ] } },
{ "type": "Feature", "properties": { "lat": 35.6919928, "lon": 139.7817029, "title": "ローソン 日本橋横山町店" }, "geometry": { "type": "Point", "coordinates": [ 139.7817029, 35.6919928 ] } },
{ "type": "Feature", "properties": { "lat": 35.6693441, "lon": 139.7744931, "title": "ローソン H築地三丁目店" }, "geometry": { "type": "Point", "coordinates": [ 139.7744931, 35.6693441 ] } },
{ "type": "Feature", "properties": { "lat": 35.6608355, "lon": 139.7787071, "title": "ファミリーマート 月島三丁目店" },