{
"type": "FeatureCollection",
"name": "galleries2025",
"crs": { "type": "name", "properties": { "name": "urn:ogc:def:crs:OGC:1.3:CRS84" } },
"features": [
{ "type": "Feature", "properties": { "lat": 35.6796067, "lon": 139.8064689, "title": "YUY GALLERY" }, "geometry": { "type": "Point", "coordinates": [ 139.8064689, 35.6796067 ] } },
{ "type": "Feature", "properties": { "lat": 35.6814544, "lon": 139.8033824, "title": "stoop（ストゥープ）" }, "geometry": { "type": "Point", "coordinates": [ 139.8033824, 35.6814544 ] } },
{ "type": "Feature", "properties": { "lat": 35.6805975, "lon": 139.8149765, "title": "drawCircle Gallery（ドローサークルギャラリー）" }, "geometry": { "type": "Point", "coordinates": [ 139.8149765, 35.6805975 ] } },
{ "type": "Feature", "properties": { "lat": 35.6792782, "lon": 139.8058715, "title": "Ikkou's Gallery" }, "geometry": { "type": "Point", "coordinates": [ 139.8058715, 35.6792782 ] } },
{ "type": "Feature", "properties": { "lat": 35.689161, "lon": 139.7938873, "title": "TATSURO KISHIMOTO" }, "geometry": { "type": "Point", "coordinates": [ 139.7938873, 35.689161 ] } },
{ "type": "Feature", "properties": { "lat": 35.6819636, "lon": 139.8000603, "title": "euso gallery" }, "geometry": { "type": "Point", "coordinates": [ 139.800060300000013, 35.6819636 ] } },
{ "type": "Feature", "properties": { "lat": 35.6877058, "lon": 139.8011391, "title": "DJURGARDEN" }, "geometry": { "type": "Point", "coordinates": [ 139.8011391, 35.6877058 ] } },
{ "type": "Feature", "properties": { "lat": 35.6896091, "lon": 139.7960609, "title": "Masumi Sasaki Gallery" }, "geometry": { "type": "Point", "coordinates": [ 139.796060899999986, 35.6896091 ] } },
{ "type": "Feature", "properties": { "lat": 35.6804771, "lon": 139.827777, "title": "FILTER gallery" }, "geometry": { "type": "Point", "coordinates": [ 139.827777, 35.6804771 ] } },
{ "type": "Feature", "properties": { "lat": 35.6819636, "lon": 139.8000603, "title": "art lab Melt Meri（アートラボメルトメリ）" }, "geometry": { "type": "Point", "coordinates": [ 139.800060300000013, 35.6819636 ] } },
{ "type": "Feature", "properties": { "lat": 35.6877735, "lon": 139.8274611, "title": "Studio 04" }, "geometry": { "type": "Point", "coordinates": [ 139.8274611, 35.6877735 ] } },
{ "type": "Feature", "properties": { "lat": 35.6798104, "lon": 139.8047365, "title": "ギャラリークリューチ" }, "geometry": { "type": "Point", "coordinates": [ 139.8047365, 35.6798104 ] } },
{ "type": "Feature", "properties": { "lat": 35.6729771, "lon": 139.7958593, "title": "ギャラリーダイジロ" }, "geometry": { "type": "Point", "coordinates": [ 139.795859299999989, 35.6729771 ] } },
{ "type": "Feature", "properties": { "lat": 35.6727942, "lon": 139.8054097, "title": "EARTH + GALLERY" }, "geometry": { "type": "Point", "coordinates": [ 139.805409700000013, 35.6727942 ] } },
{ "type": "Feature", "properties": { "lat": 35.6824881, "lon": 139.7983899, "title": "SAKuRA GALLERY" }, "geometry": { "type": "Point", "coordinates": [ 139.798389899999989, 35.6824881 ] } },
{ "type": "Feature", "properties": { "lat": 35.6835945, "lon": 139.8090091, "title": "KANA KAWANISHI GALLERY" }, "geometry": { "type": "Point", "coordinates": [ 139.8090091, 35.6835945 ] } },
{ "type": "Feature", "properties": { "lat": 35.6786388, "lon": 139.7987988, "title": "清澄アートギャラリー" }, "geometry": { "type": "Point", "coordinates": [ 139.798798799999986, 35.6786388 ] } },
{ "type": "Feature", "properties": { "lat": 35.677557, "lon": 139.8056602, "title": "アンドーギャラリー" }, "geometry": { "type": "Point", "coordinates": [ 139.8056602, 35.677557 ] } },
{ "type": "Feature", "properties": { "lat": 35.6849615, "lon": 139.7954055, "title": "HAGIWARA PROJECTS（ハギワラプロジェクツ）" }, "geometry": { "type": "Point", "coordinates": [ 139.795405499999987, 35.6849615 ] } },
{ "type": "Feature", "properties": { "lat": 35.6681497, "lon": 139.8199668, "title": "Gallery A4" }, "geometry": { "type": "Point", "coordinates": [ 139.8199668, 35.6681497 ] } },
{ "type": "Feature", "properties": { "lat": 35.6816525, "lon": 139.796879, "title": "ondo STAY&EXHIBITION" }, "geometry": { "type": "Point", "coordinates": [ 139.796879, 35.6816525 ] } },
{ "type": "Feature", "properties": { "lat": 35.6813853, "lon": 139.7954917, "title": "HARMAS GALLERY" }, "geometry": { "type": "Point", "coordinates": [ 139.795491700000014, 35.6813853 ] } },
{ "type": "Feature", "properties": { "lat": 35.6794975, "lon": 139.8010309, "title": "ギャラリー・コピス" }, "geometry": { "type": "Point", "coordinates": [ 139.8010309, 35.6794975 ] } },
{ "type": "Feature", "properties": { "lat": 35.6831133, "lon": 139.8044557, "title": "Satoko Oe Contemporary" }, "geometry": { "type": "Point", "coordinates": [ 139.8044557, 35.6831133 ] } },
{ "type": "Feature", "properties": { "lat": 35.6652855, "lon": 139.7466218, "title": "TIGER MOUNTAIN（タイガーマウンテン）" }, "geometry": { "type": "Point", "coordinates": [ 139.746621800000014, 35.6652855 ] } },
{ "type": "Feature", "properties": { "lat": 35.6675483, "lon": 139.715282, "title": "gallery晴れ –南青山–" }, "geometry": { "type": "Point", "coordinates": [ 139.715282, 35.6675483 ] } },
{ "type": "Feature", "properties": { "lat": 35.6616639, "lon": 139.7279695, "title": "Edit Room" }, "geometry": { "type": "Point", "coordinates": [ 139.7279695, 35.6616639 ] } },
{ "type": "Feature", "properties": { "lat": 35.6642828, "lon": 139.7146735, "title": "Yoru Aozora" }, "geometry": { "type": "Point", "coordinates": [ 139.7146735, 35.6642828 ] } },
{ "type": "Feature", "properties": { "lat": 35.6654871, "lon": 139.7278427, "title": "Space73 TOKYO" }, "geometry": { "type": "Point", "coordinates": [ 139.7278427, 35.6654871 ] } },
{ "type": "Feature", "properties": { "lat": 35.664585, "lon": 139.7124791, "title": "anonymous bldg." }, "geometry": { "type": "Point", "coordinates": [ 139.7124791, 35.664585 ] } },
{ "type": "Feature", "properties": { "lat": 35.6700038, "lon": 139.7529382, "title": "Gate J.東京" }, "geometry": { "type": "Point", "coordinates": [ 139.752938199999988, 35.6700038 ] } },
{ "type": "Feature", "properties": { "lat": 35.6631603, "lon": 139.718279, "title": "Pot Gallery" }, "geometry": { "type": "Point", "coordinates": [ 139.718279, 35.6631603 ] } },
{ "type": "Feature", "properties": { "lat": 35.6628628, "lon": 139.743928, "title": "Zaza Galerie" }, "geometry": { "type": "Point", "coordinates": [ 139.743928, 35.6628628 ] } },
{ "type": "Feature", "properties": { "lat": 35.6619741, "lon": 139.7312142, "title": "ペロタンサロン東京" }, "geometry": { "type": "Point", "coordinates": [ 139.731214200000011, 35.6619741 ] } },
{ "type": "Feature", "properties": { "lat": 35.6626638, "lon": 139.7126411, "title": "始弘画廊" }, "geometry": { "type": "Point", "coordinates": [ 139.712641100000013, 35.6626638 ] } },
{ "type": "Feature", "properties": { "lat": 35.6592922, "lon": 139.7161599, "title": "galerie a（ギャラリエ アー）" }, "geometry": { "type": "Point", "coordinates": [ 139.7161599, 35.6592922 ] } },
{ "type": "Feature", "properties": { "lat": 35.670663, "lon": 139.7220355, "title": "TROLLEY（トロリー）" }, "geometry": { "type": "Point", "coordinates": [ 139.7220355, 35.670663 ] } },
{ "type": "Feature", "properties": { "lat": 35.661057, "lon": 139.721872, "title": "Pocko Gallery Tokyo（ポコギャラリー東京）" }, "geometry": { "type": "Point", "coordinates": [ 139.721872, 35.661057 ] } },
{ "type": "Feature", "properties": { "lat": 35.6595018, "lon": 139.7241269, "title": "いちアート" }, "geometry": { "type": "Point", "coordinates": [ 139.724126899999987, 35.6595018 ] } },
{ "type": "Feature", "properties": { "lat": 35.6543695, "lon": 139.726361, "title": "Amalgam Art Gallery（アマルガム・アート・ギャラリー）" }, "geometry": { "type": "Point", "coordinates": [ 139.726361, 35.6543695 ] } },
{ "type": "Feature", "properties": { "lat": 35.6533992, "lon": 139.7355447, "title": "FIRST GALLERY TOKYO" }, "geometry": { "type": "Point", "coordinates": [ 139.7355447, 35.6533992 ] } },
{ "type": "Feature", "properties": { "lat": 35.6639624, "lon": 139.7138755, "title": "GARDE Gallery" }, "geometry": { "type": "Point", "coordinates": [ 139.7138755, 35.6639624 ] } },
{ "type": "Feature", "properties": { "lat": 35.6674581, "lon": 139.7297058, "title": "ATSUHIKO SUEMATSU GALLERY" }, "geometry": { "type": "Point", "coordinates": [ 139.7297058, 35.6674581 ] } },
{ "type": "Feature", "properties": { "lat": 35.6618798, "lon": 139.743372, "title": "Pace東京" }, "geometry": { "type": "Point", "coordinates": [ 139.743372, 35.6618798 ] } },
{ "type": "Feature", "properties": { "lat": 35.6626022, "lon": 139.7136571, "title": "ギャルリーワッツ" }, "geometry": { "type": "Point", "coordinates": [ 139.7136571, 35.662602199999903 ] } },
{ "type": "Feature", "properties": { "lat": 35.6386794, "lon": 139.7232201, "title": "ギャラリー∞トワ" }, "geometry": { "type": "Point", "coordinates": [ 139.7232201, 35.6386794 ] } },
{ "type": "Feature", "properties": { "lat": 35.6618401, "lon": 139.7287589, "title": "t2GALLERY" }, "geometry": { "type": "Point", "coordinates": [ 139.7287589, 35.6618401 ] } },
{ "type": "Feature", "properties": { "lat": 35.6671712, "lon": 139.7174466, "title": "アートスペースモルゲンロート" }, "geometry": { "type": "Point", "coordinates": [ 139.717446599999988, 35.6671712 ] } },
{ "type": "Feature", "properties": { "lat": 35.6494939, "lon": 139.7445459, "title": "Alpha Contemporary" }, "geometry": { "type": "Point", "coordinates": [ 139.7445459, 35.6494939 ] } },
{ "type": "Feature", "properties": { "lat": 35.6618798, "lon": 139.743372, "title": "集英社マンガアートヘリテージ トーキョーギャラリー" }, "geometry": { "type": "Point", "coordinates": [ 139.743372, 35.6618798 ] } },
{ "type": "Feature", "properties": { "lat": 35.6647011, "lon": 139.7108034, "title": "K Art Gallery" }, "geometry": { "type": "Point", "coordinates": [ 139.7108034, 35.664701099999903 ] } },
{ "type": "Feature", "properties": { "lat": 35.6618798, "lon": 139.743372, "title": "麻布台ヒルズギャラリーカフェ／スペース" }, "geometry": { "type": "Point", "coordinates": [ 139.743372, 35.6618798 ] } },
{ "type": "Feature", "properties": { "lat": 35.6714279, "lon": 139.7209324, "title": "space Un" }, "geometry": { "type": "Point", "coordinates": [ 139.7209324, 35.6714279 ] } },
{ "type": "Feature", "properties": { "lat": 35.6619741, "lon": 139.7312142, "title": "ケンジタキギャラリー / 六本木" }, "geometry": { "type": "Point", "coordinates": [ 139.731214200000011, 35.6619741 ] } },
{ "type": "Feature", "properties": { "lat": 35.6662189, "lon": 139.730226, "title": "SMP GALLERY" }, "geometry": { "type": "Point", "coordinates": [ 139.730226, 35.6662189 ] } },
{ "type": "Feature", "properties": { "lat": 35.6637848, "lon": 139.7099057, "title": "STREET DREAMS STUDIOS TOKYO" }, "geometry": { "type": "Point", "coordinates": [ 139.7099057, 35.663784799999902 ] } },
{ "type": "Feature", "properties": { "lat": 35.6673323, "lon": 139.7473131, "title": "art cruise gallery by Baycrew's" }, "geometry": { "type": "Point", "coordinates": [ 139.747313100000014, 35.6673323 ] } },
{ "type": "Feature", "properties": { "lat": 35.6581037, "lon": 139.7232732, "title": "9s Gallery by TRiCERA" }, "geometry": { "type": "Point", "coordinates": [ 139.7232732, 35.6581037 ] } },
{ "type": "Feature", "properties": { "lat": 35.6581037, "lon": 139.7232732, "title": "WALL_alternative" }, "geometry": { "type": "Point", "coordinates": [ 139.7232732, 35.6581037 ] } },
{ "type": "Feature", "properties": { "lat": 35.6619573, "lon": 139.7134366, "title": "リノベる。表参道「b1.／ビーワン。」" }, "geometry": { "type": "Point", "coordinates": [ 139.7134366, 35.6619573 ] } },
{ "type": "Feature", "properties": { "lat": 35.6655211, "lon": 139.7152122, "title": "AMATEUR（アマチュア）" }, "geometry": { "type": "Point", "coordinates": [ 139.7152122, 35.6655211 ] } },
{ "type": "Feature", "properties": { "lat": 35.6618798, "lon": 139.743372, "title": "Gallery Restaurant 舞台裏" }, "geometry": { "type": "Point", "coordinates": [ 139.743372, 35.6618798 ] } },
{ "type": "Feature", "properties": { "lat": 35.6611131, "lon": 139.7366224, "title": "JIDAデザインミュージアム" }, "geometry": { "type": "Point", "coordinates": [ 139.736622399999987, 35.6611131 ] } },
{ "type": "Feature", "properties": { "lat": 35.6618798, "lon": 139.743372, "title": "麻布台ヒルズ ギャラリー" }, "geometry": { "type": "Point", "coordinates": [ 139.743372, 35.6618798 ] } },
{ "type": "Feature", "properties": { "lat": 35.6692356, "lon": 139.7477146, "title": "SIGNAL" }, "geometry": { "type": "Point", "coordinates": [ 139.7477146, 35.6692356 ] } },
{ "type": "Feature", "properties": { "lat": 35.6619741, "lon": 139.7312142, "title": "GALLERY – SIGN TOKYO" }, "geometry": { "type": "Point", "coordinates": [ 139.731214200000011, 35.6619741 ] } },
{ "type": "Feature", "properties": { "lat": 35.6662189, "lon": 139.730226, "title": "とらや 東京ミッドタウン店ギャラリー" }, "geometry": { "type": "Point", "coordinates": [ 139.730226, 35.6662189 ] } },
{ "type": "Feature", "properties": { "lat": 35.6533027, "lon": 139.7342937, "title": "Koichi Yamamura gallery" }, "geometry": { "type": "Point", "coordinates": [ 139.7342937, 35.6533027 ] } },
{ "type": "Feature", "properties": { "lat": 35.6563488, "lon": 139.7236091, "title": "IDEALIDEA gallery（イデアリデア ギャラリー）" }, "geometry": { "type": "Point", "coordinates": [ 139.7236091, 35.6563488 ] } },
{ "type": "Feature", "properties": { "lat": 35.6583677, "lon": 139.7204359, "title": "ギャラリー イー・エム 西麻布" }, "geometry": { "type": "Point", "coordinates": [ 139.720435900000012, 35.6583677 ] } },
{ "type": "Feature", "properties": { "lat": 35.6646354, "lon": 139.7092883, "title": "ギャラリーコンセプト21" }, "geometry": { "type": "Point", "coordinates": [ 139.7092883, 35.6646354 ] } },
{ "type": "Feature", "properties": { "lat": 35.6611615, "lon": 139.7234749, "title": "Miaki Gallery" }, "geometry": { "type": "Point", "coordinates": [ 139.723474900000014, 35.6611615 ] } },
{ "type": "Feature", "properties": { "lat": 35.6655211, "lon": 139.7152122, "title": "Gallery Blue 3143" }, "geometry": { "type": "Point", "coordinates": [ 139.7152122, 35.6655211 ] } },
{ "type": "Feature", "properties": { "lat": 35.6605328, "lon": 139.7133336, "title": "大塚美術" }, "geometry": { "type": "Point", "coordinates": [ 139.7133336, 35.6605328 ] } },
{ "type": "Feature", "properties": { "lat": 35.671564, "lon": 139.715588, "title": "Nine Gallery" }, "geometry": { "type": "Point", "coordinates": [ 139.715588, 35.671564 ] } },
{ "type": "Feature", "properties": { "lat": 35.64448, "lon": 139.7233466, "title": "Art Gallery Shirokane 6c" }, "geometry": { "type": "Point", "coordinates": [ 139.723346600000013, 35.64448 ] } },
{ "type": "Feature", "properties": { "lat": 35.6598412, "lon": 139.7212972, "title": "KONTACTO EAST GALLERY" }, "geometry": { "type": "Point", "coordinates": [ 139.7212972, 35.6598412 ] } },
{ "type": "Feature", "properties": { "lat": 35.6681141, "lon": 139.73947, "title": "GALLERY SCENA." }, "geometry": { "type": "Point", "coordinates": [ 139.73947, 35.6681141 ] } },
{ "type": "Feature", "properties": { "lat": 35.6682776, "lon": 139.7158705, "title": "YUGEN Gallery" }, "geometry": { "type": "Point", "coordinates": [ 139.7158705, 35.6682776 ] } },
{ "type": "Feature", "properties": { "lat": 35.6664342, "lon": 139.745178, "title": "VLC Gallery by AKIO NAGASAWA" }, "geometry": { "type": "Point", "coordinates": [ 139.745178, 35.6664342 ] } },
{ "type": "Feature", "properties": { "lat": 35.6628771, "lon": 139.7271634, "title": "OTA FINE ARTS 7CHOME" }, "geometry": { "type": "Point", "coordinates": [ 139.7271634, 35.6628771 ] } },
{ "type": "Feature", "properties": { "lat": 35.6609468, "lon": 139.7161897, "title": "SOOT" }, "geometry": { "type": "Point", "coordinates": [ 139.7161897, 35.6609468 ] } },
{ "type": "Feature", "properties": { "lat": 35.6664077, "lon": 139.7507668, "title": "THE LOOP GALLERY" }, "geometry": { "type": "Point", "coordinates": [ 139.7507668, 35.6664077 ] } },
{ "type": "Feature", "properties": { "lat": 35.669779, "lon": 139.7247531, "title": "ギャラリー石榴 南青山ルーム" }, "geometry": { "type": "Point", "coordinates": [ 139.724753099999987, 35.669779 ] } },
{ "type": "Feature", "properties": { "lat": 35.6611131, "lon": 139.7366224, "title": "アクシス ギャラリー" }, "geometry": { "type": "Point", "coordinates": [ 139.736622399999987, 35.6611131 ] } },
{ "type": "Feature", "properties": { "lat": 35.6655211, "lon": 139.7152122, "title": "GALLERY ROCKET（ギャラリー ロケット）" }, "geometry": { "type": "Point", "coordinates": [ 139.7152122, 35.6655211 ] } },
{ "type": "Feature", "properties": { "lat": 35.6476389, "lon": 139.7311176, "title": "Mizenka Gallery" }, "geometry": { "type": "Point", "coordinates": [ 139.7311176, 35.6476389 ] } },
{ "type": "Feature", "properties": { "lat": 35.6360417, "lon": 139.7370489, "title": "ミヤケファインアート" }, "geometry": { "type": "Point", "coordinates": [ 139.7370489, 35.6360417 ] } },
{ "type": "Feature", "properties": { "lat": 35.6673426, "lon": 139.7264052, "title": "TOTOギャラリー・間" }, "geometry": { "type": "Point", "coordinates": [ 139.726405199999988, 35.6673426 ] } },
{ "type": "Feature", "properties": { "lat": 35.6619741, "lon": 139.7312142, "title": "ワコウ・ワークス・オブ・アート" }, "geometry": { "type": "Point", "coordinates": [ 139.731214200000011, 35.6619741 ] } },
{ "type": "Feature", "properties": { "lat": 35.671805, "lon": 139.716214, "title": "オリエ アート・ギャラリー" }, "geometry": { "type": "Point", "coordinates": [ 139.716214, 35.671805 ] } },
{ "type": "Feature", "properties": { "lat": 35.6623331, "lon": 139.712707, "title": "Otherwise Gallery" }, "geometry": { "type": "Point", "coordinates": [ 139.712707, 35.6623331 ] } },
{ "type": "Feature", "properties": { "lat": 35.6614321, "lon": 139.7134703, "title": "Akio Nagasawa Gallery Aoyama" }, "geometry": { "type": "Point", "coordinates": [ 139.713470300000012, 35.6614321 ] } },
{ "type": "Feature", "properties": { "lat": 35.6622335, "lon": 139.721198, "title": "TAV GALLERY" }, "geometry": { "type": "Point", "coordinates": [ 139.721198, 35.6622335 ] } },
{ "type": "Feature", "properties": { "lat": 35.671879, "lon": 139.7148104, "title": "ギャラリーハウスMAYA" }, "geometry": { "type": "Point", "coordinates": [ 139.7148104, 35.671879 ] } },
{ "type": "Feature", "properties": { "lat": 35.6672481, "lon": 139.7195209, "title": "プリズミックギャラリー" }, "geometry": { "type": "Point", "coordinates": [ 139.7195209, 35.6672481 ] } },
{ "type": "Feature", "properties": { "lat": 35.6611817, "lon": 139.7226041, "title": "NANATASU GALLERY" }, "geometry": { "type": "Point", "coordinates": [ 139.722604100000012, 35.6611817 ] } },
{ "type": "Feature", "properties": { "lat": 35.6701011, "lon": 139.7263354, "title": "Art-U room" }, "geometry": { "type": "Point", "coordinates": [ 139.726335400000011, 35.6701011 ] } },
{ "type": "Feature", "properties": { "lat": 35.6702274, "lon": 139.7181094, "title": "GALLERY CLASKA" }, "geometry": { "type": "Point", "coordinates": [ 139.7181094, 35.6702274 ] } },
{ "type": "Feature", "properties": { "lat": 35.6572543, "lon": 139.7372411, "title": "Cale" }, "geometry": { "type": "Point", "coordinates": [ 139.7372411, 35.6572543 ] } },
{ "type": "Feature", "properties": { "lat": 35.6613896, "lon": 139.730875, "title": "小山登美夫ギャラリー六本木" }, "geometry": { "type": "Point", "coordinates": [ 139.730875, 35.6613896 ] } },
{ "type": "Feature", "properties": { "lat": 35.6675483, "lon": 139.715282, "title": "NADAR / TOKYO（ナダール / 東京）" }, "geometry": { "type": "Point", "coordinates": [ 139.715282, 35.6675483 ] } },
{ "type": "Feature", "properties": { "lat": 35.6694078, "lon": 139.7203185, "title": "DAZZLE" }, "geometry": { "type": "Point", "coordinates": [ 139.7203185, 35.6694078 ] } },
{ "type": "Feature", "properties": { "lat": 35.6604915, "lon": 139.7328435, "title": "ストライプハウスギャラリー" }, "geometry": { "type": "Point", "coordinates": [ 139.7328435, 35.6604915 ] } },
{ "type": "Feature", "properties": { "lat": 35.656671, "lon": 139.734712, "title": "azabujuban gallery plus" }, "geometry": { "type": "Point", "coordinates": [ 139.734712, 35.656671 ] } },
{ "type": "Feature", "properties": { "lat": 35.6632357, "lon": 139.7542102, "title": "いつき美術画廊" }, "geometry": { "type": "Point", "coordinates": [ 139.754210199999989, 35.6632357 ] } },
{ "type": "Feature", "properties": { "lat": 35.6617558, "lon": 139.714183, "title": "新生堂" }, "geometry": { "type": "Point", "coordinates": [ 139.714183, 35.6617558 ] } },
{ "type": "Feature", "properties": { "lat": 35.6608761, "lon": 139.7146126, "title": "ビリケンギャラリー" }, "geometry": { "type": "Point", "coordinates": [ 139.7146126, 35.6608761 ] } },
{ "type": "Feature", "properties": { "lat": 35.660136, "lon": 139.7399583, "title": "Rikka Gallery" }, "geometry": { "type": "Point", "coordinates": [ 139.739958300000012, 35.660136 ] } },
{ "type": "Feature", "properties": { "lat": 35.6628771, "lon": 139.7271634, "title": "nca | nichido contemporary art" }, "geometry": { "type": "Point", "coordinates": [ 139.7271634, 35.6628771 ] } },
{ "type": "Feature", "properties": { "lat": 35.6617371, "lon": 139.7230406, "title": "CALM & PUNK GALLERY" }, "geometry": { "type": "Point", "coordinates": [ 139.7230406, 35.6617371 ] } },
{ "type": "Feature", "properties": { "lat": 35.6570327, "lon": 139.7405246, "title": "Take Ninagawa" }, "geometry": { "type": "Point", "coordinates": [ 139.740524599999986, 35.657032699999903 ] } },
{ "type": "Feature", "properties": { "lat": 35.6251435, "lon": 139.7715694, "title": "Gallery 21 （ギャラリー・ヴァンテアン）" }, "geometry": { "type": "Point", "coordinates": [ 139.7715694, 35.6251435 ] } },
{ "type": "Feature", "properties": { "lat": 35.6619741, "lon": 139.7312142, "title": "TARO NASU" }, "geometry": { "type": "Point", "coordinates": [ 139.731214200000011, 35.6619741 ] } },
{ "type": "Feature", "properties": { "lat": 35.6647178, "lon": 139.7302066, "title": "Hideharu Fukasaku Gallery Roppongi" }, "geometry": { "type": "Point", "coordinates": [ 139.7302066, 35.6647178 ] } },
{ "type": "Feature", "properties": { "lat": 35.6619741, "lon": 139.7312142, "title": "Zen Foto Gallery" }, "geometry": { "type": "Point", "coordinates": [ 139.731214200000011, 35.6619741 ] } },
{ "type": "Feature", "properties": { "lat": 35.6644599, "lon": 139.7285115, "title": "s+arts" }, "geometry": { "type": "Point", "coordinates": [ 139.7285115, 35.6644599 ] } },
{ "type": "Feature", "properties": { "lat": 35.6604621, "lon": 139.7292786, "title": "ROPPONGI HILLS A/D GALLERY" }, "geometry": { "type": "Point", "coordinates": [ 139.729278599999986, 35.6604621 ] } },
{ "type": "Feature", "properties": { "lat": 35.6611131, "lon": 139.7366224, "title": "タカ・イシイギャラリー フォトグラフィー / フィルム" }, "geometry": { "type": "Point", "coordinates": [ 139.736622399999987, 35.6611131 ] } },
{ "type": "Feature", "properties": { "lat": 35.6668493, "lon": 139.717176, "title": "スペース・ユイ" }, "geometry": { "type": "Point", "coordinates": [ 139.717176, 35.6668493 ] } },
{ "type": "Feature", "properties": { "lat": 35.6593848, "lon": 139.7238013, "title": "Gallery Ether（ギャラリーイーサ）" }, "geometry": { "type": "Point", "coordinates": [ 139.7238013, 35.6593848 ] } },
{ "type": "Feature", "properties": { "lat": 35.6619741, "lon": 139.7312142, "title": "フィリップス東京" }, "geometry": { "type": "Point", "coordinates": [ 139.731214200000011, 35.6619741 ] } },
{ "type": "Feature", "properties": { "lat": 35.6702766, "lon": 139.7158778, "title": "ギャラリー Jy（ギャラリージー）" }, "geometry": { "type": "Point", "coordinates": [ 139.715877799999987, 35.6702766 ] } },
{ "type": "Feature", "properties": { "lat": 35.6667767, "lon": 139.7272989, "title": "ギャラリー・アートアンリミテッド" }, "geometry": { "type": "Point", "coordinates": [ 139.7272989, 35.6667767 ] } },
{ "type": "Feature", "properties": { "lat": 35.6483971, "lon": 139.7357485, "title": "MYD Gallery" }, "geometry": { "type": "Point", "coordinates": [ 139.7357485, 35.6483971 ] } },
{ "type": "Feature", "properties": { "lat": 35.6255848, "lon": 139.7408902, "title": "オープンギャラリー1・2" }, "geometry": { "type": "Point", "coordinates": [ 139.7408902, 35.6255848 ] } },
{ "type": "Feature", "properties": { "lat": 35.6662315, "lon": 139.7313051, "title": "東京ミッドタウン・デザインハブ" }, "geometry": { "type": "Point", "coordinates": [ 139.731305099999986, 35.666231499999903 ] } },
{ "type": "Feature", "properties": { "lat": 35.6619741, "lon": 139.7312142, "title": "KOTARO NUKAGA（六本木）" }, "geometry": { "type": "Point", "coordinates": [ 139.731214200000011, 35.6619741 ] } },
{ "type": "Feature", "properties": { "lat": 35.6619741, "lon": 139.7312142, "title": "Yutaka Kikutake Gallery" }, "geometry": { "type": "Point", "coordinates": [ 139.731214200000011, 35.6619741 ] } },
{ "type": "Feature", "properties": { "lat": 35.6255848, "lon": 139.7408902, "title": "キヤノンギャラリーS" }, "geometry": { "type": "Point", "coordinates": [ 139.7408902, 35.6255848 ] } },
{ "type": "Feature", "properties": { "lat": 35.6619741, "lon": 139.7312142, "title": "SCAI PIRAMIDE" }, "geometry": { "type": "Point", "coordinates": [ 139.731214200000011, 35.6619741 ] } },
{ "type": "Feature", "properties": { "lat": 35.6628655, "lon": 139.7123227, "title": "アニエスベー ギャラリー ブティック（agnès b. galerie boutique）" }, "geometry": { "type": "Point", "coordinates": [ 139.712322699999987, 35.6628655 ] } },
{ "type": "Feature", "properties": { "lat": 35.653269, "lon": 139.7229732, "title": "エモン・フォトギャラリー" }, "geometry": { "type": "Point", "coordinates": [ 139.722973200000013, 35.653269 ] } },
{ "type": "Feature", "properties": { "lat": 35.671033, "lon": 139.7262904, "title": "ウナックサロン" }, "geometry": { "type": "Point", "coordinates": [ 139.726290400000011, 35.671033 ] } },
{ "type": "Feature", "properties": { "lat": 35.6718539, "lon": 139.7228136, "title": "ポーラ文化研究所 化粧文化ギャラリー" }, "geometry": { "type": "Point", "coordinates": [ 139.7228136, 35.6718539 ] } },
{ "type": "Feature", "properties": { "lat": 35.6711606, "lon": 139.7215348, "title": "画廊くにまつ青山" }, "geometry": { "type": "Point", "coordinates": [ 139.7215348, 35.6711606 ] } },
{ "type": "Feature", "properties": { "lat": 35.6421363, "lon": 139.7348479, "title": "room021 by ozi design works inc." }, "geometry": { "type": "Point", "coordinates": [ 139.7348479, 35.6421363 ] } },
{ "type": "Feature", "properties": { "lat": 35.6550037, "lon": 139.7279768, "title": "Kaikai Kiki Gallery" }, "geometry": { "type": "Point", "coordinates": [ 139.7279768, 35.6550037 ] } },
{ "type": "Feature", "properties": { "lat": 35.6661215, "lon": 139.7275625, "title": "GALLERY SIDE 2" }, "geometry": { "type": "Point", "coordinates": [ 139.7275625, 35.6661215 ] } },
{ "type": "Feature", "properties": { "lat": 35.6613896, "lon": 139.730875, "title": "シュウゴアーツ" }, "geometry": { "type": "Point", "coordinates": [ 139.730875, 35.6613896 ] } },
{ "type": "Feature", "properties": { "lat": 35.6619741, "lon": 139.7312142, "title": "オオタファインアーツ" }, "geometry": { "type": "Point", "coordinates": [ 139.731214200000011, 35.6619741 ] } },
{ "type": "Feature", "properties": { "lat": 35.6638526, "lon": 139.7118607, "title": "Gallery 5610" }, "geometry": { "type": "Point", "coordinates": [ 139.711860699999988, 35.6638526 ] } },
{ "type": "Feature", "properties": { "lat": 35.6642828, "lon": 139.7146735, "title": "void+（ヴォイドプラス）" }, "geometry": { "type": "Point", "coordinates": [ 139.7146735, 35.6642828 ] } },
{ "type": "Feature", "properties": { "lat": 35.6468065, "lon": 139.7296193, "title": "ロンドンギャラリー" }, "geometry": { "type": "Point", "coordinates": [ 139.7296193, 35.6468065 ] } },
{ "type": "Feature", "properties": { "lat": 35.6728685, "lon": 139.7290605, "title": "カナダ大使館高円宮記念ギャラリー" }, "geometry": { "type": "Point", "coordinates": [ 139.7290605, 35.6728685 ] } },
{ "type": "Feature", "properties": { "lat": 35.6659923, "lon": 139.7193424, "title": "ギャラリー ＋ クック・ラボ como" }, "geometry": { "type": "Point", "coordinates": [ 139.719342399999988, 35.6659923 ] } },
{ "type": "Feature", "properties": { "lat": 35.6527607, "lon": 139.7605528, "title": "YOKOTA TOKYO" }, "geometry": { "type": "Point", "coordinates": [ 139.7605528, 35.6527607 ] } },
{ "type": "Feature", "properties": { "lat": 35.634073, "lon": 139.7275653, "title": "東京妙案GALLERY" }, "geometry": { "type": "Point", "coordinates": [ 139.7275653, 35.634073 ] } },
{ "type": "Feature", "properties": { "lat": 35.6622335, "lon": 139.721198, "title": "KANA KAWANISHI PHOTOGRAPHY" }, "geometry": { "type": "Point", "coordinates": [ 139.721198, 35.6622335 ] } },
{ "type": "Feature", "properties": { "lat": 35.6596284, "lon": 139.7246094, "title": "art gallery closet" }, "geometry": { "type": "Point", "coordinates": [ 139.7246094, 35.6596284 ] } },
{ "type": "Feature", "properties": { "lat": 35.6597881, "lon": 139.7377862, "title": "Egen Gallery" }, "geometry": { "type": "Point", "coordinates": [ 139.737786199999988, 35.6597881 ] } },
{ "type": "Feature", "properties": { "lat": 35.6614072, "lon": 139.7300377, "title": "ユミコチバアソシエイツ" }, "geometry": { "type": "Point", "coordinates": [ 139.7300377, 35.6614072 ] } },
{ "type": "Feature", "properties": { "lat": 35.6616991, "lon": 139.7329952, "title": "hiromiyoshii roppongi" }, "geometry": { "type": "Point", "coordinates": [ 139.7329952, 35.6616991 ] } },
{ "type": "Feature", "properties": { "lat": 35.6716852, "lon": 139.7170528, "title": "アート・ラボ・トーキョー" }, "geometry": { "type": "Point", "coordinates": [ 139.7170528, 35.6716852 ] } },
{ "type": "Feature", "properties": { "lat": 35.6619741, "lon": 139.7312142, "title": "ギャラリーペロタン東京" }, "geometry": { "type": "Point", "coordinates": [ 139.731214200000011, 35.6619741 ] } },
{ "type": "Feature", "properties": { "lat": 35.6588727, "lon": 139.7292609, "title": "SPROUT CURATION 1006" }, "geometry": { "type": "Point", "coordinates": [ 139.729260900000014, 35.6588727 ] } },
{ "type": "Feature", "properties": { "lat": 35.6551175, "lon": 139.7346866, "title": "パレットギャラリー" }, "geometry": { "type": "Point", "coordinates": [ 139.7346866, 35.6551175 ] } },
{ "type": "Feature", "properties": { "lat": 35.6627748, "lon": 139.717706, "title": "ノートンギャラリー" }, "geometry": { "type": "Point", "coordinates": [ 139.717706, 35.6627748 ] } },
{ "type": "Feature", "properties": { "lat": 35.6649694, "lon": 139.7153119, "title": "Art Salon SCÈNE" }, "geometry": { "type": "Point", "coordinates": [ 139.715311899999989, 35.6649694 ] } },
{ "type": "Feature", "properties": { "lat": 35.6680191, "lon": 139.7321122, "title": "ninetytwo 13 gallery" }, "geometry": { "type": "Point", "coordinates": [ 139.732112199999989, 35.6680191 ] } },
{ "type": "Feature", "properties": { "lat": 35.6599669, "lon": 139.7229605, "title": "SNOW Contemporary" }, "geometry": { "type": "Point", "coordinates": [ 139.7229605, 35.6599669 ] } },
{ "type": "Feature", "properties": { "lat": 35.6704911, "lon": 139.7297375, "title": "北井画廊" }, "geometry": { "type": "Point", "coordinates": [ 139.7297375, 35.6704911 ] } },
{ "type": "Feature", "properties": { "lat": 35.6500895, "lon": 139.7310908, "title": "MISA SHIN GALLERY" }, "geometry": { "type": "Point", "coordinates": [ 139.7310908, 35.6500895 ] } },
{ "type": "Feature", "properties": { "lat": 35.6604674, "lon": 139.7166516, "title": "ギャルリーためなが" }, "geometry": { "type": "Point", "coordinates": [ 139.7166516, 35.6604674 ] } },
{ "type": "Feature", "properties": { "lat": 35.657481, "lon": 139.7427695, "title": "PGI" }, "geometry": { "type": "Point", "coordinates": [ 139.7427695, 35.657481 ] } },
{ "type": "Feature", "properties": { "lat": 35.6613896, "lon": 139.730875, "title": "タカ・イシイギャラリー" }, "geometry": { "type": "Point", "coordinates": [ 139.730875, 35.6613896 ] } },
{ "type": "Feature", "properties": { "lat": 35.6620118, "lon": 139.7307167, "title": "GALLERY MoMo Projects" }, "geometry": { "type": "Point", "coordinates": [ 139.730716699999988, 35.6620118 ] } },
{ "type": "Feature", "properties": { "lat": 35.6621643, "lon": 139.7292076, "title": "CLEAR GALLERY TOKYO" }, "geometry": { "type": "Point", "coordinates": [ 139.7292076, 35.6621643 ] } },
{ "type": "Feature", "properties": { "lat": 35.6690374, "lon": 139.7202378, "title": "白白庵" }, "geometry": { "type": "Point", "coordinates": [ 139.7202378, 35.6690374 ] } },
{ "type": "Feature", "properties": { "lat": 35.6671241, "lon": 139.7137601, "title": "ファーガス・マカフリー 東京" }, "geometry": { "type": "Point", "coordinates": [ 139.7137601, 35.6671241 ] } },
{ "type": "Feature", "properties": { "lat": 35.6701111, "lon": 139.73472, "title": "HULS GALLERY TOKYO" }, "geometry": { "type": "Point", "coordinates": [ 139.73472, 35.6701111 ] } },
{ "type": "Feature", "properties": { "lat": 35.6478343, "lon": 139.7107224, "title": "gallery and shop 山小屋" }, "geometry": { "type": "Point", "coordinates": [ 139.7107224, 35.6478343 ] } },
{ "type": "Feature", "properties": { "lat": 35.6545783, "lon": 139.7020267, "title": "LGSA by EIOS（ラグサ バイ エイオス）" }, "geometry": { "type": "Point", "coordinates": [ 139.7020267, 35.6545783 ] } },
{ "type": "Feature", "properties": { "lat": 35.6706698, "lon": 139.7055771, "title": "designsix Concept shop HARAJUKU / Gallery 6" }, "geometry": { "type": "Point", "coordinates": [ 139.7055771, 35.6706698 ] } },
{ "type": "Feature", "properties": { "lat": 35.6691214, "lon": 139.71098, "title": "Gallery IRRITUM Tokyo（ギャラリーイリチュム東京）" }, "geometry": { "type": "Point", "coordinates": [ 139.71098, 35.6691214 ] } },
{ "type": "Feature", "properties": { "lat": 35.6672869, "lon": 139.7086162, "title": "AND COLLECTION Contemporary Art" }, "geometry": { "type": "Point", "coordinates": [ 139.7086162, 35.6672869 ] } },
{ "type": "Feature", "properties": { "lat": 35.6591239, "lon": 139.7037298, "title": "ShinQs Gallery 5（シンクス・ギャラリー・ファイブ）" }, "geometry": { "type": "Point", "coordinates": [ 139.7037298, 35.6591239 ] } },
{ "type": "Feature", "properties": { "lat": 35.6597356, "lon": 139.7122796, "title": "VACANT ROOM" }, "geometry": { "type": "Point", "coordinates": [ 139.712279599999988, 35.6597356 ] } },
{ "type": "Feature", "properties": { "lat": 35.6811972, "lon": 139.6973162, "title": "MILL HOUSE PRINT LAB" }, "geometry": { "type": "Point", "coordinates": [ 139.697316199999989, 35.6811972 ] } },
{ "type": "Feature", "properties": { "lat": 35.6580498, "lon": 139.6925932, "title": "KOKUSAIBUNKA GALLERY 神泉" }, "geometry": { "type": "Point", "coordinates": [ 139.6925932, 35.6580498 ] } },
{ "type": "Feature", "properties": { "lat": 35.6521443, "lon": 139.7087556, "title": "Galerie Tenko Presents" }, "geometry": { "type": "Point", "coordinates": [ 139.708755599999989, 35.6521443 ] } },
{ "type": "Feature", "properties": { "lat": 35.6661597, "lon": 139.7054175, "title": "SO1" }, "geometry": { "type": "Point", "coordinates": [ 139.70541750000001, 35.6661597 ] } },
{ "type": "Feature", "properties": { "lat": 35.6714817, "lon": 139.7088485, "title": "Shun Art Gallery Tokyo" }, "geometry": { "type": "Point", "coordinates": [ 139.708848499999988, 35.6714817 ] } },
{ "type": "Feature", "properties": { "lat": 35.6526554, "lon": 139.7056768, "title": "AKIINOUE" }, "geometry": { "type": "Point", "coordinates": [ 139.7056768, 35.6526554 ] } },
{ "type": "Feature", "properties": { "lat": 35.6487532, "lon": 139.7202451, "title": "THE HARMONYST" }, "geometry": { "type": "Point", "coordinates": [ 139.7202451, 35.6487532 ] } },
{ "type": "Feature", "properties": { "lat": 35.6512041, "lon": 139.7011209, "title": "白兎" }, "geometry": { "type": "Point", "coordinates": [ 139.7011209, 35.6512041 ] } },
{ "type": "Feature", "properties": { "lat": 35.6736873, "lon": 139.6912306, "title": "SPACE NOBORU" }, "geometry": { "type": "Point", "coordinates": [ 139.691230600000011, 35.6736873 ] } },
{ "type": "Feature", "properties": { "lat": 35.6484181, "lon": 139.7119604, "title": "see you gallery" }, "geometry": { "type": "Point", "coordinates": [ 139.7119604, 35.6484181 ] } },
{ "type": "Feature", "properties": { "lat": 35.6731728, "lon": 139.7039557, "title": "代々木アートギャラリー" }, "geometry": { "type": "Point", "coordinates": [ 139.7039557, 35.6731728 ] } },
{ "type": "Feature", "properties": { "lat": 35.6540704, "lon": 139.7097532, "title": "UltraSuperNew KURA" }, "geometry": { "type": "Point", "coordinates": [ 139.7097532, 35.6540704 ] } },
{ "type": "Feature", "properties": { "lat": 35.6421866, "lon": 139.7134676, "title": "Visions Gallery" }, "geometry": { "type": "Point", "coordinates": [ 139.7134676, 35.6421866 ] } },
{ "type": "Feature", "properties": { "lat": 35.6659705, "lon": 139.706375, "title": "tHE GALLERY OMOTESANDO" }, "geometry": { "type": "Point", "coordinates": [ 139.706375, 35.6659705 ] } },
{ "type": "Feature", "properties": { "lat": 35.670903, "lon": 139.7078982, "title": "tHE GALLERY HARAJUKU" }, "geometry": { "type": "Point", "coordinates": [ 139.707898199999988, 35.670903 ] } },
{ "type": "Feature", "properties": { "lat": 35.6597378, "lon": 139.7127405, "title": "青山見本帖" }, "geometry": { "type": "Point", "coordinates": [ 139.7127405, 35.659737799999903 ] } },
{ "type": "Feature", "properties": { "lat": 35.6857064, "lon": 139.7043205, "title": "aL Base（アエル ベース）" }, "geometry": { "type": "Point", "coordinates": [ 139.7043205, 35.6857064 ] } },
{ "type": "Feature", "properties": { "lat": 35.6602134, "lon": 139.7073524, "title": "ギャラリー青山いやさか" }, "geometry": { "type": "Point", "coordinates": [ 139.7073524, 35.6602134 ] } },
{ "type": "Feature", "properties": { "lat": 35.6500745, "lon": 139.7028055, "title": "DRELLA Art Gallery（ドレラ・アートギャラリー）" }, "geometry": { "type": "Point", "coordinates": [ 139.702805500000011, 35.6500745 ] } },
{ "type": "Feature", "properties": { "lat": 35.6701845, "lon": 139.7087179, "title": "ギャラリーフェーレス表参道" }, "geometry": { "type": "Point", "coordinates": [ 139.708717900000011, 35.6701845 ] } },
{ "type": "Feature", "properties": { "lat": 35.6484539, "lon": 139.700926, "title": "AISHO（アイショウ）" }, "geometry": { "type": "Point", "coordinates": [ 139.700926, 35.6484539 ] } },
{ "type": "Feature", "properties": { "lat": 35.664204, "lon": 139.7070432, "title": "B1_Storage" }, "geometry": { "type": "Point", "coordinates": [ 139.707043199999987, 35.664204 ] } },
{ "type": "Feature", "properties": { "lat": 35.6647332, "lon": 139.7023107, "title": "Galerie GEEK/ART" }, "geometry": { "type": "Point", "coordinates": [ 139.7023107, 35.6647332 ] } },
{ "type": "Feature", "properties": { "lat": 35.666248, "lon": 139.706507, "title": "ライカギャラリー表参道" }, "geometry": { "type": "Point", "coordinates": [ 139.706507, 35.666248 ] } },
{ "type": "Feature", "properties": { "lat": 35.6686017, "lon": 139.7062752, "title": "LOVUS gallery" }, "geometry": { "type": "Point", "coordinates": [ 139.7062752, 35.6686017 ] } },
{ "type": "Feature", "properties": { "lat": 35.6618624, "lon": 139.6970405, "title": "Bankrobber LABO（バンクロバーラボ）" }, "geometry": { "type": "Point", "coordinates": [ 139.697040500000014, 35.6618624 ] } },
{ "type": "Feature", "properties": { "lat": 35.6704198, "lon": 139.7078112, "title": "Empathy Gallery（エンパシーギャラリー）" }, "geometry": { "type": "Point", "coordinates": [ 139.7078112, 35.6704198 ] } },
{ "type": "Feature", "properties": { "lat": 35.6647954, "lon": 139.7023558, "title": "COMMON BASE GALLERY" }, "geometry": { "type": "Point", "coordinates": [ 139.7023558, 35.6647954 ] } },
{ "type": "Feature", "properties": { "lat": 35.6576469, "lon": 139.7051582, "title": "Art space FLAG" }, "geometry": { "type": "Point", "coordinates": [ 139.7051582, 35.6576469 ] } },
{ "type": "Feature", "properties": { "lat": 35.6735385, "lon": 139.7038217, "title": "TDA'S GALLERY AMI" }, "geometry": { "type": "Point", "coordinates": [ 139.7038217, 35.6735385 ] } },
{ "type": "Feature", "properties": { "lat": 35.6553206, "lon": 139.7016876, "title": "zakura（ザクラ）" }, "geometry": { "type": "Point", "coordinates": [ 139.701687600000014, 35.6553206 ] } },
{ "type": "Feature", "properties": { "lat": 35.6620236, "lon": 139.7058592, "title": "プレコグ・ギャラリー" }, "geometry": { "type": "Point", "coordinates": [ 139.7058592, 35.6620236 ] } },
{ "type": "Feature", "properties": { "lat": 35.6728216, "lon": 139.7130776, "title": "LAG（LIVE ART GALLERY）" }, "geometry": { "type": "Point", "coordinates": [ 139.7130776, 35.6728216 ] } },
{ "type": "Feature", "properties": { "lat": 35.6686382, "lon": 139.7078236, "title": "AURORA GRAN GALLERY" }, "geometry": { "type": "Point", "coordinates": [ 139.707823600000012, 35.6686382 ] } },
{ "type": "Feature", "properties": { "lat": 35.6670729, "lon": 139.7104357, "title": "ミモザ・ギャラリー" }, "geometry": { "type": "Point", "coordinates": [ 139.7104357, 35.6670729 ] } },
{ "type": "Feature", "properties": { "lat": 35.6679908, "lon": 139.7085127, "title": "BLANKgallery Tokyo" }, "geometry": { "type": "Point", "coordinates": [ 139.7085127, 35.6679908 ] } },
{ "type": "Feature", "properties": { "lat": 35.6494705, "lon": 139.7051582, "title": "UPSTAIRS GALLERY" }, "geometry": { "type": "Point", "coordinates": [ 139.7051582, 35.6494705 ] } },
{ "type": "Feature", "properties": { "lat": 35.6660549, "lon": 139.7050971, "title": "mysha Gallery" }, "geometry": { "type": "Point", "coordinates": [ 139.705097099999989, 35.6660549 ] } },
{ "type": "Feature", "properties": { "lat": 35.6505632, "lon": 139.7038256, "title": "Another Project Tokyo" }, "geometry": { "type": "Point", "coordinates": [ 139.703825599999988, 35.6505632 ] } },
{ "type": "Feature", "properties": { "lat": 35.6738239, "lon": 139.7061062, "title": "デザイン＆ギャラリー装丁夜話" }, "geometry": { "type": "Point", "coordinates": [ 139.7061062, 35.6738239 ] } },
{ "type": "Feature", "properties": { "lat": 35.6802774, "lon": 139.707514, "title": "Gallery BOBBIN" }, "geometry": { "type": "Point", "coordinates": [ 139.707514, 35.6802774 ] } },
{ "type": "Feature", "properties": { "lat": 35.6526554, "lon": 139.7056768, "title": "Rodin" }, "geometry": { "type": "Point", "coordinates": [ 139.7056768, 35.6526554 ] } },
{ "type": "Feature", "properties": { "lat": 35.6688298, "lon": 139.706754, "title": "アニコリミックスギャラリー" }, "geometry": { "type": "Point", "coordinates": [ 139.706754, 35.6688298 ] } },
{ "type": "Feature", "properties": { "lat": 35.6676045, "lon": 139.6808036, "title": "April Shop" }, "geometry": { "type": "Point", "coordinates": [ 139.6808036, 35.6676045 ] } },
{ "type": "Feature", "properties": { "lat": 35.6524332, "lon": 139.7049041, "title": "ART Is. TOKYO GALLERY" }, "geometry": { "type": "Point", "coordinates": [ 139.7049041, 35.6524332 ] } },
{ "type": "Feature", "properties": { "lat": 35.6540497, "lon": 139.7104443, "title": "hide gallery" }, "geometry": { "type": "Point", "coordinates": [ 139.7104443, 35.6540497 ] } },
{ "type": "Feature", "properties": { "lat": 35.6793548, "lon": 139.7084387, "title": "TERRITORY GALLERY（テリトリー・ギャラリー）" }, "geometry": { "type": "Point", "coordinates": [ 139.708438699999988, 35.6793548 ] } },
{ "type": "Feature", "properties": { "lat": 35.6649778, "lon": 139.7093178, "title": "ギャラリー エスケーパーズ" }, "geometry": { "type": "Point", "coordinates": [ 139.7093178, 35.6649778 ] } },
{ "type": "Feature", "properties": { "lat": 35.6591239, "lon": 139.7037298, "title": "Bunkamura Gallery 8/" }, "geometry": { "type": "Point", "coordinates": [ 139.7037298, 35.6591239 ] } },
{ "type": "Feature", "properties": { "lat": 35.6647772, "lon": 139.7000308, "title": "澁谷藝術" }, "geometry": { "type": "Point", "coordinates": [ 139.7000308, 35.6647772 ] } },
{ "type": "Feature", "properties": { "lat": 35.6651275, "lon": 139.6926806, "title": "HECTARE" }, "geometry": { "type": "Point", "coordinates": [ 139.692680599999989, 35.6651275 ] } },
{ "type": "Feature", "properties": { "lat": 35.6672869, "lon": 139.7086162, "title": "Galerie412" }, "geometry": { "type": "Point", "coordinates": [ 139.7086162, 35.6672869 ] } },
{ "type": "Feature", "properties": { "lat": 35.6688298, "lon": 139.706754, "title": "MEDEL GALLERY SHU OMOTESANDO" }, "geometry": { "type": "Point", "coordinates": [ 139.706754, 35.6688298 ] } },
{ "type": "Feature", "properties": { "lat": 35.6693971, "lon": 139.7068353, "title": "PROJECT LAB." }, "geometry": { "type": "Point", "coordinates": [ 139.7068353, 35.6693971 ] } },
{ "type": "Feature", "properties": { "lat": 35.6694796, "lon": 139.7080323, "title": "studio CIEN" }, "geometry": { "type": "Point", "coordinates": [ 139.708032300000013, 35.6694796 ] } },
{ "type": "Feature", "properties": { "lat": 35.6499912, "lon": 139.7044352, "title": "EDGEoff代官山" }, "geometry": { "type": "Point", "coordinates": [ 139.7044352, 35.6499912 ] } },
{ "type": "Feature", "properties": { "lat": 35.6703996, "lon": 139.7082108, "title": "SPACE BANKSIA（スペース バンクシア）" }, "geometry": { "type": "Point", "coordinates": [ 139.708210799999989, 35.6703996 ] } },
{ "type": "Feature", "properties": { "lat": 35.6579553, "lon": 139.6930718, "title": "リアムギャラリー" }, "geometry": { "type": "Point", "coordinates": [ 139.693071800000013, 35.6579553 ] } },
{ "type": "Feature", "properties": { "lat": 35.6727073, "lon": 139.7121274, "title": "Gallery 85.4" }, "geometry": { "type": "Point", "coordinates": [ 139.712127400000014, 35.6727073 ] } },
{ "type": "Feature", "properties": { "lat": 35.664204, "lon": 139.7070432, "title": "HENKYO" }, "geometry": { "type": "Point", "coordinates": [ 139.707043199999987, 35.664204 ] } },
{ "type": "Feature", "properties": { "lat": 35.6733513, "lon": 139.7092311, "title": "kit gallery" }, "geometry": { "type": "Point", "coordinates": [ 139.709231100000011, 35.6733513 ] } },
{ "type": "Feature", "properties": { "lat": 35.6743437, "lon": 139.7116716, "title": "SORTone" }, "geometry": { "type": "Point", "coordinates": [ 139.711671599999988, 35.6743437 ] } },
{ "type": "Feature", "properties": { "lat": 35.6643547, "lon": 139.7081104, "title": "Space Jing" }, "geometry": { "type": "Point", "coordinates": [ 139.70811040000001, 35.6643547 ] } },
{ "type": "Feature", "properties": { "lat": 35.6528906, "lon": 139.6972001, "title": "CONTAINER GRAPHIC GALLERY" }, "geometry": { "type": "Point", "coordinates": [ 139.6972001, 35.6528906 ] } },
{ "type": "Feature", "properties": { "lat": 35.6712466, "lon": 139.7138491, "title": "Night Out Gallery" }, "geometry": { "type": "Point", "coordinates": [ 139.7138491, 35.6712466 ] } },
{ "type": "Feature", "properties": { "lat": 35.6690501, "lon": 139.6906588, "title": "WONDER Yoyogi Park" }, "geometry": { "type": "Point", "coordinates": [ 139.6906588, 35.6690501 ] } },
{ "type": "Feature", "properties": { "lat": 35.6694796, "lon": 139.7080323, "title": "Gallery W" }, "geometry": { "type": "Point", "coordinates": [ 139.708032300000013, 35.6694796 ] } },
{ "type": "Feature", "properties": { "lat": 35.6715761, "lon": 139.7110177, "title": "HIRO OKAMOTO" }, "geometry": { "type": "Point", "coordinates": [ 139.711017700000014, 35.6715761 ] } },
{ "type": "Feature", "properties": { "lat": 35.6695656, "lon": 139.7080627, "title": "YOD TOKYO" }, "geometry": { "type": "Point", "coordinates": [ 139.7080627, 35.6695656 ] } },
{ "type": "Feature", "properties": { "lat": 35.6702906, "lon": 139.7072804, "title": "SOMSOC GALLERY" }, "geometry": { "type": "Point", "coordinates": [ 139.7072804, 35.6702906 ] } },
{ "type": "Feature", "properties": { "lat": 35.6584638, "lon": 139.7022621, "title": "SKY GALLERY" }, "geometry": { "type": "Point", "coordinates": [ 139.702262100000013, 35.6584638 ] } },
{ "type": "Feature", "properties": { "lat": 35.6528497, "lon": 139.703772, "title": "のこぎり" }, "geometry": { "type": "Point", "coordinates": [ 139.703772, 35.6528497 ] } },
{ "type": "Feature", "properties": { "lat": 35.6733542, "lon": 139.7104789, "title": "SCOOTERS FOR PEACE" }, "geometry": { "type": "Point", "coordinates": [ 139.7104789, 35.6733542 ] } },
{ "type": "Feature", "properties": { "lat": 35.6761023, "lon": 139.6904993, "title": "エステルオカダ" }, "geometry": { "type": "Point", "coordinates": [ 139.6904993, 35.6761023 ] } },
{ "type": "Feature", "properties": { "lat": 35.6667156, "lon": 139.7037405, "title": "JPS Gallery（Tokyo）" }, "geometry": { "type": "Point", "coordinates": [ 139.7037405, 35.6667156 ] } },
{ "type": "Feature", "properties": { "lat": 35.6800706, "lon": 139.6860697, "title": "PAGIC Gallery" }, "geometry": { "type": "Point", "coordinates": [ 139.6860697, 35.6800706 ] } },
{ "type": "Feature", "properties": { "lat": 35.6642496, "lon": 139.7060011, "title": "白紙" }, "geometry": { "type": "Point", "coordinates": [ 139.7060011, 35.6642496 ] } },
{ "type": "Feature", "properties": { "lat": 35.6648231, "lon": 139.706375, "title": "Gallery Common" }, "geometry": { "type": "Point", "coordinates": [ 139.706375, 35.6648231 ] } },
{ "type": "Feature", "properties": { "lat": 35.6747127, "lon": 139.6787286, "title": "パールブックショップ&ギャラリー" }, "geometry": { "type": "Point", "coordinates": [ 139.6787286, 35.6747127 ] } },
{ "type": "Feature", "properties": { "lat": 35.6721305, "lon": 139.7093381, "title": "+81 Gallery – Tokyo" }, "geometry": { "type": "Point", "coordinates": [ 139.7093381, 35.6721305 ] } },
{ "type": "Feature", "properties": { "lat": 35.6515412, "lon": 139.7012688, "title": "LOKO GALLERY" }, "geometry": { "type": "Point", "coordinates": [ 139.7012688, 35.6515412 ] } },
{ "type": "Feature", "properties": { "lat": 35.6491181, "lon": 139.7001437, "title": "DAIKANYAMA T-SITE GARDEN GALLERY" }, "geometry": { "type": "Point", "coordinates": [ 139.700143700000012, 35.6491181 ] } },
{ "type": "Feature", "properties": { "lat": 35.6754303, "lon": 139.6783959, "title": "gallery commune" }, "geometry": { "type": "Point", "coordinates": [ 139.6783959, 35.6754303 ] } },
{ "type": "Feature", "properties": { "lat": 35.6478816, "lon": 139.7195876, "title": "工房親" }, "geometry": { "type": "Point", "coordinates": [ 139.719587600000011, 35.6478816 ] } },
{ "type": "Feature", "properties": { "lat": 35.6672705, "lon": 139.7069335, "title": "GYRE GALLERY" }, "geometry": { "type": "Point", "coordinates": [ 139.7069335, 35.6672705 ] } },
{ "type": "Feature", "properties": { "lat": 35.6728216, "lon": 139.7130776, "title": "MAHO KUBOTA GALLERY" }, "geometry": { "type": "Point", "coordinates": [ 139.7130776, 35.6728216 ] } },
{ "type": "Feature", "properties": { "lat": 35.6485903, "lon": 139.7005109, "title": "gallery ON THE HILL" }, "geometry": { "type": "Point", "coordinates": [ 139.700510900000012, 35.6485903 ] } },
{ "type": "Feature", "properties": { "lat": 35.6504243, "lon": 139.7048989, "title": "Gallery 子の星" }, "geometry": { "type": "Point", "coordinates": [ 139.704898899999989, 35.6504243 ] } },
{ "type": "Feature", "properties": { "lat": 35.6678058, "lon": 139.704049, "title": "アートスペースAM" }, "geometry": { "type": "Point", "coordinates": [ 139.704049, 35.6678058 ] } },
{ "type": "Feature", "properties": { "lat": 35.6694796, "lon": 139.7080323, "title": "WAG Gallery" }, "geometry": { "type": "Point", "coordinates": [ 139.708032300000013, 35.6694796 ] } },
{ "type": "Feature", "properties": { "lat": 35.6711093, "lon": 139.7032441, "title": "BLUM" }, "geometry": { "type": "Point", "coordinates": [ 139.7032441, 35.6711093 ] } },
{ "type": "Feature", "properties": { "lat": 35.6725405, "lon": 139.7085092, "title": "ペーターズ・ショップ・アンド・ギャラリー" }, "geometry": { "type": "Point", "coordinates": [ 139.7085092, 35.6725405 ] } },
{ "type": "Feature", "properties": { "lat": 35.6676344, "lon": 139.7041399, "title": "Printed Union" }, "geometry": { "type": "Point", "coordinates": [ 139.7041399, 35.6676344 ] } },
{ "type": "Feature", "properties": { "lat": 35.6663102, "lon": 139.708876, "title": "TIERS GALLERY" }, "geometry": { "type": "Point", "coordinates": [ 139.708876, 35.6663102 ] } },
{ "type": "Feature", "properties": { "lat": 35.646828, "lon": 139.7190166, "title": "CAGE GALLERY" }, "geometry": { "type": "Point", "coordinates": [ 139.7190166, 35.646828 ] } },
{ "type": "Feature", "properties": { "lat": 35.6653471, "lon": 139.7053926, "title": "THE SECRET MUSEUM" }, "geometry": { "type": "Point", "coordinates": [ 139.70539260000001, 35.6653471 ] } },
{ "type": "Feature", "properties": { "lat": 35.6530469, "lon": 139.7085521, "title": "東京アーツギャラリー" }, "geometry": { "type": "Point", "coordinates": [ 139.7085521, 35.6530469 ] } },
{ "type": "Feature", "properties": { "lat": 35.6475941, "lon": 139.7149845, "title": "スクールデレック芸術社会学研究所" }, "geometry": { "type": "Point", "coordinates": [ 139.714984500000014, 35.6475941 ] } },
{ "type": "Feature", "properties": { "lat": 35.6496452, "lon": 139.7012165, "title": "JINKINOKO GALLERY" }, "geometry": { "type": "Point", "coordinates": [ 139.701216499999987, 35.6496452 ] } },
{ "type": "Feature", "properties": { "lat": 35.6707391, "lon": 139.7133625, "title": "ライトシード・ギャラリー" }, "geometry": { "type": "Point", "coordinates": [ 139.713362499999988, 35.6707391 ] } },
{ "type": "Feature", "properties": { "lat": 35.668309, "lon": 139.7127783, "title": "OPA gallery･shop" }, "geometry": { "type": "Point", "coordinates": [ 139.7127783, 35.668309 ] } },
{ "type": "Feature", "properties": { "lat": 35.6708872, "lon": 139.7136374, "title": "EUKARYOTE（ユーカリオ）" }, "geometry": { "type": "Point", "coordinates": [ 139.71363740000001, 35.6708872 ] } },
{ "type": "Feature", "properties": { "lat": 35.6591239, "lon": 139.7037298, "title": "渋谷ヒカリエ 8/ d47 MUSEUM" }, "geometry": { "type": "Point", "coordinates": [ 139.7037298, 35.6591239 ] } },
{ "type": "Feature", "properties": { "lat": 35.6720779, "lon": 139.710044, "title": "NANZUKA UNDERGROUND" }, "geometry": { "type": "Point", "coordinates": [ 139.710044, 35.6720779 ] } },
{ "type": "Feature", "properties": { "lat": 35.6642496, "lon": 139.7060011, "title": "UTRECHT / NOW IDeA" }, "geometry": { "type": "Point", "coordinates": [ 139.7060011, 35.6642496 ] } },
{ "type": "Feature", "properties": { "lat": 35.6741578, "lon": 139.7071736, "title": "UltraSuperNew Gallery" }, "geometry": { "type": "Point", "coordinates": [ 139.7071736, 35.6741578 ] } },
{ "type": "Feature", "properties": { "lat": 35.6703511, "lon": 139.7079085, "title": "THE blank GALLERY" }, "geometry": { "type": "Point", "coordinates": [ 139.7079085, 35.6703511 ] } },
{ "type": "Feature", "properties": { "lat": 35.6707375, "lon": 139.6907864, "title": "51% Tokyo" }, "geometry": { "type": "Point", "coordinates": [ 139.6907864, 35.6707375 ] } },
{ "type": "Feature", "properties": { "lat": 35.6657852, "lon": 139.7084704, "title": "gallery de kasuga" }, "geometry": { "type": "Point", "coordinates": [ 139.70847040000001, 35.665785199999902 ] } },
{ "type": "Feature", "properties": { "lat": 35.6676662, "lon": 139.7119412, "title": "HBギャラリー" }, "geometry": { "type": "Point", "coordinates": [ 139.711941200000012, 35.6676662 ] } },
{ "type": "Feature", "properties": { "lat": 35.6623945, "lon": 139.7024561, "title": "DIESEL ART GALLERY" }, "geometry": { "type": "Point", "coordinates": [ 139.7024561, 35.6623945 ] } },
{ "type": "Feature", "properties": { "lat": 35.6664245, "lon": 139.7071928, "title": "アルスギャラリー" }, "geometry": { "type": "Point", "coordinates": [ 139.7071928, 35.6664245 ] } },
{ "type": "Feature", "properties": { "lat": 35.6690664, "lon": 139.7120197, "title": "ア・ライトハウス・カナタ" }, "geometry": { "type": "Point", "coordinates": [ 139.712019700000013, 35.6690664 ] } },
{ "type": "Feature", "properties": { "lat": 35.6669657, "lon": 139.7115736, "title": "ギャラリーニイク" }, "geometry": { "type": "Point", "coordinates": [ 139.7115736, 35.6669657 ] } },
{ "type": "Feature", "properties": { "lat": 35.6704104, "lon": 139.7083477, "title": "SH GALLERY" }, "geometry": { "type": "Point", "coordinates": [ 139.7083477, 35.6704104 ] } },
{ "type": "Feature", "properties": { "lat": 35.6626379, "lon": 139.7018272, "title": "SAI" }, "geometry": { "type": "Point", "coordinates": [ 139.7018272, 35.6626379 ] } },
{ "type": "Feature", "properties": { "lat": 35.6740109, "lon": 139.7127624, "title": "Popularity GALLERY & STUDIO" }, "geometry": { "type": "Point", "coordinates": [ 139.7127624, 35.6740109 ] } },
{ "type": "Feature", "properties": { "lat": 35.6715381, "lon": 139.7142139, "title": "Up & Coming" }, "geometry": { "type": "Point", "coordinates": [ 139.7142139, 35.6715381 ] } },
{ "type": "Feature", "properties": { "lat": 35.6693958, "lon": 139.7116537, "title": "ギャラリー砂翁 & トモス" }, "geometry": { "type": "Point", "coordinates": [ 139.7116537, 35.6693958 ] } },
{ "type": "Feature", "properties": { "lat": 35.6478252, "lon": 139.6999859, "title": "アートフロントギャラリー" }, "geometry": { "type": "Point", "coordinates": [ 139.6999859, 35.6478252 ] } },
{ "type": "Feature", "properties": { "lat": 35.6690192, "lon": 139.7081028, "title": "GALLERY KTO 原宿" }, "geometry": { "type": "Point", "coordinates": [ 139.7081028, 35.6690192 ] } },
{ "type": "Feature", "properties": { "lat": 35.6560928, "lon": 139.7019817, "title": "Room_412" }, "geometry": { "type": "Point", "coordinates": [ 139.7019817, 35.6560928 ] } },
{ "type": "Feature", "properties": { "lat": 35.6475941, "lon": 139.7149845, "title": "MEM" }, "geometry": { "type": "Point", "coordinates": [ 139.714984500000014, 35.6475941 ] } },
{ "type": "Feature", "properties": { "lat": 35.6796319, "lon": 139.6914467, "title": "Shop and Gallery Tray" }, "geometry": { "type": "Point", "coordinates": [ 139.6914467, 35.6796319 ] } },
{ "type": "Feature", "properties": { "lat": 35.6479428, "lon": 139.7182147, "title": "ギャラリードゥポワソン" }, "geometry": { "type": "Point", "coordinates": [ 139.7182147, 35.6479428 ] } },
{ "type": "Feature", "properties": { "lat": 35.6437576, "lon": 139.7089283, "title": "弘重ギャラリー" }, "geometry": { "type": "Point", "coordinates": [ 139.7089283, 35.6437576 ] } },
{ "type": "Feature", "properties": { "lat": 35.6705737, "lon": 139.7081632, "title": "デザインフェスタギャラリー原宿" }, "geometry": { "type": "Point", "coordinates": [ 139.7081632, 35.6705737 ] } },
{ "type": "Feature", "properties": { "lat": 35.6688741, "lon": 139.7069535, "title": "LOV-LAB（LOVELIES LABORATORY）" }, "geometry": { "type": "Point", "coordinates": [ 139.7069535, 35.6688741 ] } },
{ "type": "Feature", "properties": { "lat": 35.6627296, "lon": 139.7074122, "title": "UNギャラリー" }, "geometry": { "type": "Point", "coordinates": [ 139.7074122, 35.6627296 ] } },
{ "type": "Feature", "properties": { "lat": 35.6665659, "lon": 139.7091025, "title": "エスパス ルイ・ヴィトン東京" }, "geometry": { "type": "Point", "coordinates": [ 139.7091025, 35.6665659 ] } },
{ "type": "Feature", "properties": { "lat": 35.6672869, "lon": 139.7086162, "title": "ギャラリー同潤会" }, "geometry": { "type": "Point", "coordinates": [ 139.7086162, 35.6672869 ] } },
{ "type": "Feature", "properties": { "lat": 35.6627019, "lon": 139.6993173, "title": "東京都渋谷公園通りギャラリー" }, "geometry": { "type": "Point", "coordinates": [ 139.6993173, 35.6627019 ] } },
{ "type": "Feature", "properties": { "lat": 35.6459177, "lon": 139.7100653, "title": "LIBRAIRIE6 / シス書店" }, "geometry": { "type": "Point", "coordinates": [ 139.7100653, 35.6459177 ] } },
{ "type": "Feature", "properties": { "lat": 35.6632955, "lon": 139.7094928, "title": "ピンポイントギャラリー" }, "geometry": { "type": "Point", "coordinates": [ 139.7094928, 35.6632955 ] } },
{ "type": "Feature", "properties": { "lat": 35.6661752, "lon": 139.704407, "title": "BLOCK HOUSE" }, "geometry": { "type": "Point", "coordinates": [ 139.704407, 35.6661752 ] } },
{ "type": "Feature", "properties": { "lat": 35.6433277, "lon": 139.7114873, "title": "America-Bashi Gallery（アメリカ橋ギャラリー）" }, "geometry": { "type": "Point", "coordinates": [ 139.711487299999987, 35.6433277 ] } },
{ "type": "Feature", "properties": { "lat": 35.6620484, "lon": 139.6987767, "title": "GALLERY X" }, "geometry": { "type": "Point", "coordinates": [ 139.6987767, 35.6620484 ] } },
{ "type": "Feature", "properties": { "lat": 35.6745219, "lon": 139.7119762, "title": "VIGLOWA" }, "geometry": { "type": "Point", "coordinates": [ 139.7119762, 35.674521899999903 ] } },
{ "type": "Feature", "properties": { "lat": 35.6564093, "lon": 139.6993541, "title": "GMO Gallery" }, "geometry": { "type": "Point", "coordinates": [ 139.6993541, 35.6564093 ] } },
{ "type": "Feature", "properties": { "lat": 35.6734917, "lon": 139.7080585, "title": "PROJECT 501" }, "geometry": { "type": "Point", "coordinates": [ 139.7080585, 35.6734917 ] } },
{ "type": "Feature", "properties": { "lat": 35.6693523, "lon": 139.7046374, "title": "SORAMA GALLERY" }, "geometry": { "type": "Point", "coordinates": [ 139.7046374, 35.6693523 ] } },
{ "type": "Feature", "properties": { "lat": 35.6526554, "lon": 139.7056768, "title": "LAID BUG" }, "geometry": { "type": "Point", "coordinates": [ 139.7056768, 35.6526554 ] } },
{ "type": "Feature", "properties": { "lat": 35.6534732, "lon": 139.707133, "title": "CONNECT" }, "geometry": { "type": "Point", "coordinates": [ 139.707133, 35.6534732 ] } },
{ "type": "Feature", "properties": { "lat": 35.65108, "lon": 139.7011292, "title": "MONKEY GALLERY" }, "geometry": { "type": "Point", "coordinates": [ 139.7011292, 35.65108 ] } },
{ "type": "Feature", "properties": { "lat": 35.6482176, "lon": 139.7052979, "title": "(g) Good Design Company" }, "geometry": { "type": "Point", "coordinates": [ 139.7052979, 35.6482176 ] } },
{ "type": "Feature", "properties": { "lat": 35.6662645, "lon": 139.7077392, "title": "Gallery Target" }, "geometry": { "type": "Point", "coordinates": [ 139.7077392, 35.6662645 ] } },
{ "type": "Feature", "properties": { "lat": 35.6678128, "lon": 139.7044003, "title": "L'illustre Galerie LE MONDE（ル・モンド）" }, "geometry": { "type": "Point", "coordinates": [ 139.7044003, 35.6678128 ] } },
{ "type": "Feature", "properties": { "lat": 35.6747151, "lon": 139.7086578, "title": "Gallery 38" }, "geometry": { "type": "Point", "coordinates": [ 139.7086578, 35.6747151 ] } },
{ "type": "Feature", "properties": { "lat": 35.6785834, "lon": 139.6911473, "title": "Picaresque（ピカレスク）" }, "geometry": { "type": "Point", "coordinates": [ 139.691147300000011, 35.6785834 ] } },
{ "type": "Feature", "properties": { "lat": 35.6609108, "lon": 139.6996611, "title": "西武百貨店 渋谷店 美術画廊" }, "geometry": { "type": "Point", "coordinates": [ 139.699661099999986, 35.6609108 ] } },
{ "type": "Feature", "properties": { "lat": 35.6692417, "lon": 139.7095508, "title": "表参道 Overland Gallery" }, "geometry": { "type": "Point", "coordinates": [ 139.709550799999988, 35.6692417 ] } },
{ "type": "Feature", "properties": { "lat": 35.6614878, "lon": 139.7026195, "title": "しぶや黒田陶苑" }, "geometry": { "type": "Point", "coordinates": [ 139.7026195, 35.6614878 ] } },
{ "type": "Feature", "properties": { "lat": 35.6455628, "lon": 139.714095, "title": "Galerie Malle（ギャラリーまぁる）" }, "geometry": { "type": "Point", "coordinates": [ 139.714095, 35.6455628 ] } },
{ "type": "Feature", "properties": { "lat": 35.667117, "lon": 139.7096477, "title": "MAKI" }, "geometry": { "type": "Point", "coordinates": [ 139.7096477, 35.667117 ] } },
{ "type": "Feature", "properties": { "lat": 35.646118, "lon": 139.7034254, "title": "AL" }, "geometry": { "type": "Point", "coordinates": [ 139.703425399999986, 35.646118 ] } },
{ "type": "Feature", "properties": { "lat": 35.6663762, "lon": 139.7042606, "title": "HARUKAITO by island" }, "geometry": { "type": "Point", "coordinates": [ 139.7042606, 35.666376199999902 ] } },
{ "type": "Feature", "properties": { "lat": 35.6446459, "lon": 139.7087288, "title": "ギャラリー ここ" }, "geometry": { "type": "Point", "coordinates": [ 139.708728799999989, 35.6446459 ] } },
{ "type": "Feature", "properties": { "lat": 35.6561665, "lon": 139.7051737, "title": "ギャラリー・ルデコ" }, "geometry": { "type": "Point", "coordinates": [ 139.705173699999989, 35.6561665 ] } },
{ "type": "Feature", "properties": { "lat": 35.6621425, "lon": 139.6984964, "title": "OIL by 美術手帖ギャラリー" }, "geometry": { "type": "Point", "coordinates": [ 139.69849640000001, 35.6621425 ] } },
{ "type": "Feature", "properties": { "lat": 35.662702, "lon": 139.7090957, "title": "GoFa" }, "geometry": { "type": "Point", "coordinates": [ 139.7090957, 35.662702 ] } },
{ "type": "Feature", "properties": { "lat": 35.6709977, "lon": 139.7138362, "title": "トキ・アートスペース" }, "geometry": { "type": "Point", "coordinates": [ 139.7138362, 35.6709977 ] } },
{ "type": "Feature", "properties": { "lat": 35.6780318, "lon": 139.7048604, "title": "GA gallery" }, "geometry": { "type": "Point", "coordinates": [ 139.7048604, 35.6780318 ] } },
{ "type": "Feature", "properties": { "lat": 35.6596182, "lon": 139.6904344, "title": "ギャラリー TOM" }, "geometry": { "type": "Point", "coordinates": [ 139.690434399999987, 35.6596182 ] } },
{ "type": "Feature", "properties": { "lat": 35.6591239, "lon": 139.7037298, "title": "渋谷ヒカリエ 8/ CUBE 1, 2, 3" }, "geometry": { "type": "Point", "coordinates": [ 139.7037298, 35.6591239 ] } },
{ "type": "Feature", "properties": { "lat": 35.6904344, "lon": 139.6955248, "title": "OM SYSTEM PLAZA Creative Wall" }, "geometry": { "type": "Point", "coordinates": [ 139.695524799999987, 35.6904344 ] } },
{ "type": "Feature", "properties": { "lat": 35.6900711, "lon": 139.7218599, "title": "Gallery 463" }, "geometry": { "type": "Point", "coordinates": [ 139.7218599, 35.6900711 ] } },
{ "type": "Feature", "properties": { "lat": 35.706572, "lon": 139.7412275, "title": "HAKKOギャラリー/工房" }, "geometry": { "type": "Point", "coordinates": [ 139.7412275, 35.706572 ] } },
{ "type": "Feature", "properties": { "lat": 35.7033358, "lon": 139.733104, "title": "坂田室" }, "geometry": { "type": "Point", "coordinates": [ 139.733104, 35.7033358 ] } },
{ "type": "Feature", "properties": { "lat": 35.6903344, "lon": 139.7042407, "title": "AWASE gallery" }, "geometry": { "type": "Point", "coordinates": [ 139.704240700000014, 35.6903344 ] } },
{ "type": "Feature", "properties": { "lat": 35.6904016, "lon": 139.7037786, "title": "ギャラリー絵夢" }, "geometry": { "type": "Point", "coordinates": [ 139.7037786, 35.6904016 ] } },
{ "type": "Feature", "properties": { "lat": 35.6843583, "lon": 139.7169686, "title": "一番星画廊" }, "geometry": { "type": "Point", "coordinates": [ 139.7169686, 35.6843583 ] } },
{ "type": "Feature", "properties": { "lat": 35.7033358, "lon": 139.733104, "title": "青花室" }, "geometry": { "type": "Point", "coordinates": [ 139.733104, 35.7033358 ] } },
{ "type": "Feature", "properties": { "lat": 35.6887676, "lon": 139.7080833, "title": "小灯" }, "geometry": { "type": "Point", "coordinates": [ 139.7080833, 35.6887676 ] } },
{ "type": "Feature", "properties": { "lat": 35.7044407, "lon": 139.7353052, "title": "PAAMA（パーマ）" }, "geometry": { "type": "Point", "coordinates": [ 139.7353052, 35.7044407 ] } },
{ "type": "Feature", "properties": { "lat": 35.7080991, "lon": 139.7245234, "title": "IRIS GALLERY（イリスギャラリー）" }, "geometry": { "type": "Point", "coordinates": [ 139.72452340000001, 35.7080991 ] } },
{ "type": "Feature", "properties": { "lat": 35.7060547, "lon": 139.7356644, "title": "gallery 坂" }, "geometry": { "type": "Point", "coordinates": [ 139.7356644, 35.7060547 ] } },
{ "type": "Feature", "properties": { "lat": 35.688296, "lon": 139.7111228, "title": "アイデムフォトギャラリー「シリウス」" }, "geometry": { "type": "Point", "coordinates": [ 139.7111228, 35.688296 ] } },
{ "type": "Feature", "properties": { "lat": 35.704556, "lon": 139.7323934, "title": "Gallery W @神楽坂WM" }, "geometry": { "type": "Point", "coordinates": [ 139.7323934, 35.704556 ] } },
{ "type": "Feature", "properties": { "lat": 35.706031, "lon": 139.7358319, "title": "写場 / SHABA KAGURAZAKA" }, "geometry": { "type": "Point", "coordinates": [ 139.7358319, 35.706031 ] } },
{ "type": "Feature", "properties": { "lat": 35.6894787, "lon": 139.7010276, "title": "WALL_shinjuku" }, "geometry": { "type": "Point", "coordinates": [ 139.7010276, 35.6894787 ] } },
{ "type": "Feature", "properties": { "lat": 35.6947955, "lon": 139.7037644, "title": "ギャラリー砂時計" }, "geometry": { "type": "Point", "coordinates": [ 139.703764400000011, 35.6947955 ] } },
{ "type": "Feature", "properties": { "lat": 35.6911219, "lon": 139.7090556, "title": "GALLERY素描" }, "geometry": { "type": "Point", "coordinates": [ 139.7090556, 35.6911219 ] } },
{ "type": "Feature", "properties": { "lat": 35.6915136, "lon": 139.7135563, "title": "ギャラリーからーず。" }, "geometry": { "type": "Point", "coordinates": [ 139.7135563, 35.6915136 ] } },
{ "type": "Feature", "properties": { "lat": 35.6850502, "lon": 139.6877474, "title": "GALLERY KTO 新宿" }, "geometry": { "type": "Point", "coordinates": [ 139.6877474, 35.6850502 ] } },
{ "type": "Feature", "properties": { "lat": 35.7087925, "lon": 139.7115697, "title": "THE MIRROR" }, "geometry": { "type": "Point", "coordinates": [ 139.711569700000013, 35.7087925 ] } },
{ "type": "Feature", "properties": { "lat": 35.7021216, "lon": 139.7354205, "title": "工芸青花" }, "geometry": { "type": "Point", "coordinates": [ 139.7354205, 35.7021216 ] } },
{ "type": "Feature", "properties": { "lat": 35.6987404, "lon": 139.6976158, "title": "callbox" }, "geometry": { "type": "Point", "coordinates": [ 139.6976158, 35.6987404 ] } },
{ "type": "Feature", "properties": { "lat": 35.6904344, "lon": 139.6955248, "title": "OM SYSTEM GALLERY" }, "geometry": { "type": "Point", "coordinates": [ 139.695524799999987, 35.6904344 ] } },
{ "type": "Feature", "properties": { "lat": 35.6869321, "lon": 139.7286201, "title": "ポートレートギャラリー" }, "geometry": { "type": "Point", "coordinates": [ 139.7286201, 35.6869321 ] } },
{ "type": "Feature", "properties": { "lat": 35.6838084, "lon": 139.6895175, "title": "SHINBI GALLERY（新宿美術学院）" }, "geometry": { "type": "Point", "coordinates": [ 139.6895175, 35.6838084 ] } },
{ "type": "Feature", "properties": { "lat": 35.7069342, "lon": 139.7345596, "title": "BOOTLEG Gallery" }, "geometry": { "type": "Point", "coordinates": [ 139.734559600000011, 35.7069342 ] } },
{ "type": "Feature", "properties": { "lat": 35.7023027, "lon": 139.742444, "title": "Roll" }, "geometry": { "type": "Point", "coordinates": [ 139.742444, 35.7023027 ] } },
{ "type": "Feature", "properties": { "lat": 35.7039491, "lon": 139.7343195, "title": "CAVE-AYUMIGALLERY" }, "geometry": { "type": "Point", "coordinates": [ 139.7343195, 35.7039491 ] } },
{ "type": "Feature", "properties": { "lat": 35.6950882, "lon": 139.6970128, "title": "河合塾美術研究所 Gallery Kart" }, "geometry": { "type": "Point", "coordinates": [ 139.69701280000001, 35.6950882 ] } },
{ "type": "Feature", "properties": { "lat": 35.6938639, "lon": 139.7199594, "title": "Yu Harada" }, "geometry": { "type": "Point", "coordinates": [ 139.7199594, 35.6938639 ] } },
{ "type": "Feature", "properties": { "lat": 35.7207566, "lon": 139.7004828, "title": "アダチ版画研究所" }, "geometry": { "type": "Point", "coordinates": [ 139.7004828, 35.7207566 ] } },
{ "type": "Feature", "properties": { "lat": 35.6841817, "lon": 139.7186706, "title": "アートコンプレックスセンター" }, "geometry": { "type": "Point", "coordinates": [ 139.7186706, 35.6841817 ] } },
{ "type": "Feature", "properties": { "lat": 35.6976875, "lon": 139.7017568, "title": "ギャルリー トラン・デュ・モンド" }, "geometry": { "type": "Point", "coordinates": [ 139.7017568, 35.6976875 ] } },
{ "type": "Feature", "properties": { "lat": 35.6902387, "lon": 139.7160501, "title": "Totem Pole Photo Gallery" }, "geometry": { "type": "Point", "coordinates": [ 139.7160501, 35.6902387 ] } },
{ "type": "Feature", "properties": { "lat": 35.6875501, "lon": 139.7196213, "title": "TS4312" }, "geometry": { "type": "Point", "coordinates": [ 139.7196213, 35.6875501 ] } },
{ "type": "Feature", "properties": { "lat": 35.7039491, "lon": 139.7343195, "title": "アユミギャラリー" }, "geometry": { "type": "Point", "coordinates": [ 139.7343195, 35.7039491 ] } },
{ "type": "Feature", "properties": { "lat": 35.6905716, "lon": 139.7013109, "title": "柿傳ギャラリー" }, "geometry": { "type": "Point", "coordinates": [ 139.70131090000001, 35.6905716 ] } },
{ "type": "Feature", "properties": { "lat": 35.6951195, "lon": 139.7025453, "title": "デカメロン" }, "geometry": { "type": "Point", "coordinates": [ 139.7025453, 35.6951195 ] } },
{ "type": "Feature", "properties": { "lat": 35.6901169, "lon": 139.7206591, "title": "プリントギャラリー" }, "geometry": { "type": "Point", "coordinates": [ 139.7206591, 35.6901169 ] } },
{ "type": "Feature", "properties": { "lat": 35.6914484, "lon": 139.7087088, "title": "KULA PHOTO GALLERY" }, "geometry": { "type": "Point", "coordinates": [ 139.708708800000011, 35.6914484 ] } },
{ "type": "Feature", "properties": { "lat": 35.69288, "lon": 139.7356306, "title": "gallery αM" }, "geometry": { "type": "Point", "coordinates": [ 139.7356306, 35.69288 ] } },
{ "type": "Feature", "properties": { "lat": 35.7169574, "lon": 139.7011491, "title": "BaBaBa" }, "geometry": { "type": "Point", "coordinates": [ 139.7011491, 35.7169574 ] } },
{ "type": "Feature", "properties": { "lat": 35.7169718, "lon": 139.7006101, "title": "Alt_Medium" }, "geometry": { "type": "Point", "coordinates": [ 139.7006101, 35.7169718 ] } },
{ "type": "Feature", "properties": { "lat": 35.6903344, "lon": 139.7042407, "title": "biscuit gallery" }, "geometry": { "type": "Point", "coordinates": [ 139.704240700000014, 35.6903344 ] } },
{ "type": "Feature", "properties": { "lat": 35.6877688, "lon": 139.7125787, "title": "Place M" }, "geometry": { "type": "Point", "coordinates": [ 139.7125787, 35.6877688 ] } },
{ "type": "Feature", "properties": { "lat": 35.6907077, "lon": 139.7066642, "title": "サードディストリクトギャラリー" }, "geometry": { "type": "Point", "coordinates": [ 139.7066642, 35.6907077 ] } },
{ "type": "Feature", "properties": { "lat": 35.7077413, "lon": 139.7162335, "title": "早稲田スコットホールギャラリー" }, "geometry": { "type": "Point", "coordinates": [ 139.716233499999987, 35.7077413 ] } },
{ "type": "Feature", "properties": { "lat": 35.6925835, "lon": 139.6911889, "title": "フジギャラリー新宿" }, "geometry": { "type": "Point", "coordinates": [ 139.691188899999986, 35.6925835 ] } },
{ "type": "Feature", "properties": { "lat": 35.7041051, "lon": 139.7334764, "title": "ondo kagurazaka, tokyo" }, "geometry": { "type": "Point", "coordinates": [ 139.7334764, 35.7041051 ] } },
{ "type": "Feature", "properties": { "lat": 35.7059209, "lon": 139.7308059, "title": "Maki Fine Arts" }, "geometry": { "type": "Point", "coordinates": [ 139.7308059, 35.7059209 ] } },
{ "type": "Feature", "properties": { "lat": 35.685109, "lon": 139.6877324, "title": "ケンジタキギャラリー" }, "geometry": { "type": "Point", "coordinates": [ 139.687732399999987, 35.685109 ] } },
{ "type": "Feature", "properties": { "lat": 35.6967078, "lon": 139.7392474, "title": "ミヅマアートギャラリー（市ヶ谷）" }, "geometry": { "type": "Point", "coordinates": [ 139.739247400000011, 35.6967078 ] } },
{ "type": "Feature", "properties": { "lat": 35.7079263, "lon": 139.7249685, "title": "Gallery A" }, "geometry": { "type": "Point", "coordinates": [ 139.724968499999989, 35.7079263 ] } },
{ "type": "Feature", "properties": { "lat": 35.6903344, "lon": 139.7042407, "title": "Bギャラリー" }, "geometry": { "type": "Point", "coordinates": [ 139.704240700000014, 35.6903344 ] } },
{ "type": "Feature", "properties": { "lat": 35.6897668, "lon": 139.7063988, "title": "KEN NAKAHASHI" }, "geometry": { "type": "Point", "coordinates": [ 139.706398799999988, 35.6897668 ] } },
{ "type": "Feature", "properties": { "lat": 35.6985552, "lon": 139.7369154, "title": "√K Contemporary" }, "geometry": { "type": "Point", "coordinates": [ 139.736915399999987, 35.6985552 ] } },
{ "type": "Feature", "properties": { "lat": 35.7029806, "lon": 139.730583, "title": "eitoeiko" }, "geometry": { "type": "Point", "coordinates": [ 139.730583, 35.7029806 ] } },
{ "type": "Feature", "properties": { "lat": 35.6946144, "lon": 139.706262, "title": "新宿眼科画廊" }, "geometry": { "type": "Point", "coordinates": [ 139.706262, 35.6946144 ] } },
{ "type": "Feature", "properties": { "lat": 35.6914484, "lon": 139.7087088, "title": "photographers’ gallery" }, "geometry": { "type": "Point", "coordinates": [ 139.708708800000011, 35.6914484 ] } },
{ "type": "Feature", "properties": { "lat": 35.6922806, "lon": 139.6974213, "title": "ニコンプラザ東京" }, "geometry": { "type": "Point", "coordinates": [ 139.6974213, 35.6922806 ] } },
{ "type": "Feature", "properties": { "lat": 35.6882428, "lon": 139.717686, "title": "ギャラリーニエプス" }, "geometry": { "type": "Point", "coordinates": [ 139.717686, 35.6882428 ] } },
{ "type": "Feature", "properties": { "lat": 35.6855906, "lon": 139.7693599, "title": "CADAN大手町" }, "geometry": { "type": "Point", "coordinates": [ 139.769359900000012, 35.6855906 ] } },
{ "type": "Feature", "properties": { "lat": 35.672205, "lon": 139.7594446, "title": "MEDEL GALLERY SHU HIBIYA" }, "geometry": { "type": "Point", "coordinates": [ 139.7594446, 35.672205 ] } },
{ "type": "Feature", "properties": { "lat": 35.6973031, "lon": 139.7806249, "title": "KOSHA KOSHA AKIHABARA" }, "geometry": { "type": "Point", "coordinates": [ 139.7806249, 35.6973031 ] } },
{ "type": "Feature", "properties": { "lat": 35.6965444, "lon": 139.7571645, "title": "ギャラリーかわまつ" }, "geometry": { "type": "Point", "coordinates": [ 139.757164499999988, 35.6965444 ] } },
{ "type": "Feature", "properties": { "lat": 35.6974685, "lon": 139.7547339, "title": "H-art Beat Gallery" }, "geometry": { "type": "Point", "coordinates": [ 139.7547339, 35.6974685 ] } },
{ "type": "Feature", "properties": { "lat": 35.6948039, "lon": 139.7608145, "title": "神保町画廊" }, "geometry": { "type": "Point", "coordinates": [ 139.7608145, 35.6948039 ] } },
{ "type": "Feature", "properties": { "lat": 35.686919, "lon": 139.765403, "title": "よみうりギャラリー" }, "geometry": { "type": "Point", "coordinates": [ 139.765403, 35.686919 ] } },
{ "type": "Feature", "properties": { "lat": 35.6914761, "lon": 139.7744833, "title": "光灯" }, "geometry": { "type": "Point", "coordinates": [ 139.774483300000014, 35.6914761 ] } },
{ "type": "Feature", "properties": { "lat": 35.6982859, "lon": 139.7578766, "title": "QUIET GALLERY（クワイエットギャラリー）" }, "geometry": { "type": "Point", "coordinates": [ 139.7578766, 35.6982859 ] } },
{ "type": "Feature", "properties": { "lat": 35.6984924, "lon": 139.7668622, "title": "Gallery 蔵" }, "geometry": { "type": "Point", "coordinates": [ 139.7668622, 35.6984924 ] } },
{ "type": "Feature", "properties": { "lat": 35.6944882, "lon": 139.7742746, "title": "ギャラリー・アートグラフ" }, "geometry": { "type": "Point", "coordinates": [ 139.774274600000012, 35.6944882 ] } },
{ "type": "Feature", "properties": { "lat": 35.697138, "lon": 139.7589582, "title": "New Gallery" }, "geometry": { "type": "Point", "coordinates": [ 139.7589582, 35.697138 ] } },
{ "type": "Feature", "properties": { "lat": 35.6913856, "lon": 139.7686424, "title": "TOKYO BRIGHT GALLERY" }, "geometry": { "type": "Point", "coordinates": [ 139.7686424, 35.6913856 ] } },
{ "type": "Feature", "properties": { "lat": 35.6956362, "lon": 139.755049, "title": "Gallery CORSO（ギャラリーコルソ）" }, "geometry": { "type": "Point", "coordinates": [ 139.755049, 35.6956362 ] } },
{ "type": "Feature", "properties": { "lat": 35.697777, "lon": 139.7595377, "title": "STUDIO 伽藍裡 garali" }, "geometry": { "type": "Point", "coordinates": [ 139.75953770000001, 35.697777 ] } },
{ "type": "Feature", "properties": { "lat": 35.6917978, "lon": 139.764364, "title": "天理ギャラリー" }, "geometry": { "type": "Point", "coordinates": [ 139.764364, 35.6917978 ] } },
{ "type": "Feature", "properties": { "lat": 35.691244, "lon": 139.7654568, "title": "トーキョーディアスポラ　コンテンポラリーアートギャラリー" }, "geometry": { "type": "Point", "coordinates": [ 139.76545680000001, 35.691244 ] } },
{ "type": "Feature", "properties": { "lat": 35.6735354, "lon": 139.7630054, "title": null }, "geometry": { "type": "Point", "coordinates": [ 139.7630054, 35.6735354 ] } },
{ "type": "Feature", "properties": { "lat": 35.6786778, "lon": 139.7673644, "title": "BUG" }, "geometry": { "type": "Point", "coordinates": [ 139.7673644, 35.6786778 ] } },
{ "type": "Feature", "properties": { "lat": 35.6845959, "lon": 139.742695, "title": "東條會舘写真研究所" }, "geometry": { "type": "Point", "coordinates": [ 139.742695, 35.6845959 ] } },
{ "type": "Feature", "properties": { "lat": 35.6724056, "lon": 139.7583398, "title": "KAIGADO Gallery" }, "geometry": { "type": "Point", "coordinates": [ 139.758339799999987, 35.6724056 ] } },
{ "type": "Feature", "properties": { "lat": 35.6972397, "lon": 139.7700187, "title": "JAPAN ART BRIDGE" }, "geometry": { "type": "Point", "coordinates": [ 139.7700187, 35.6972397 ] } },
{ "type": "Feature", "properties": { "lat": 35.6870561, "lon": 139.741572, "title": "JCIIフォトサロン" }, "geometry": { "type": "Point", "coordinates": [ 139.741572, 35.6870561 ] } },
{ "type": "Feature", "properties": { "lat": 35.6991508, "lon": 139.7538879, "title": "GALLERY 2511" }, "geometry": { "type": "Point", "coordinates": [ 139.7538879, 35.6991508 ] } },
{ "type": "Feature", "properties": { "lat": 35.6950176, "lon": 139.7606158, "title": "Bohemian’s Guild CAGE（ボヘミアンズ・ギルド・ケージ）" }, "geometry": { "type": "Point", "coordinates": [ 139.760615800000011, 35.6950176 ] } },
{ "type": "Feature", "properties": { "lat": 35.6742094, "lon": 139.7613105, "title": "M5 Gallery" }, "geometry": { "type": "Point", "coordinates": [ 139.7613105, 35.6742094 ] } },
{ "type": "Feature", "properties": { "lat": 35.6967717, "lon": 139.7614254, "title": "KOMIYAMA TOKYO G" }, "geometry": { "type": "Point", "coordinates": [ 139.7614254, 35.6967717 ] } },
{ "type": "Feature", "properties": { "lat": 35.6968112, "lon": 139.7571839, "title": "GALLERY KOGURE" }, "geometry": { "type": "Point", "coordinates": [ 139.7571839, 35.6968112 ] } },
{ "type": "Feature", "properties": { "lat": 35.6953507, "lon": 139.7564831, "title": "art gallery & Legion" }, "geometry": { "type": "Point", "coordinates": [ 139.7564831, 35.6953507 ] } },
{ "type": "Feature", "properties": { "lat": 35.6978414, "lon": 139.7744134, "title": "DUB GALLERY AKIHABARA" }, "geometry": { "type": "Point", "coordinates": [ 139.774413399999986, 35.6978414 ] } },
{ "type": "Feature", "properties": { "lat": 35.6820598, "lon": 139.7386726, "title": "フラットリバーギャラリー" }, "geometry": { "type": "Point", "coordinates": [ 139.7386726, 35.6820598 ] } },
{ "type": "Feature", "properties": { "lat": 35.6906243, "lon": 139.7597102, "title": "丸紅ギャラリー" }, "geometry": { "type": "Point", "coordinates": [ 139.7597102, 35.6906243 ] } },
{ "type": "Feature", "properties": { "lat": 35.677514, "lon": 139.7624926, "title": "and wander OUTDOOR GALLERY" }, "geometry": { "type": "Point", "coordinates": [ 139.7624926, 35.677514 ] } },
{ "type": "Feature", "properties": { "lat": 35.6970251, "lon": 139.7568058, "title": "TANA Gallery Bookshelf" }, "geometry": { "type": "Point", "coordinates": [ 139.7568058, 35.6970251 ] } },
{ "type": "Feature", "properties": { "lat": 35.6758533, "lon": 139.7608123, "title": "第一生命ギャラリー" }, "geometry": { "type": "Point", "coordinates": [ 139.7608123, 35.6758533 ] } },
{ "type": "Feature", "properties": { "lat": 35.6953584, "lon": 139.760914, "title": "文房堂ギャラリー" }, "geometry": { "type": "Point", "coordinates": [ 139.760914, 35.6953584 ] } },
{ "type": "Feature", "properties": { "lat": 35.6937984, "lon": 139.7806334, "title": "Kanzan Gallery" }, "geometry": { "type": "Point", "coordinates": [ 139.7806334, 35.6937984 ] } },
{ "type": "Feature", "properties": { "lat": 35.6934282, "lon": 139.7807642, "title": "Kiyoyuki Kuwabara Accounting Gallery" }, "geometry": { "type": "Point", "coordinates": [ 139.7807642, 35.6934282 ] } },
{ "type": "Feature", "properties": { "lat": 35.6940231, "lon": 139.7811257, "title": "SAN-AI GALLERY + contemporary art" }, "geometry": { "type": "Point", "coordinates": [ 139.7811257, 35.6940231 ] } },
{ "type": "Feature", "properties": { "lat": 35.6962077, "lon": 139.758799, "title": "ギャラリーそうめい堂" }, "geometry": { "type": "Point", "coordinates": [ 139.758799, 35.6962077 ] } },
{ "type": "Feature", "properties": { "lat": 35.6796995, "lon": 139.7632912, "title": "行幸地下ギャラリー" }, "geometry": { "type": "Point", "coordinates": [ 139.7632912, 35.6796995 ] } },
{ "type": "Feature", "properties": { "lat": 35.6751076, "lon": 139.7648446, "title": "ギャラリー玻瑠" }, "geometry": { "type": "Point", "coordinates": [ 139.7648446, 35.6751076 ] } },
{ "type": "Feature", "properties": { "lat": 35.693169, "lon": 139.7682744, "title": "TETOKA（手と花）" }, "geometry": { "type": "Point", "coordinates": [ 139.7682744, 35.693169 ] } },
{ "type": "Feature", "properties": { "lat": 35.6811829, "lon": 139.7637704, "title": "H.P.FRANCE WINDOW GALLERY" }, "geometry": { "type": "Point", "coordinates": [ 139.7637704, 35.6811829 ] } },
{ "type": "Feature", "properties": { "lat": 35.672205, "lon": 139.7594446, "title": "TAKU SOMETANI GALLERY" }, "geometry": { "type": "Point", "coordinates": [ 139.7594446, 35.672205 ] } },
{ "type": "Feature", "properties": { "lat": 35.6945026, "lon": 139.7739767, "title": "ファーブル8710" }, "geometry": { "type": "Point", "coordinates": [ 139.7739767, 35.6945026 ] } },
{ "type": "Feature", "properties": { "lat": 35.6953807, "lon": 139.7563213, "title": "AMMON TOKYO" }, "geometry": { "type": "Point", "coordinates": [ 139.7563213, 35.6953807 ] } },
{ "type": "Feature", "properties": { "lat": 35.6771604, "lon": 139.762252, "title": "白 marunouchi" }, "geometry": { "type": "Point", "coordinates": [ 139.762252, 35.6771604 ] } },
{ "type": "Feature", "properties": { "lat": 35.6980366, "lon": 139.7550692, "title": "Gallery mestalla（ギャラリーメスタージャ）" }, "geometry": { "type": "Point", "coordinates": [ 139.7550692, 35.6980366 ] } },
{ "type": "Feature", "properties": { "lat": 35.6797293, "lon": 139.7387309, "title": "丸の内ギャラリー" }, "geometry": { "type": "Point", "coordinates": [ 139.7387309, 35.6797293 ] } },
{ "type": "Feature", "properties": { "lat": 35.6916484, "lon": 139.7467615, "title": "ギャラリー册" }, "geometry": { "type": "Point", "coordinates": [ 139.7467615, 35.6916484 ] } },
{ "type": "Feature", "properties": { "lat": 35.6951172, "lon": 139.7790266, "title": "バンビナート・ギャラリー" }, "geometry": { "type": "Point", "coordinates": [ 139.7790266, 35.6951172 ] } },
{ "type": "Feature", "properties": { "lat": 35.6959916, "lon": 139.7639941, "title": "TRINE GALLERY" }, "geometry": { "type": "Point", "coordinates": [ 139.7639941, 35.6959916 ] } },
{ "type": "Feature", "properties": { "lat": 35.6937984, "lon": 139.7806334, "title": "Motus Fort" }, "geometry": { "type": "Point", "coordinates": [ 139.7806334, 35.6937984 ] } },
{ "type": "Feature", "properties": { "lat": 35.6917322, "lon": 139.7420027, "title": "ギャラリー キドプレス" }, "geometry": { "type": "Point", "coordinates": [ 139.7420027, 35.6917322 ] } },
{ "type": "Feature", "properties": { "lat": 35.6945026, "lon": 139.7739767, "title": "Right, there is nothing." }, "geometry": { "type": "Point", "coordinates": [ 139.7739767, 35.6945026 ] } },
{ "type": "Feature", "properties": { "lat": 35.7016894, "lon": 139.7695441, "title": "PARK GALLERY" }, "geometry": { "type": "Point", "coordinates": [ 139.7695441, 35.7016894 ] } },
{ "type": "Feature", "properties": { "lat": 35.7020868, "lon": 139.7667754, "title": "Gallery Bauhaus" }, "geometry": { "type": "Point", "coordinates": [ 139.7667754, 35.7020868 ] } },
{ "type": "Feature", "properties": { "lat": 35.6944614, "lon": 139.7820922, "title": "KOKI ARTS" }, "geometry": { "type": "Point", "coordinates": [ 139.7820922, 35.6944614 ] } },
{ "type": "Feature", "properties": { "lat": 35.6986901, "lon": 139.7590431, "title": "The White" }, "geometry": { "type": "Point", "coordinates": [ 139.759043100000014, 35.6986901 ] } },
{ "type": "Feature", "properties": { "lat": 35.6989502, "lon": 139.7532512, "title": "nuisance galerie" }, "geometry": { "type": "Point", "coordinates": [ 139.7532512, 35.6989502 ] } },
{ "type": "Feature", "properties": { "lat": 35.6943275, "lon": 139.7472289, "title": "成山画廊" }, "geometry": { "type": "Point", "coordinates": [ 139.74722890000001, 35.6943275 ] } },
{ "type": "Feature", "properties": { "lat": 35.6930287, "lon": 139.7732658, "title": "gallery N 神田社宅" }, "geometry": { "type": "Point", "coordinates": [ 139.7732658, 35.6930287 ] } },
{ "type": "Feature", "properties": { "lat": 35.6932578, "lon": 139.7614144, "title": "見本帖本店" }, "geometry": { "type": "Point", "coordinates": [ 139.7614144, 35.6932578 ] } },
{ "type": "Feature", "properties": { "lat": 35.6942478, "lon": 139.782052, "title": "gallery UG Bakurocho" }, "geometry": { "type": "Point", "coordinates": [ 139.782052, 35.6942478 ] } },
{ "type": "Feature", "properties": { "lat": 35.6934566, "lon": 139.7612867, "title": "TOBICHI東京" }, "geometry": { "type": "Point", "coordinates": [ 139.7612867, 35.6934566 ] } },
{ "type": "Feature", "properties": { "lat": 35.6710711, "lon": 139.7634226, "title": "Ginza CAT Gallery（ギンザ キャット ギャラリー）" }, "geometry": { "type": "Point", "coordinates": [ 139.763422600000013, 35.6710711 ] } },
{ "type": "Feature", "properties": { "lat": 35.6775226, "lon": 139.7710837, "title": "Seibundo Gallery（セイブンドウギャラリー）" }, "geometry": { "type": "Point", "coordinates": [ 139.7710837, 35.6775226 ] } },
{ "type": "Feature", "properties": { "lat": 35.6737395, "lon": 139.7687821, "title": "銀座中央ギャラリー" }, "geometry": { "type": "Point", "coordinates": [ 139.76878210000001, 35.6737395 ] } },
{ "type": "Feature", "properties": { "lat": 35.6905623, "lon": 139.7834575, "title": "CALOTYPE PHOTO GALLERY" }, "geometry": { "type": "Point", "coordinates": [ 139.7834575, 35.6905623 ] } },
{ "type": "Feature", "properties": { "lat": 35.6802616, "lon": 139.7733772, "title": "壺中居" }, "geometry": { "type": "Point", "coordinates": [ 139.7733772, 35.6802616 ] } },
{ "type": "Feature", "properties": { "lat": 35.6710769, "lon": 139.7611549, "title": "MHギャラリー" }, "geometry": { "type": "Point", "coordinates": [ 139.7611549, 35.6710769 ] } },
{ "type": "Feature", "properties": { "lat": 35.6760575, "lon": 139.768882, "title": "東京スクエアガーデン アートギャラリー" }, "geometry": { "type": "Point", "coordinates": [ 139.768882, 35.6760575 ] } },
{ "type": "Feature", "properties": { "lat": 35.6675771, "lon": 139.7619171, "title": "ギャラリーせいほう" }, "geometry": { "type": "Point", "coordinates": [ 139.7619171, 35.6675771 ] } },
{ "type": "Feature", "properties": { "lat": 35.6753285, "lon": 139.7664319, "title": "Galleryうぇすと" }, "geometry": { "type": "Point", "coordinates": [ 139.766431899999986, 35.6753285 ] } },
{ "type": "Feature", "properties": { "lat": 35.6869732, "lon": 139.7810236, "title": "アート解放区 人形町" }, "geometry": { "type": "Point", "coordinates": [ 139.7810236, 35.6869732 ] } },
{ "type": "Feature", "properties": { "lat": 35.6860508, "lon": 139.7782877, "title": "美術實驗室 夜" }, "geometry": { "type": "Point", "coordinates": [ 139.7782877, 35.6860508 ] } },
{ "type": "Feature", "properties": { "lat": 35.6923609, "lon": 139.7792366, "title": "iia gallery（アイアイエーギャラリー）" }, "geometry": { "type": "Point", "coordinates": [ 139.7792366, 35.6923609 ] } },
{ "type": "Feature", "properties": { "lat": 35.6692933, "lon": 139.7663261, "title": "セイソン＆ベネティエール" }, "geometry": { "type": "Point", "coordinates": [ 139.766326099999986, 35.6692933 ] } },
{ "type": "Feature", "properties": { "lat": 35.6737787, "lon": 139.7665604, "title": "HERALBONY LABORATORY GINZA" }, "geometry": { "type": "Point", "coordinates": [ 139.7665604, 35.6737787 ] } },
{ "type": "Feature", "properties": { "lat": 35.6738865, "lon": 139.7688781, "title": "宮本商行ギャラリー" }, "geometry": { "type": "Point", "coordinates": [ 139.7688781, 35.6738865 ] } },
{ "type": "Feature", "properties": { "lat": 35.6923609, "lon": 139.7792366, "title": "MONO GRAPHY Camera ＆ Art" }, "geometry": { "type": "Point", "coordinates": [ 139.7792366, 35.6923609 ] } },
{ "type": "Feature", "properties": { "lat": 35.6751175, "lon": 139.7668915, "title": "厨子屋 銀座本店 B1ギャラリー" }, "geometry": { "type": "Point", "coordinates": [ 139.766891500000014, 35.6751175 ] } },
{ "type": "Feature", "properties": { "lat": 35.6790555, "lon": 139.7711484, "title": "千疋屋ギャラリー" }, "geometry": { "type": "Point", "coordinates": [ 139.771148399999987, 35.6790555 ] } },
{ "type": "Feature", "properties": { "lat": 35.6893222, "lon": 139.7777684, "title": "みうらじろうギャラリー@5" }, "geometry": { "type": "Point", "coordinates": [ 139.777768400000014, 35.6893222 ] } },
{ "type": "Feature", "properties": { "lat": 35.6855634, "lon": 139.7763106, "title": "日本橋N11ギャラリー" }, "geometry": { "type": "Point", "coordinates": [ 139.776310599999988, 35.6855634 ] } },
{ "type": "Feature", "properties": { "lat": 35.6673552, "lon": 139.762897, "title": "トーキョーアートプレースGINZA" }, "geometry": { "type": "Point", "coordinates": [ 139.762897, 35.6673552 ] } },
{ "type": "Feature", "properties": { "lat": 35.6876937, "lon": 139.7808478, "title": "JINEN GALLERY" }, "geometry": { "type": "Point", "coordinates": [ 139.7808478, 35.6876937 ] } },
{ "type": "Feature", "properties": { "lat": 35.679434, "lon": 139.7733381, "title": "ギャラリー空の間" }, "geometry": { "type": "Point", "coordinates": [ 139.773338099999989, 35.679434 ] } },
{ "type": "Feature", "properties": { "lat": 35.6737703, "lon": 139.7688513, "title": "銀座Gallery G2" }, "geometry": { "type": "Point", "coordinates": [ 139.7688513, 35.6737703 ] } },
{ "type": "Feature", "properties": { "lat": 35.6784131, "lon": 139.7713581, "title": "タカ・イシイギャラリー京橋" }, "geometry": { "type": "Point", "coordinates": [ 139.771358099999986, 35.6784131 ] } },
{ "type": "Feature", "properties": { "lat": 35.6784131, "lon": 139.7713581, "title": "Gallery & Bakery Tokyo 8分" }, "geometry": { "type": "Point", "coordinates": [ 139.771358099999986, 35.6784131 ] } },
{ "type": "Feature", "properties": { "lat": 35.6784131, "lon": 139.7713581, "title": "KOSAKU KANECHIKA（京橋）" }, "geometry": { "type": "Point", "coordinates": [ 139.771358099999986, 35.6784131 ] } },
{ "type": "Feature", "properties": { "lat": 35.6784131, "lon": 139.7713581, "title": "Yutaka Kikutake Gallery Kyobashi" }, "geometry": { "type": "Point", "coordinates": [ 139.771358099999986, 35.6784131 ] } },
{ "type": "Feature", "properties": { "lat": 35.6784131, "lon": 139.7713581, "title": "小山登美夫ギャラリー京橋" }, "geometry": { "type": "Point", "coordinates": [ 139.771358099999986, 35.6784131 ] } },
{ "type": "Feature", "properties": { "lat": 35.6858953, "lon": 139.787615, "title": "ギャラリーサンカイビ" }, "geometry": { "type": "Point", "coordinates": [ 139.787615, 35.6858953 ] } },
{ "type": "Feature", "properties": { "lat": 35.6724038, "lon": 139.770639, "title": "ナカノギンザギャラリー" }, "geometry": { "type": "Point", "coordinates": [ 139.770639, 35.6724038 ] } },
{ "type": "Feature", "properties": { "lat": 35.6742707, "lon": 139.7673831, "title": "あらかわ画廊" }, "geometry": { "type": "Point", "coordinates": [ 139.767383099999989, 35.6742707 ] } },
{ "type": "Feature", "properties": { "lat": 35.6721178, "lon": 139.7655213, "title": "教文館4F エインカレムギャラリー" }, "geometry": { "type": "Point", "coordinates": [ 139.765521299999989, 35.6721178 ] } },
{ "type": "Feature", "properties": { "lat": 35.671801, "lon": 139.7615741, "title": "emmy art +" }, "geometry": { "type": "Point", "coordinates": [ 139.7615741, 35.671801 ] } },
{ "type": "Feature", "properties": { "lat": 35.6720061, "lon": 139.7676743, "title": "ゆう画廊" }, "geometry": { "type": "Point", "coordinates": [ 139.76767430000001, 35.6720061 ] } },
{ "type": "Feature", "properties": { "lat": 35.673941, "lon": 139.7702093, "title": "美術紫水" }, "geometry": { "type": "Point", "coordinates": [ 139.7702093, 35.673941 ] } },
{ "type": "Feature", "properties": { "lat": 35.6864254, "lon": 139.7757314, "title": "中和ギャラリー" }, "geometry": { "type": "Point", "coordinates": [ 139.775731400000012, 35.6864254 ] } },
{ "type": "Feature", "properties": { "lat": 35.6713716, "lon": 139.7611317, "title": "花田美術" }, "geometry": { "type": "Point", "coordinates": [ 139.7611317, 35.6713716 ] } },
{ "type": "Feature", "properties": { "lat": 35.6653206, "lon": 139.7646556, "title": "銀座 黒田陶苑" }, "geometry": { "type": "Point", "coordinates": [ 139.7646556, 35.6653206 ] } },
{ "type": "Feature", "properties": { "lat": 35.6694655, "lon": 139.7642496, "title": "Artglorieux GALLERY OF TOKYO（アールグロリューギャラリー・オブ・トーキョー）" }, "geometry": { "type": "Point", "coordinates": [ 139.7642496, 35.6694655 ] } },
{ "type": "Feature", "properties": { "lat": 35.6699637, "lon": 139.7686398, "title": "WABI－和・美－（ワビ）" }, "geometry": { "type": "Point", "coordinates": [ 139.768639799999988, 35.6699637 ] } },
{ "type": "Feature", "properties": { "lat": 35.670878, "lon": 139.7605961, "title": "創英ギャラリー" }, "geometry": { "type": "Point", "coordinates": [ 139.760596099999987, 35.670878 ] } },
{ "type": "Feature", "properties": { "lat": 35.6767521, "lon": 139.7714879, "title": "並樹画廊" }, "geometry": { "type": "Point", "coordinates": [ 139.771487900000011, 35.6767521 ] } },
{ "type": "Feature", "properties": { "lat": 35.6696465, "lon": 139.7679235, "title": "銀座アポロ昭和館YOHAKU" }, "geometry": { "type": "Point", "coordinates": [ 139.7679235, 35.6696465 ] } },
{ "type": "Feature", "properties": { "lat": 35.6720022, "lon": 139.76172, "title": "KOGEI Art Gallery 銀座の金沢" }, "geometry": { "type": "Point", "coordinates": [ 139.76172, 35.6720022 ] } },
{ "type": "Feature", "properties": { "lat": 35.6684684, "lon": 139.7630755, "title": "YASAKA" }, "geometry": { "type": "Point", "coordinates": [ 139.763075500000014, 35.6684684 ] } },
{ "type": "Feature", "properties": { "lat": 35.6685818, "lon": 139.7631416, "title": "銀座第7ビルギャラリー" }, "geometry": { "type": "Point", "coordinates": [ 139.763141600000012, 35.6685818 ] } },
{ "type": "Feature", "properties": { "lat": 35.6859152, "lon": 139.7883251, "title": "好文画廊" }, "geometry": { "type": "Point", "coordinates": [ 139.7883251, 35.6859152 ] } },
{ "type": "Feature", "properties": { "lat": 35.6729707, "lon": 139.7684527, "title": "ギャラリー SIACCA" }, "geometry": { "type": "Point", "coordinates": [ 139.768452700000012, 35.6729707 ] } },
{ "type": "Feature", "properties": { "lat": 35.6681065, "lon": 139.7607954, "title": "月光荘画室2" }, "geometry": { "type": "Point", "coordinates": [ 139.7607954, 35.6681065 ] } },
{ "type": "Feature", "properties": { "lat": 35.6693039, "lon": 139.7674383, "title": "ギャラリーボヤージュ" }, "geometry": { "type": "Point", "coordinates": [ 139.7674383, 35.6693039 ] } },
{ "type": "Feature", "properties": { "lat": 35.6959673, "lon": 139.7822221, "title": "Sakuma Art Gallery" }, "geometry": { "type": "Point", "coordinates": [ 139.782222100000013, 35.6959673 ] } },
{ "type": "Feature", "properties": { "lat": 35.6720882, "lon": 139.7650298, "title": "ギャラリーアートハウス" }, "geometry": { "type": "Point", "coordinates": [ 139.7650298, 35.6720882 ] } },
{ "type": "Feature", "properties": { "lat": 35.6749747, "lon": 139.7684627, "title": "富士フォトギャラリー銀座" }, "geometry": { "type": "Point", "coordinates": [ 139.768462699999986, 35.6749747 ] } },
{ "type": "Feature", "properties": { "lat": 35.6723658, "lon": 139.7647762, "title": "ギャラリーおかりや" }, "geometry": { "type": "Point", "coordinates": [ 139.7647762, 35.6723658 ] } },
{ "type": "Feature", "properties": { "lat": 35.6700825, "lon": 139.7629229, "title": "フォルム画廊" }, "geometry": { "type": "Point", "coordinates": [ 139.7629229, 35.6700825 ] } },
{ "type": "Feature", "properties": { "lat": 35.669531, "lon": 139.760409, "title": "美の起原" }, "geometry": { "type": "Point", "coordinates": [ 139.760409, 35.669531 ] } },
{ "type": "Feature", "properties": { "lat": 35.6705324, "lon": 139.7689817, "title": "FEELSEEN gallery（フィールシーン ギャラリー）" }, "geometry": { "type": "Point", "coordinates": [ 139.768981700000012, 35.6705324 ] } },
{ "type": "Feature", "properties": { "lat": 35.6774209, "lon": 139.7851782, "title": "ペーパーボイス東京" }, "geometry": { "type": "Point", "coordinates": [ 139.7851782, 35.6774209 ] } },
{ "type": "Feature", "properties": { "lat": 35.6899392, "lon": 139.7745338, "title": "msb gallery" }, "geometry": { "type": "Point", "coordinates": [ 139.7745338, 35.6899392 ] } },
{ "type": "Feature", "properties": { "lat": 35.6721027, "lon": 139.768658, "title": "パルピトーギャラリー" }, "geometry": { "type": "Point", "coordinates": [ 139.768658, 35.6721027 ] } },
{ "type": "Feature", "properties": { "lat": 35.6718931, "lon": 139.7645922, "title": "グッチ銀座ギャラリー" }, "geometry": { "type": "Point", "coordinates": [ 139.76459220000001, 35.6718931 ] } },
{ "type": "Feature", "properties": { "lat": 35.6768744, "lon": 139.7712782, "title": "ROD GALLERY" }, "geometry": { "type": "Point", "coordinates": [ 139.771278200000012, 35.6768744 ] } },
{ "type": "Feature", "properties": { "lat": 35.6763629, "lon": 139.7714751, "title": "GALLERY RIN 麟" }, "geometry": { "type": "Point", "coordinates": [ 139.7714751, 35.6763629 ] } },
{ "type": "Feature", "properties": { "lat": 35.6884002, "lon": 139.7741717, "title": "27 GALLERY TOKYO" }, "geometry": { "type": "Point", "coordinates": [ 139.774171700000011, 35.6884002 ] } },
{ "type": "Feature", "properties": { "lat": 35.6700221, "lon": 139.7610562, "title": "ヒコヒコギャラリー" },