{
"type": "FeatureCollection",
"name": "hotels2025",
"crs": { "type": "name", "properties": { "name": "urn:ogc:def:crs:OGC:1.3:CRS84" } },
"features": [
{ "type": "Feature", "properties": { "lat": 35.69904161, "lon": 139.822766, "title": "スーパーホテル東京・亀戸" }, "geometry": { "type": "Point", "coordinates": [ 139.822766, 35.69904161 ] } },
{ "type": "Feature", "properties": { "lat": 35.69434784, "lon": 139.828574, "title": "ホテルマイステイズ亀戸" }, "geometry": { "type": "Point", "coordinates": [ 139.828574, 35.69434784 ] } },
{ "type": "Feature", "properties": { "lat": 35.6890649, "lon": 139.8210971, "title": "アパホテル〈東京大島〉（２０２５年８月客室設備リニューアル）" }, "geometry": { "type": "Point", "coordinates": [ 139.8210971, 35.6890649 ] } },
{ "type": "Feature", "properties": { "lat": 35.6992631, "lon": 139.8251763, "title": "ザ・ワンファイブ東京亀戸" }, "geometry": { "type": "Point", "coordinates": [ 139.82517630000001, 35.6992631 ] } },
{ "type": "Feature", "properties": { "lat": 35.68741734, "lon": 139.8014266, "title": "ホテル　エドアイト" }, "geometry": { "type": "Point", "coordinates": [ 139.801426600000013, 35.68741734 ] } },
{ "type": "Feature", "properties": { "lat": 35.6918916, "lon": 139.84205, "title": "リフレフォーラム" }, "geometry": { "type": "Point", "coordinates": [ 139.84205, 35.6918916 ] } },
{ "type": "Feature", "properties": { "lat": 35.68752845, "lon": 139.8020127, "title": "ビジネスホテル矢野" }, "geometry": { "type": "Point", "coordinates": [ 139.8020127, 35.68752845 ] } },
{ "type": "Feature", "properties": { "lat": 35.68777845, "lon": 139.8029015, "title": "アーバンホテル森下" }, "geometry": { "type": "Point", "coordinates": [ 139.8029015, 35.68777845 ] } },
{ "type": "Feature", "properties": { "lat": 35.68670913, "lon": 139.8030626, "title": "ビジネスホテル　レガート" }, "geometry": { "type": "Point", "coordinates": [ 139.8030626, 35.68670913 ] } },
{ "type": "Feature", "properties": { "lat": 35.68788951, "lon": 139.801371, "title": "ホテル　サン・モリシタ" }, "geometry": { "type": "Point", "coordinates": [ 139.801371, 35.68788951 ] } },
{ "type": "Feature", "properties": { "lat": 35.69486244, "lon": 139.8260717, "title": "ＬＡＮＧ　ＨＯＴＥＬ　亀戸　＾" }, "geometry": { "type": "Point", "coordinates": [ 139.8260717, 35.69486244 ] } },
{ "type": "Feature", "properties": { "lat": 35.7013755, "lon": 139.8220907, "title": "ＶＯＥＲＥ　亀戸　＾" }, "geometry": { "type": "Point", "coordinates": [ 139.8220907, 35.7013755 ] } },
{ "type": "Feature", "properties": { "lat": 35.6915433, "lon": 139.8248675, "title": "エーケースターホテル東京" }, "geometry": { "type": "Point", "coordinates": [ 139.824867500000011, 35.6915433 ] } },
{ "type": "Feature", "properties": { "lat": 35.6879156, "lon": 139.798931, "title": "オークホテル江戸" }, "geometry": { "type": "Point", "coordinates": [ 139.798931, 35.6879156 ] } },
{ "type": "Feature", "properties": { "lat": 35.6863237, "lon": 139.7986293, "title": "メトロ森下" }, "geometry": { "type": "Point", "coordinates": [ 139.798629299999988, 35.6863237 ] } },
{ "type": "Feature", "properties": { "lat": 35.688882, "lon": 139.7975131, "title": "小さなホテル木の家" }, "geometry": { "type": "Point", "coordinates": [ 139.7975131, 35.688882 ] } },
{ "type": "Feature", "properties": { "lat": 35.7011397, "lon": 139.8329141, "title": "Ｋａｍｅｉ　Ｈｏｕｓｅ　＾" }, "geometry": { "type": "Point", "coordinates": [ 139.832914100000011, 35.7011397 ] } },
{ "type": "Feature", "properties": { "lat": 35.7008597, "lon": 139.8242092, "title": "Ｊｏｉｎｔ　Ｃｏｕｒｔ　Ｋａｍｅｉｄｏ　亀ちゃん　＾" }, "geometry": { "type": "Point", "coordinates": [ 139.824209200000013, 35.7008597 ] } },
{ "type": "Feature", "properties": { "lat": 35.70165442, "lon": 139.8263559, "title": "Ｈｏｔｅｌ　Ａｌｐｈｉｎａｕｄ　＾" }, "geometry": { "type": "Point", "coordinates": [ 139.82635590000001, 35.70165442 ] } },
{ "type": "Feature", "properties": { "lat": 35.692172, "lon": 139.8400807, "title": "３階戸建、一軒家貸切、９９．４０ｍ２　＾" }, "geometry": { "type": "Point", "coordinates": [ 139.840080699999987, 35.692172 ] } },
{ "type": "Feature", "properties": { "lat": 35.6918299, "lon": 139.8222006, "title": "ＫＯＫＯＲＯ　ＨＯＵＳＥ　＾" }, "geometry": { "type": "Point", "coordinates": [ 139.8222006, 35.6918299 ] } },
{ "type": "Feature", "properties": { "lat": 35.681737, "lon": 139.8186132, "title": "Ｄｅｃｏｂｏｃｏ　ｈａｎａｒｅ／民泊" }, "geometry": { "type": "Point", "coordinates": [ 139.818613199999987, 35.681737 ] } },
{ "type": "Feature", "properties": { "lat": 35.6828773, "lon": 139.8155238, "title": "ＦｒｏｍＳｃｒａｔｃｈ　ＴＯＫＹＯ　Ｈａｎａｒｅ　＾" }, "geometry": { "type": "Point", "coordinates": [ 139.8155238, 35.6828773 ] } },
{ "type": "Feature", "properties": { "lat": 35.68286, "lon": 139.8155958, "title": "Ｆｒｏｍ　ｓｃｒａｔｃｈ　ＴＯＫＹＯ　＾" }, "geometry": { "type": "Point", "coordinates": [ 139.815595800000011, 35.68286 ] } },
{ "type": "Feature", "properties": { "lat": 35.6886813, "lon": 139.8343144, "title": "ＨＯＴＥＬ　ＳＯＬＯＭＯＮ" }, "geometry": { "type": "Point", "coordinates": [ 139.834314400000011, 35.6886813 ] } },
{ "type": "Feature", "properties": { "lat": 35.704654952384608, "lon": 139.82463712903109, "title": "ＳＡＫＵＲＡ" }, "geometry": { "type": "Point", "coordinates": [ 139.824637129031089, 35.704654952384608 ] } },
{ "type": "Feature", "properties": { "lat": 35.697896745588217, "lon": 139.83698555704311, "title": "ＭＡＹ　ＫＡＭＥＩＤＯ" }, "geometry": { "type": "Point", "coordinates": [ 139.836985557043107, 35.697896745588217 ] } },
{ "type": "Feature", "properties": { "lat": 35.6876974, "lon": 139.8038963, "title": "森下旅館" }, "geometry": { "type": "Point", "coordinates": [ 139.8038963, 35.6876974 ] } },
{ "type": "Feature", "properties": { "lat": 35.6965639, "lon": 139.842889, "title": "Ｏｎｅ　Ｇｌｏｂａｌ　Ｆａｍｉｌｙ　Ｇｕｅｓｔ　Ｒｏｏｍ（地球村家族宿）" }, "geometry": { "type": "Point", "coordinates": [ 139.842889, 35.6965639 ] } },
{ "type": "Feature", "properties": { "lat": 35.6887953, "lon": 139.7990214, "title": "イーストスクエア東京" }, "geometry": { "type": "Point", "coordinates": [ 139.799021399999987, 35.6887953 ] } },
{ "type": "Feature", "properties": { "lat": 35.6941996, "lon": 139.8272839, "title": "ｈａｍａｃａ　ｈｏｕｓｅ　Ｋａｍｅｉｄｏ" }, "geometry": { "type": "Point", "coordinates": [ 139.8272839, 35.6941996 ] } },
{ "type": "Feature", "properties": { "lat": 35.6990162, "lon": 139.8271573, "title": "ザ・バレル亀戸ゲストハウス　＾" }, "geometry": { "type": "Point", "coordinates": [ 139.82715730000001, 35.6990162 ] } },
{ "type": "Feature", "properties": { "lat": 35.68212306, "lon": 139.8177174, "title": "【Ｃｒｏｗｎ　海辺】　＾" }, "geometry": { "type": "Point", "coordinates": [ 139.8177174, 35.68212306 ] } },
{ "type": "Feature", "properties": { "lat": 35.69211217, "lon": 139.8416544, "title": "ＣＲＯＷＮ大島　＾" }, "geometry": { "type": "Point", "coordinates": [ 139.84165440000001, 35.69211217 ] } },
{ "type": "Feature", "properties": { "lat": 35.6822405, "lon": 139.8176297, "title": "ＵＭＩＢＥ　ＡＰＡＲＴＭＥＮＴ" }, "geometry": { "type": "Point", "coordinates": [ 139.8176297, 35.6822405 ] } },
{ "type": "Feature", "properties": { "lat": 35.6825125, "lon": 139.8153841, "title": "ＧＯＨＯ　ＳＴＡＹ　ｍｅ　Ｓｕｍｉｙｏｓｈｉ" }, "geometry": { "type": "Point", "coordinates": [ 139.815384099999989, 35.6825125 ] } },
{ "type": "Feature", "properties": { "lat": 35.68740901, "lon": 139.8016322, "title": "ビジネスホテル　トキワ" }, "geometry": { "type": "Point", "coordinates": [ 139.8016322, 35.68740901 ] } },
{ "type": "Feature", "properties": { "lat": 35.65790168, "lon": 139.8188291, "title": "アパホテル＆リゾート〈東京ベイ潮見〉" }, "geometry": { "type": "Point", "coordinates": [ 139.818829099999988, 35.65790168 ] } },
{ "type": "Feature", "properties": { "lat": 35.645090466115583, "lon": 139.82738498127719, "title": "ＪＲ東日本ホテルメッツ　プレミア　東京ベイ新木場" }, "geometry": { "type": "Point", "coordinates": [ 139.827384981277191, 35.645090466115583 ] } },
{ "type": "Feature", "properties": { "lat": 35.658672091491717, "lon": 139.81766591957401, "title": "東京イーストサイド　ホテル櫂会" }, "geometry": { "type": "Point", "coordinates": [ 139.817665919574011, 35.658672091491717 ] } },
{ "type": "Feature", "properties": { "lat": 35.67500241, "lon": 139.8140788, "title": "ホテルイースト２１東京（オークラホテルズ＆リゾーツ）" }, "geometry": { "type": "Point", "coordinates": [ 139.8140788, 35.67500241 ] } },
{ "type": "Feature", "properties": { "lat": 35.6695004, "lon": 139.8198202, "title": "ワシントンＲ＆Ｂホテル東京東陽町" }, "geometry": { "type": "Point", "coordinates": [ 139.8198202, 35.6695004 ] } },
{ "type": "Feature", "properties": { "lat": 35.645903166709083, "lon": 139.7831102518677, "title": "東京豊洲　万葉倶楽部" }, "geometry": { "type": "Point", "coordinates": [ 139.783110251867697, 35.645903166709083 ] } },
{ "type": "Feature", "properties": { "lat": 35.660327402635687, "lon": 139.81734780296421, "title": "東京ベイ潮見プリンスホテル" }, "geometry": { "type": "Point", "coordinates": [ 139.817347802964207, 35.660327402635687 ] } },
{ "type": "Feature", "properties": { "lat": 35.66784218, "lon": 139.8169011, "title": "ホテルルートインＧｒａｎｄ東京東陽町" }, "geometry": { "type": "Point", "coordinates": [ 139.8169011, 35.66784218 ] } },
{ "type": "Feature", "properties": { "lat": 35.668999218397019, "lon": 139.83484817540639, "title": "Ｌ　ｓｔａｙ＆ｇｒｏｗ南砂町" }, "geometry": { "type": "Point", "coordinates": [ 139.834848175406393, 35.668999218397019 ] } },
{ "type": "Feature", "properties": { "lat": 35.66714764, "lon": 139.8106267, "title": "アパホテル〈東京木場〉" }, "geometry": { "type": "Point", "coordinates": [ 139.8106267, 35.66714764 ] } },
{ "type": "Feature", "properties": { "lat": 35.67115798, "lon": 139.7986747, "title": "東急ステイ門前仲町" }, "geometry": { "type": "Point", "coordinates": [ 139.7986747, 35.67115798 ] } },
{ "type": "Feature", "properties": { "lat": 35.66943882, "lon": 139.8019773, "title": "デイナイスホテル東京" }, "geometry": { "type": "Point", "coordinates": [ 139.8019773, 35.66943882 ] } },
{ "type": "Feature", "properties": { "lat": 35.68229009, "lon": 139.7996159, "title": "コンフォートホテル東京清澄白河" }, "geometry": { "type": "Point", "coordinates": [ 139.7996159, 35.68229009 ] } },
{ "type": "Feature", "properties": { "lat": 35.6729202, "lon": 139.796626, "title": "京成リッチモンドホテル東京門前仲町" }, "geometry": { "type": "Point", "coordinates": [ 139.796626, 35.6729202 ] } },
{ "type": "Feature", "properties": { "lat": 35.670017, "lon": 139.81765, "title": "相鉄フレッサイン　東京東陽町駅前" }, "geometry": { "type": "Point", "coordinates": [ 139.81765, 35.670017 ] } },
{ "type": "Feature", "properties": { "lat": 35.6705357, "lon": 139.8062939, "title": "東横ＩＮＮ東西線木場駅" }, "geometry": { "type": "Point", "coordinates": [ 139.806293899999986, 35.670535699999988 ] } },
{ "type": "Feature", "properties": { "lat": 35.6810938, "lon": 139.7919296, "title": "ＬＹＵＲＯ　東京清澄　ｂｙ　ＴＨＥ　ＳＨＡＲＥ　ＨＯＴＥＬＳ" }, "geometry": { "type": "Point", "coordinates": [ 139.7919296, 35.6810938 ] } },
{ "type": "Feature", "properties": { "lat": 35.6584163, "lon": 139.8187016, "title": "ホテルリブマックス東京潮見駅前" }, "geometry": { "type": "Point", "coordinates": [ 139.818701599999912, 35.6584163 ] } },
{ "type": "Feature", "properties": { "lat": 35.68445085, "lon": 139.7957661, "title": "ホテルマイステイズ清澄白河" }, "geometry": { "type": "Point", "coordinates": [ 139.7957661, 35.68445085 ] } },
{ "type": "Feature", "properties": { "lat": 35.67516566, "lon": 139.7911558, "title": "東横ＩＮＮ門前仲町永代橋" }, "geometry": { "type": "Point", "coordinates": [ 139.791155800000013, 35.67516566 ] } },
{ "type": "Feature", "properties": { "lat": 35.64968346, "lon": 139.8301452, "title": "ＢｕｍＢ（ぶんぶ）東京スポーツ文化館" }, "geometry": { "type": "Point", "coordinates": [ 139.8301452, 35.64968346 ] } },
{ "type": "Feature", "properties": { "lat": 35.66833087, "lon": 139.8117821, "title": "ホテルリブマックスＢＵＤＧＥＴ東京木場" }, "geometry": { "type": "Point", "coordinates": [ 139.811782099999988, 35.66833087 ] } },
{ "type": "Feature", "properties": { "lat": 35.64598682, "lon": 139.8364225, "title": "ファミリーロッジ旅籠屋・東京新木場店" }, "geometry": { "type": "Point", "coordinates": [ 139.8364225, 35.64598682 ] } },
{ "type": "Feature", "properties": { "lat": 35.6765398, "lon": 139.7963943, "title": "Ｐｒｉｍｅ　Ｓｕｉｔｅｓ　Ｔｏｋｙｏ" }, "geometry": { "type": "Point", "coordinates": [ 139.7963943, 35.6765398 ] } },
{ "type": "Feature", "properties": { "lat": 35.6816835, "lon": 139.8296478, "title": "ＵＲＮＡ　ＳＡＮＤＳ　ＨＯＴＥＬ" }, "geometry": { "type": "Point", "coordinates": [ 139.8296478, 35.6816835 ] } },
{ "type": "Feature", "properties": { "lat": 35.6858118, "lon": 139.813887, "title": "ＫＬＡＳＳＯ東京住吉" }, "geometry": { "type": "Point", "coordinates": [ 139.813887, 35.6858118 ] } },
{ "type": "Feature", "properties": { "lat": 35.6808233, "lon": 139.8057045, "title": "Ｂｌｉｇｈｔｏｎ三好" }, "geometry": { "type": "Point", "coordinates": [ 139.8057045, 35.6808233 ] } },
{ "type": "Feature", "properties": { "lat": 35.67660371, "lon": 139.8273579, "title": "都バス停徒歩１分以内、１棟４室アパート　Ｄ－ｐｄａｌ　Ｉｎｎ　２Ｆ　＾" }, "geometry": { "type": "Point", "coordinates": [ 139.82735790000001, 35.67660371 ] } },
{ "type": "Feature", "properties": { "lat": 35.6692558, "lon": 139.7414522, "title": "Ｒｉｖｅｒ　Ｒｅｓｉｄｅｎｃｅ　ＢＯＴＡＮ" }, "geometry": { "type": "Point", "coordinates": [ 139.7414522, 35.669255799999988 ] } },
{ "type": "Feature", "properties": { "lat": 35.6843323, "lon": 139.7983188, "title": "Ｓｏｌａｒｉａ常盤" }, "geometry": { "type": "Point", "coordinates": [ 139.7983188, 35.6843323 ] } },
{ "type": "Feature", "properties": { "lat": 35.6861091, "lon": 139.8003435, "title": "清澄ＳＯＨＯ" }, "geometry": { "type": "Point", "coordinates": [ 139.8003435, 35.6861091 ] } },
{ "type": "Feature", "properties": { "lat": 35.67645, "lon": 139.8274672, "title": "都バス停徒歩１分以内、１棟４室アパート　Ｄ－ｐｄａｌ　Ｉｎｎ　１Ｆ／民泊" }, "geometry": { "type": "Point", "coordinates": [ 139.8274672, 35.67645 ] } },
{ "type": "Feature", "properties": { "lat": 35.6927852, "lon": 139.8173242, "title": "錦の館　＾" }, "geometry": { "type": "Point", "coordinates": [ 139.8173242, 35.6927852 ] } },
{ "type": "Feature", "properties": { "lat": 35.669737, "lon": 139.8099476, "title": "木場の鶴ＣｒａｎｅＨｏｔｅｌ　＾" }, "geometry": { "type": "Point", "coordinates": [ 139.809947599999987, 35.669737 ] } },
{ "type": "Feature", "properties": { "lat": 35.67063451, "lon": 139.8295138, "title": "Ｒｅｓｉｄｅｎｃｉａｌ　Ｖｏｙａｎ　南砂町　＾" }, "geometry": { "type": "Point", "coordinates": [ 139.8295138, 35.67063451 ] } },
{ "type": "Feature", "properties": { "lat": 35.6730571, "lon": 139.7918386, "title": "プラスホステル　＾" }, "geometry": { "type": "Point", "coordinates": [ 139.7918386, 35.6730571 ] } },
{ "type": "Feature", "properties": { "lat": 35.6841715, "lon": 139.7981476, "title": "バードプレイスｌｏｇ東京" }, "geometry": { "type": "Point", "coordinates": [ 139.7981476, 35.6841715 ] } },
{ "type": "Feature", "properties": { "lat": 35.677412187739229, "lon": 139.7892855846558, "title": "ウル東京" }, "geometry": { "type": "Point", "coordinates": [ 139.789285584655801, 35.677412187739229 ] } },
{ "type": "Feature", "properties": { "lat": 35.646867741906668, "lon": 139.78364510898439, "title": "ラビスタ東京ベイ（共立リゾート）" }, "geometry": { "type": "Point", "coordinates": [ 139.783645108984388, 35.646867741906668 ] } },
{ "type": "Feature", "properties": { "lat": 35.63222322, "lon": 139.7895493, "title": "相鉄グランドフレッサ東京ベイ有明" }, "geometry": { "type": "Point", "coordinates": [ 139.7895493, 35.63222322 ] } },
{ "type": "Feature", "properties": { "lat": 35.647365241761662, "lon": 139.7866716903402, "title": "ホテルＪＡＬシティ東京　豊洲" }, "geometry": { "type": "Point", "coordinates": [ 139.786671690340199, 35.647365241761662 ] } },
{ "type": "Feature", "properties": { "lat": 35.63263993, "lon": 139.7929879, "title": "東京ベイ有明ワシントンホテル" }, "geometry": { "type": "Point", "coordinates": [ 139.792987900000014, 35.63263993 ] } },
{ "type": "Feature", "properties": { "lat": 35.6483116, "lon": 139.8006429, "title": "ｈｏｔｅｌ　ＭＯＮｄａｙ　Ｐｒｅｍｉｕｍ　豊洲" }, "geometry": { "type": "Point", "coordinates": [ 139.800642900000014, 35.6483116 ] } },
{ "type": "Feature", "properties": { "lat": 35.62861523, "lon": 139.7872635, "title": "ホテルトラスティ東京ベイサイド" }, "geometry": { "type": "Point", "coordinates": [ 139.7872635, 35.62861523 ] } },
{ "type": "Feature", "properties": { "lat": 35.6380185, "lon": 139.7939672, "title": "住友不動産ホテル　ヴィラフォンテーヌグランド東京有明" }, "geometry": { "type": "Point", "coordinates": [ 139.7939672, 35.6380185 ] } },
{ "type": "Feature", "properties": { "lat": 35.640501404538561, "lon": 139.79216620066379, "title": "ファーイーストビレッジホテル東京有明" }, "geometry": { "type": "Point", "coordinates": [ 139.792166200663786, 35.640501404538561 ] } },
{ "type": "Feature", "properties": { "lat": 35.655107365395949, "lon": 139.79450489318469, "title": "三井ガーデンホテル豊洲プレミア" }, "geometry": { "type": "Point", "coordinates": [ 139.794504893184694, 35.655107365395949 ] } },
{ "type": "Feature", "properties": { "lat": 35.6392847, "lon": 139.8051151, "title": "東京有明ＢＡＹ　ＨＯＴＥＬ（東京有明ベイホテル）" }, "geometry": { "type": "Point", "coordinates": [ 139.8051151, 35.6392847 ] } },
{ "type": "Feature", "properties": { "lat": 35.652699355116468, "lon": 139.7967957669342, "title": "ホテルリブマックス豊洲駅前" }, "geometry": { "type": "Point", "coordinates": [ 139.796795766934196, 35.652699355116468 ] } },
{ "type": "Feature", "properties": { "lat": 35.634514747195382, "lon": 139.79253294133741, "title": "ダブルツリーｂｙヒルトン東京有明" }, "geometry": { "type": "Point", "coordinates": [ 139.792532941337413, 35.634514747195382 ] } },
{ "type": "Feature", "properties": { "lat": 35.62517075, "lon": 139.7714622, "title": "グランドニッコー東京　台場" }, "geometry": { "type": "Point", "coordinates": [ 139.7714622, 35.62517075 ] } },
{ "type": "Feature", "properties": { "lat": 35.64992032, "lon": 139.7555959, "title": "チサンホテル浜松町" }, "geometry": { "type": "Point", "coordinates": [ 139.7555959, 35.64992032 ] } },
{ "type": "Feature", "properties": { "lat": 35.6594041, "lon": 139.7526463, "title": "京王プレッソイン浜松町" }, "geometry": { "type": "Point", "coordinates": [ 139.7526463, 35.6594041 ] } },
{ "type": "Feature", "properties": { "lat": 35.6684587, "lon": 139.7572651, "title": "ダイワロイネットホテル新橋" }, "geometry": { "type": "Point", "coordinates": [ 139.757265100000012, 35.6684587 ] } },
{ "type": "Feature", "properties": { "lat": 35.657428292863571, "lon": 139.7541533484621, "title": "京急ＥＸイン　浜松町・大門駅前" }, "geometry": { "type": "Point", "coordinates": [ 139.754153348462097, 35.657428292863571 ] } },
{ "type": "Feature", "properties": { "lat": 35.6553048, "lon": 139.7632652, "title": "ベイサイドホテルアジュール竹芝・浜松町" }, "geometry": { "type": "Point", "coordinates": [ 139.7632652, 35.6553048 ] } },
{ "type": "Feature", "properties": { "lat": 35.66825, "lon": 139.757622, "title": "相鉄フレッサイン　新橋日比谷口" }, "geometry": { "type": "Point", "coordinates": [ 139.757622, 35.66825 ] } },
{ "type": "Feature", "properties": { "lat": 35.65548058, "lon": 139.7471131, "title": "ザ・プリンス　パークタワー東京" }, "geometry": { "type": "Point", "coordinates": [ 139.7471131, 35.65548058 ] } },
{ "type": "Feature", "properties": { "lat": 35.654249809927293, "lon": 139.7546183550171, "title": "三交インＧｒａｎｄｅ東京浜松町" }, "geometry": { "type": "Point", "coordinates": [ 139.754618355017101, 35.654249809927293 ] } },
{ "type": "Feature", "properties": { "lat": 35.6572433, "lon": 139.7564572, "title": "変なホテル東京　浜松町" }, "geometry": { "type": "Point", "coordinates": [ 139.7564572, 35.6572433 ] } },
{ "type": "Feature", "properties": { "lat": 35.6648381, "lon": 139.7560536, "title": "相鉄フレッサイン新橋烏森口" }, "geometry": { "type": "Point", "coordinates": [ 139.7560536, 35.6648381 ] } },
{ "type": "Feature", "properties": { "lat": 35.657957574127941, "lon": 139.7556583722137, "title": "名鉄イン浜松町" }, "geometry": { "type": "Point", "coordinates": [ 139.755658372213702, 35.657957574127941 ] } },
{ "type": "Feature", "properties": { "lat": 35.659257418926522, "lon": 139.74810243544309, "title": "東京プリンスホテル" }, "geometry": { "type": "Point", "coordinates": [ 139.748102435443087, 35.659257418926522 ] } },
{ "type": "Feature", "properties": { "lat": 35.66636849, "lon": 139.7563452, "title": "チェックイン新橋" }, "geometry": { "type": "Point", "coordinates": [ 139.7563452, 35.66636849 ] } },
{ "type": "Feature", "properties": { "lat": 35.65685834, "lon": 139.7522737, "title": "リッチモンドホテル東京芝" }, "geometry": { "type": "Point", "coordinates": [ 139.752273699999989, 35.65685834 ] } },
{ "type": "Feature", "properties": { "lat": 35.6664936, "lon": 139.7558742, "title": "レンブラントキャビン＆スパ新橋" }, "geometry": { "type": "Point", "coordinates": [ 139.7558742, 35.6664936 ] } },
{ "type": "Feature", "properties": { "lat": 35.66437994, "lon": 139.7606671, "title": "ザ　ロイヤルパークホテル　アイコニック　東京汐留" }, "geometry": { "type": "Point", "coordinates": [ 139.7606671, 35.66437994 ] } },
{ "type": "Feature", "properties": { "lat": 35.65990259, "lon": 139.7576092, "title": "三井ガーデンホテル汐留イタリア街" }, "geometry": { "type": "Point", "coordinates": [ 139.7576092, 35.65990259 ] } },
{ "type": "Feature", "properties": { "lat": 35.663486488912689, "lon": 139.75698793928669, "title": "東急ステイ新橋" }, "geometry": { "type": "Point", "coordinates": [ 139.756987939286688, 35.663486488912689 ] } },
{ "type": "Feature", "properties": { "lat": 35.666892683057242, "lon": 139.7533038492127, "title": "アパホテル〈新橋　虎ノ門〉" }, "geometry": { "type": "Point", "coordinates": [ 139.753303849212699, 35.666892683057242 ] } },
{ "type": "Feature", "properties": { "lat": 35.66139124, "lon": 139.7552927, "title": "アパホテル〈新橋　御成門〉" }, "geometry": { "type": "Point", "coordinates": [ 139.755292700000012, 35.66139124 ] } },
{ "type": "Feature", "properties": { "lat": 35.62601507, "lon": 139.7703456, "title": "ヒルトン東京お台場" }, "geometry": { "type": "Point", "coordinates": [ 139.770345600000013, 35.62601507 ] } },
{ "type": "Feature", "properties": { "lat": 35.6531005, "lon": 139.7623719, "title": "ホテル　インターコンチネンタル東京ベイ　ｂｙ　ＩＨＧ" }, "geometry": { "type": "Point", "coordinates": [ 139.7623719, 35.6531005 ] } },
{ "type": "Feature", "properties": { "lat": 35.6554629, "lon": 139.7548601, "title": "スーパーホテル東京・浜松町" }, "geometry": { "type": "Point", "coordinates": [ 139.7548601, 35.6554629 ] } },
{ "type": "Feature", "properties": { "lat": 35.6595942, "lon": 139.7543901, "title": "相鉄フレッサイン　浜松町大門" }, "geometry": { "type": "Point", "coordinates": [ 139.7543901, 35.6595942 ] } },
{ "type": "Feature", "properties": { "lat": 35.66595185, "lon": 139.7556008, "title": "ホテル新橋三番館" }, "geometry": { "type": "Point", "coordinates": [ 139.7556008, 35.66595185 ] } },
{ "type": "Feature", "properties": { "lat": 35.654566748313563, "lon": 139.7621367939179, "title": "ＨＯＴＥＬ　ＴＡＶＩＮＯＳ　Ｈａｍａｍａｔｓｕｃｈｏ（ホテルタビノス浜松町）" }, "geometry": { "type": "Point", "coordinates": [ 139.762136793917904, 35.654566748313563 ] } },
{ "type": "Feature", "properties": { "lat": 35.664143537469073, "lon": 139.75728798895489, "title": "ＴＨＥ　ＨＯＴＥＬ　ＳＨＩＮＢＡＳＨＩ（ザ　ホテル新橋）" }, "geometry": { "type": "Point", "coordinates": [ 139.757287988954886, 35.664143537469073 ] } },
{ "type": "Feature", "properties": { "lat": 35.664994427268262, "lon": 139.74547524054489, "title": "東京エディション虎ノ門" }, "geometry": { "type": "Point", "coordinates": [ 139.745475240544891, 35.664994427268262 ] } },
{ "type": "Feature", "properties": { "lat": 35.66250503, "lon": 139.7562537, "title": "スーパーホテル新橋・烏森口" }, "geometry": { "type": "Point", "coordinates": [ 139.7562537, 35.66250503 ] } },
{ "type": "Feature", "properties": { "lat": 35.6668569, "lon": 139.7439908, "title": "Ｔｈｅ　Ｏｋｕｒａ　Ｔｏｋｙｏ" }, "geometry": { "type": "Point", "coordinates": [ 139.7439908, 35.6668569 ] } },
{ "type": "Feature", "properties": { "lat": 35.66501869, "lon": 139.7580451, "title": "安心お宿　Ｔｏｋｙｏ　Ｍａｎ　新橋駅前店" }, "geometry": { "type": "Point", "coordinates": [ 139.7580451, 35.66501869 ] } },
{ "type": "Feature", "properties": { "lat": 35.6617317, "lon": 139.7567209, "title": "安心お宿　Ｔｏｋｙｏ　Ｗｏｍａｎ　銀座汐留店" }, "geometry": { "type": "Point", "coordinates": [ 139.7567209, 35.6617317 ] } },
{ "type": "Feature", "properties": { "lat": 35.65089243, "lon": 139.7553598, "title": "くれたけインプレミアム浜松町" }, "geometry": { "type": "Point", "coordinates": [ 139.7553598, 35.65089243 ] } },
{ "type": "Feature", "properties": { "lat": 35.665808925574218, "lon": 139.75513179702151, "title": "ＣＡＮＤＥＯ　ＨＯＴＥＬＳ（カンデオホテルズ）東京新橋" }, "geometry": { "type": "Point", "coordinates": [ 139.755131797021505, 35.665808925574218 ] } },
{ "type": "Feature", "properties": { "lat": 35.65818605, "lon": 139.7551873, "title": "ホテルマイステイズ浜松町" }, "geometry": { "type": "Point", "coordinates": [ 139.755187299999989, 35.65818605 ] } },
{ "type": "Feature", "properties": { "lat": 35.655617973474961, "lon": 139.75375714603271, "title": "相鉄フレッサイン　大門駅前" }, "geometry": { "type": "Point", "coordinates": [ 139.753757146032711, 35.655617973474961 ] } },
{ "type": "Feature", "properties": { "lat": 35.6587076, "lon": 139.752272, "title": "ｉｎｕｍｏ　芝公園　ｂｙ　Ｖｉｌｌａ　Ｆｏｎｔａｉｎｅ" }, "geometry": { "type": "Point", "coordinates": [ 139.752272, 35.6587076 ] } },
{ "type": "Feature", "properties": { "lat": 35.66605462, "lon": 139.7556341, "title": "アネックス　チェックイン新橋" }, "geometry": { "type": "Point", "coordinates": [ 139.7556341, 35.66605462 ] } },
{ "type": "Feature", "properties": { "lat": 35.6559605, "lon": 139.7628777, "title": "メズム東京、オートグラフ　コレクション" }, "geometry": { "type": "Point", "coordinates": [ 139.7628777, 35.6559605 ] } },
{ "type": "Feature", "properties": { "lat": 35.65206728, "lon": 139.754832, "title": "住友不動産ホテル　ヴィラフォンテーヌ東京浜松町" }, "geometry": { "type": "Point", "coordinates": [ 139.754832, 35.65206728 ] } },
{ "type": "Feature", "properties": { "lat": 35.66874325, "lon": 139.75732, "title": "第一ホテル東京" }, "geometry": { "type": "Point", "coordinates": [ 139.75732, 35.66874325 ] } },
{ "type": "Feature", "properties": { "lat": 35.6672193, "lon": 139.7552608, "title": "新橋アーバンホテル" }, "geometry": { "type": "Point", "coordinates": [ 139.7552608, 35.6672193 ] } },
{ "type": "Feature", "properties": { "lat": 35.65920263, "lon": 139.7563677, "title": "ホテルマイステイズプレミア浜松町" }, "geometry": { "type": "Point", "coordinates": [ 139.7563677, 35.65920263 ] } },
{ "type": "Feature", "properties": { "lat": 35.653457598088472, "lon": 139.75471310876051, "title": "ホテルリラサーレ東京" }, "geometry": { "type": "Point", "coordinates": [ 139.754713108760512, 35.653457598088472 ] } },
{ "type": "Feature", "properties": { "lat": 35.6674964, "lon": 139.7535377, "title": "ｔｈｅ　ｂ　新橋（ザビー　しんばし）" }, "geometry": { "type": "Point", "coordinates": [ 139.75353770000001, 35.6674964 ] } },
{ "type": "Feature", "properties": { "lat": 35.660894449058077, "lon": 139.7544297711639, "title": "ＫＯＫＯ　ＨＯＴＥＬ　新橋御成門（旧　ホテルウィング新橋御成門）" }, "geometry": { "type": "Point", "coordinates": [ 139.754429771163899, 35.660894449058077 ] } },
{ "type": "Feature", "properties": { "lat": 35.664375760078592, "lon": 139.7520739988019, "title": "ＦＩＲＳＴ　ＣＡＢＩＮ（ファーストキャビン）愛宕山" }, "geometry": { "type": "Point", "coordinates": [ 139.752073998801905, 35.664375760078592 ] } },
{ "type": "Feature", "properties": { "lat": 35.666959909671363, "lon": 139.74920382696629, "title": "アンダーズ東京" }, "geometry": { "type": "Point", "coordinates": [ 139.749203826966294, 35.666959909671363 ] } },
{ "type": "Feature", "properties": { "lat": 35.657369695600657, "lon": 139.7559136037396, "title": "ナインアワーズ浜松町" }, "geometry": { "type": "Point", "coordinates": [ 139.7559136037396, 35.657369695600657 ] } },
{ "type": "Feature", "properties": { "lat": 35.669116929621623, "lon": 139.75628163161929, "title": "ＴＨＥ　ＢＬＯＳＳＯＭ　ＨＩＢＩＹＡ（ザ　ブラッサム日比谷）" }, "geometry": { "type": "Point", "coordinates": [ 139.756281631619288, 35.669116929621623 ] } },
{ "type": "Feature", "properties": { "lat": 35.658083, "lon": 139.756659, "title": "ＢＡＹ　ＨＯＴＥＬ東京浜松町" }, "geometry": { "type": "Point", "coordinates": [ 139.756659, 35.658083 ] } },
{ "type": "Feature", "properties": { "lat": 35.66115659, "lon": 139.7544258, "title": "ホテルリブマックスＢＵＤＧＥＴ新橋" }, "geometry": { "type": "Point", "coordinates": [ 139.7544258, 35.66115659 ] } },
{ "type": "Feature", "properties": { "lat": 35.66293011, "lon": 139.760856, "title": "コンラッド東京" }, "geometry": { "type": "Point", "coordinates": [ 139.760856, 35.66293011 ] } },
{ "type": "Feature", "properties": { "lat": 35.66231072, "lon": 139.7602367, "title": "住友不動産ホテル　ヴィラフォンテーヌグランド東京汐留" }, "geometry": { "type": "Point", "coordinates": [ 139.7602367, 35.66231072 ] } },
{ "type": "Feature", "properties": { "lat": 35.667356, "lon": 139.7473406, "title": "ホテル虎ノ門ヒルズ" }, "geometry": { "type": "Point", "coordinates": [ 139.7473406, 35.667356 ] } },
{ "type": "Feature", "properties": { "lat": 35.6571334, "lon": 139.7544601, "title": "カプセルイン浜松町　＾" }, "geometry": { "type": "Point", "coordinates": [ 139.754460099999989, 35.6571334 ] } },
{ "type": "Feature", "properties": { "lat": 35.662282802475197, "lon": 139.7538538932541, "title": "ホテル１８９９東京" }, "geometry": { "type": "Point", "coordinates": [ 139.753853893254103, 35.662282802475197 ] } },
{ "type": "Feature", "properties": { "lat": 35.66447705, "lon": 139.7569202, "title": "レインボーホテル" }, "geometry": { "type": "Point", "coordinates": [ 139.7569202, 35.66447705 ] } },
{ "type": "Feature", "properties": { "lat": 35.6554919, "lon": 139.75981449999989, "title": "島嶼会館" }, "geometry": { "type": "Point", "coordinates": [ 139.759814499999891, 35.6554919 ] } },
{ "type": "Feature", "properties": { "lat": 35.6653201, "lon": 139.7559681, "title": "Ｈｏｔｅｌ　ｏｗｌ　Ｔｏｋｙｏ　Ｓｈｉｎｂａｓｈｉ" }, "geometry": { "type": "Point", "coordinates": [ 139.7559681, 35.6653201 ] } },
{ "type": "Feature", "properties": { "lat": 35.666801501994122, "lon": 139.76140312090149, "title": "ＹＯＴＥＬ東京銀座" }, "geometry": { "type": "Point", "coordinates": [ 139.761403120901491, 35.666801501994122 ] } },
{ "type": "Feature", "properties": { "lat": 35.6503481, "lon": 139.7546551, "title": "Ｔｅｍｐｌｅ　Ｈｏｔｅｌ　正伝寺" }, "geometry": { "type": "Point", "coordinates": [ 139.7546551, 35.6503481 ] } },
{ "type": "Feature", "properties": { "lat": 35.663204513494222, "lon": 139.75952458836059, "title": "パークホテル東京" }, "geometry": { "type": "Point", "coordinates": [ 139.759524588360591, 35.663204513494222 ] } },
{ "type": "Feature", "properties": { "lat": 35.658923946688979, "lon": 139.75313479247609, "title": "ＭＯＮｄａｙ　Ａｐａｒｔ　浜松町大門" }, "geometry": { "type": "Point", "coordinates": [ 139.753134792476089, 35.658923946688979 ] } },
{ "type": "Feature", "properties": { "lat": 35.6623408, "lon": 139.7577591, "title": "ホテルリブマックス汐留" }, "geometry": { "type": "Point", "coordinates": [ 139.757759099999987, 35.6623408 ] } },
{ "type": "Feature", "properties": { "lat": 35.65885256, "lon": 139.752343, "title": "芝パークホテル" }, "geometry": { "type": "Point", "coordinates": [ 139.752343, 35.65885256 ] } },
{ "type": "Feature", "properties": { "lat": 35.6634429, "lon": 139.7532156, "title": "ＬＯＦホテル新橋" }, "geometry": { "type": "Point", "coordinates": [ 139.7532156, 35.6634429 ] } },
{ "type": "Feature", "properties": { "lat": 35.649517920444083, "lon": 139.7539960398812, "title": "ＭＯＮｄａｙ　Ａｐａｒｔ　Ｐｒｅｍｉｕｍ　浜松町" }, "geometry": { "type": "Point", "coordinates": [ 139.753996039881201, 35.649517920444083 ] } },
{ "type": "Feature", "properties": { "lat": 35.66415, "lon": 139.7535479, "title": "ｂｎｂ＋　新橋店" }, "geometry": { "type": "Point", "coordinates": [ 139.7535479, 35.66415 ] } },
{ "type": "Feature", "properties": { "lat": 35.663521, "lon": 139.7539178, "title": "ｕｎｉｔｏ　ｌｉｇｈｔ　ＳＨＩＭＢＡＳＨＩ" }, "geometry": { "type": "Point", "coordinates": [ 139.753917800000011, 35.663521 ] } },
{ "type": "Feature", "properties": { "lat": 35.6484025, "lon": 139.7456936, "title": "Ｓ・Ｆハイツ／民泊" }, "geometry": { "type": "Point", "coordinates": [ 139.74569360000001, 35.6484025 ] } },
{ "type": "Feature", "properties": { "lat": 35.6549838, "lon": 139.7533389, "title": "ｉｌｌｉ　Ｒｏｍ　Ｈａｍａｍａｔｓｕｃｈｏ" }, "geometry": { "type": "Point", "coordinates": [ 139.753338899999989, 35.6549838 ] } },
{ "type": "Feature", "properties": { "lat": 35.6672053, "lon": 139.7556404, "title": "新橋ホテル将" }, "geometry": { "type": "Point", "coordinates": [ 139.7556404, 35.6672053 ] } },
{ "type": "Feature", "properties": { "lat": 35.657878, "lon": 139.7561231, "title": "ｉｌｌｉ　Ｎｏａ　Ｈａｍａｍａｔｓｕｃｈｏ" }, "geometry": { "type": "Point", "coordinates": [ 139.7561231, 35.657878 ] } },
{ "type": "Feature", "properties": { "lat": 35.6675367, "lon": 139.7563733, "title": "住友不動産ホテル　ヴィラフォンテーヌ東京日比谷" }, "geometry": { "type": "Point", "coordinates": [ 139.7563733, 35.6675367 ] } },
{ "type": "Feature", "properties": { "lat": 35.64315727, "lon": 139.7558273, "title": "Ｔｕｎｅ　Ｉｎｎ　Ｔｏｋｙｏ　Ｂａｙ　＾" }, "geometry": { "type": "Point", "coordinates": [ 139.7558273, 35.64315727 ] } },
{ "type": "Feature", "properties": { "lat": 35.6585557, "lon": 139.7529519, "title": "ｉｌｌｉ　Ｓｕｒｐ　Ｓｈｉｂａ－Ｐａｒｋ" }, "geometry": { "type": "Point", "coordinates": [ 139.7529519, 35.6585557 ] } },
{ "type": "Feature", "properties": { "lat": 35.6585947, "lon": 139.756357, "title": "ｉｌｌｉ　Ｒｕｇ　Ｈａｍａｍａｔｓｕｃｈｏ" }, "geometry": { "type": "Point", "coordinates": [ 139.756357, 35.6585947 ] } },
{ "type": "Feature", "properties": { "lat": 35.667011383686187, "lon": 139.76156048413091, "title": "からくさホテルプレミア東京銀座" }, "geometry": { "type": "Point", "coordinates": [ 139.761560484130911, 35.667011383686187 ] } },
{ "type": "Feature", "properties": { "lat": 35.6695916, "lon": 139.7524344, "title": "ＥＡＳＴ　ＴＯＲＡＮＯＭＯＮ－寛道－／民泊" }, "geometry": { "type": "Point", "coordinates": [ 139.7524344, 35.6695916 ] } },
{ "type": "Feature", "properties": { "lat": 35.6585953, "lon": 139.7559498, "title": "レジデンシャルホテル　東武ハイライン大門２０１" }, "geometry": { "type": "Point", "coordinates": [ 139.7559498, 35.6585953 ] } },
{ "type": "Feature", "properties": { "lat": 35.6515449, "lon": 139.7577827, "title": "フェアモント東京" }, "geometry": { "type": "Point", "coordinates": [ 139.7577827, 35.6515449 ] } },
{ "type": "Feature", "properties": { "lat": 35.6638588, "lon": 139.745524, "title": "ｉｌｌｉ　Ｅｍｅ　Ｔｏｋｙｏ－Ｔｏｒａｎｏｍｏｎ" }, "geometry": { "type": "Point", "coordinates": [ 139.745524, 35.6638588 ] } },
{ "type": "Feature", "properties": { "lat": 35.6670806, "lon": 139.751702, "title": "虎ノ門ホリックホテル" }, "geometry": { "type": "Point", "coordinates": [ 139.751702, 35.6670806 ] } },
{ "type": "Feature", "properties": { "lat": 35.6648075, "lon": 139.7562289, "title": "ホテル　オリエンタル　エクスプレス　銀座ウエスト" }, "geometry": { "type": "Point", "coordinates": [ 139.7562289, 35.664807499999988 ] } },
{ "type": "Feature", "properties": { "lat": 35.6645791, "lon": 139.756966, "title": "Ｔｈｅ　Ｔｅｒｒａｃｅ　Ｈｏｓｔｅｌ　Ｓｈｉｎｂａｓｈｉ" }, "geometry": { "type": "Point", "coordinates": [ 139.756966, 35.6645791 ] } },
{ "type": "Feature", "properties": { "lat": 35.643093, "lon": 139.7556225, "title": "ＳＬＥＥＰＬＡＢ　ＴＨＥ　ＳＴＡＹ　芝浦　＾" }, "geometry": { "type": "Point", "coordinates": [ 139.755622499999987, 35.643093 ] } },
{ "type": "Feature", "properties": { "lat": 35.666145145514932, "lon": 139.73742607634969, "title": "アパホテル〈六本木ＳＩＸ〉" }, "geometry": { "type": "Point", "coordinates": [ 139.737426076349692, 35.666145145514932 ] } },
{ "type": "Feature", "properties": { "lat": 35.6616012, "lon": 139.7376602, "title": "アパホテル＆リゾート〈六本木駅東〉" }, "geometry": { "type": "Point", "coordinates": [ 139.7376602, 35.6616012 ] } },
{ "type": "Feature", "properties": { "lat": 35.6519275, "lon": 139.7369441, "title": "オリンピックイン麻布" }, "geometry": { "type": "Point", "coordinates": [ 139.736944099999988, 35.6519275 ] } },
{ "type": "Feature", "properties": { "lat": 35.67369548462819, "lon": 139.7380023593166, "title": "ホテルヒラリーズ赤坂" }, "geometry": { "type": "Point", "coordinates": [ 139.738002359316596, 35.67369548462819 ] } },
{ "type": "Feature", "properties": { "lat": 35.6745629, "lon": 139.7363722, "title": "高濃度炭酸泉　茜草の湯　スーパーホテルＰｒｅｍｉｅｒ赤坂" }, "geometry": { "type": "Point", "coordinates": [ 139.7363722, 35.6745629 ] } },
{ "type": "Feature", "properties": { "lat": 35.671405827868668, "lon": 139.73682447261439, "title": "京王プレッソイン赤坂" }, "geometry": { "type": "Point", "coordinates": [ 139.736824472614387, 35.671405827868668 ] } },
{ "type": "Feature", "properties": { "lat": 35.6721577, "lon": 139.739086, "title": "変なホテル東京　赤坂" }, "geometry": { "type": "Point", "coordinates": [ 139.739086, 35.6721577 ] } },
{ "type": "Feature", "properties": { "lat": 35.66612061, "lon": 139.7309223, "title": "ザ・リッツ・カールトン東京" }, "geometry": { "type": "Point", "coordinates": [ 139.7309223, 35.66612061 ] } },
{ "type": "Feature", "properties": { "lat": 35.65698811, "lon": 139.7236455, "title": "アパホテル〈西麻布〉" }, "geometry": { "type": "Point", "coordinates": [ 139.7236455, 35.65698811 ] } },
{ "type": "Feature", "properties": { "lat": 35.675905582413158, "lon": 139.73606670294771, "title": "アパホテル〈赤坂見附〉" }, "geometry": { "type": "Point", "coordinates": [ 139.73606670294771, 35.675905582413158 ] } },
{ "type": "Feature", "properties": { "lat": 35.67561959, "lon": 139.7327301, "title": "ホテルモントレ赤坂" }, "geometry": { "type": "Point", "coordinates": [ 139.7327301, 35.67561959 ] } },
{ "type": "Feature", "properties": { "lat": 35.663873211518073, "lon": 139.73137345666561, "title": "レム六本木" }, "geometry": { "type": "Point", "coordinates": [ 139.731373456665608, 35.663873211518073 ] } },
{ "type": "Feature", "properties": { "lat": 35.675754, "lon": 139.736218, "title": "センチュリオンホテルグランド赤坂" }, "geometry": { "type": "Point", "coordinates": [ 139.736218, 35.675754 ] } },
{ "type": "Feature", "properties": { "lat": 35.670217436151212, "lon": 139.7380877865082, "title": "ホテルマイステイズプレミア赤坂" }, "geometry": { "type": "Point", "coordinates": [ 139.738087786508203, 35.670217436151212 ] } },
{ "type": "Feature", "properties": { "lat": 35.660364487916013, "lon": 139.72466443974989, "title": "ＲＯＰＰＯＮＧＩ　ＨＯＴＥＬ　Ｓ（六本木　ホテル　Ｓ）" }, "geometry": { "type": "Point", "coordinates": [ 139.724664439749887, 35.660364487916013 ] } },
{ "type": "Feature", "properties": { "lat": 35.6635729, "lon": 139.7337812, "title": "コンフォートイン東京六本木" }, "geometry": { "type": "Point", "coordinates": [ 139.73378120000001, 35.6635729 ] } },
{ "type": "Feature", "properties": { "lat": 35.6623198, "lon": 139.7322925, "title": "アパホテル〈六本木駅前〉" }, "geometry": { "type": "Point", "coordinates": [ 139.7322925, 35.6623198 ] } },
{ "type": "Feature", "properties": { "lat": 35.66820676, "lon": 139.7409881, "title": "ＡＮＡインターコンチネンタルホテル東京　ｂｙ　ＩＨＧ" }, "geometry": { "type": "Point", "coordinates": [ 139.74098810000001, 35.66820676 ] } },
{ "type": "Feature", "properties": { "lat": 35.6704151, "lon": 139.7350644, "title": "ホテルリブマックス赤坂ＧＲＡＮＤＥ" }, "geometry": { "type": "Point", "coordinates": [ 139.7350644, 35.6704151 ] } },
{ "type": "Feature", "properties": { "lat": 35.661961493455898, "lon": 139.7326647, "title": "ＣＡＮＤＥＯ　ＨＯＴＥＬＳ（カンデオホテルズ）東京六本木" }, "geometry": { "type": "Point", "coordinates": [ 139.732664699999987, 35.661961493455898 ] } },
{ "type": "Feature", "properties": { "lat": 35.66903699, "lon": 139.7323832, "title": "マロウドイン赤坂" }, "geometry": { "type": "Point", "coordinates": [ 139.732383199999987, 35.66903699 ] } },
{ "type": "Feature", "properties": { "lat": 35.663547778209022, "lon": 139.7336076383572, "title": "相鉄フレッサイン　東京六本木" }, "geometry": { "type": "Point", "coordinates": [ 139.733607638357199, 35.663547778209022 ] } },
{ "type": "Feature", "properties": { "lat": 35.66946752, "lon": 139.7331692, "title": "赤坂陽光ホテル" }, "geometry": { "type": "Point", "coordinates": [ 139.7331692, 35.66946752 ] } },
{ "type": "Feature", "properties": { "lat": 35.6740088, "lon": 139.7377242, "title": "センチュリオンホテル・レジデンシャル・赤坂" }, "geometry": { "type": "Point", "coordinates": [ 139.7377242, 35.6740088 ] } },
{ "type": "Feature", "properties": { "lat": 35.6725867, "lon": 139.7389375, "title": "ヴィアインプライム赤坂＜茜音の湯＞（ＪＲ西日本グループ）" }, "geometry": { "type": "Point", "coordinates": [ 139.7389375, 35.6725867 ] } },
{ "type": "Feature", "properties": { "lat": 35.662000739361233, "lon": 139.7359973709213, "title": "三井ガーデンホテル六本木プレミア" }, "geometry": { "type": "Point", "coordinates": [ 139.735997370921297, 35.662000739361233 ] } },
{ "type": "Feature", "properties": { "lat": 35.67069502, "lon": 139.7279918, "title": "ホテルアジア会館" }, "geometry": { "type": "Point", "coordinates": [ 139.727991800000012, 35.67069502 ] } },
{ "type": "Feature", "properties": { "lat": 35.67116739, "lon": 139.7355245, "title": "相鉄フレッサイン東京赤坂" }, "geometry": { "type": "Point", "coordinates": [ 139.7355245, 35.67116739 ] } },
{ "type": "Feature", "properties": { "lat": 35.6709906, "lon": 139.7415161, "title": "赤坂アーバンホテル　アネックス" }, "geometry": { "type": "Point", "coordinates": [ 139.741516100000013, 35.6709906 ] } },
{ "type": "Feature", "properties": { "lat": 35.6730464, "lon": 139.7374139, "title": "ファーストキャビン赤坂" }, "geometry": { "type": "Point", "coordinates": [ 139.7374139, 35.6730464 ] } },
{ "type": "Feature", "properties": { "lat": 35.676578820244337, "lon": 139.73613444785039, "title": "ｔｈｅ　ｂ　赤坂見附（ザビー　あかさかみつけ）" }, "geometry": { "type": "Point", "coordinates": [ 139.73613444785039, 35.676578820244337 ] } },
{ "type": "Feature", "properties": { "lat": 35.670407349055353, "lon": 139.7379582363302, "title": "ホテルＳＵＩ赤坂ｂｙＡＢＥＳＴ" }, "geometry": { "type": "Point", "coordinates": [ 139.737958236330201, 35.670407349055353 ] } },
{ "type": "Feature", "properties": { "lat": 35.6727417, "lon": 139.7378855, "title": "ＡＬＦＩＴ　ＨＯＴＥＬ　＆　ＢＡＲ　ＡＫＡＳＡＫＡ" }, "geometry": { "type": "Point", "coordinates": [ 139.7378855, 35.6727417 ] } },
{ "type": "Feature", "properties": { "lat": 35.6743824, "lon": 139.7374583, "title": "ザ・センチュリオン　クラシック赤坂" }, "geometry": { "type": "Point", "coordinates": [ 139.737458299999986, 35.6743824 ] } },
{ "type": "Feature", "properties": { "lat": 35.67561971, "lon": 139.7370714, "title": "赤坂グランベルホテル" }, "geometry": { "type": "Point", "coordinates": [ 139.7370714, 35.67561971 ] } },
{ "type": "Feature", "properties": { "lat": 35.660889, "lon": 139.726457, "title": "サウナ＆キャビン　テルマー湯　西麻布" }, "geometry": { "type": "Point", "coordinates": [ 139.726457, 35.660889 ] } },
{ "type": "Feature", "properties": { "lat": 35.66416551, "lon": 139.7395439, "title": "住友不動産ホテル　ヴィラフォンテーヌグランド東京六本木" }, "geometry": { "type": "Point", "coordinates": [ 139.7395439, 35.66416551 ] } },
{ "type": "Feature", "properties": { "lat": 35.6561363, "lon": 139.7407137, "title": "ＨＯＴＥＬ　みなと　麻布十番" }, "geometry": { "type": "Point", "coordinates": [ 139.740713699999986, 35.6561363 ] } },
{ "type": "Feature", "properties": { "lat": 35.673906101695941, "lon": 139.73515005602789, "title": "ナインアワーズ赤坂" }, "geometry": { "type": "Point", "coordinates": [ 139.735150056027891, 35.673906101695941 ] } },
{ "type": "Feature", "properties": { "lat": 35.6556898, "lon": 139.739187, "title": "オークウッドホテル＆アパートメンツ麻布" }, "geometry": { "type": "Point", "coordinates": [ 139.739187, 35.6556898 ] } },
{ "type": "Feature", "properties": { "lat": 35.67138675, "lon": 139.7331247, "title": "ｔｈｅ　ｂ　赤坂（ザビー　あかさか）" }, "geometry": { "type": "Point", "coordinates": [ 139.7331247, 35.67138675 ] } },
{ "type": "Feature", "properties": { "lat": 35.6610121, "lon": 139.723291, "title": "ＨＯＴＥＬ　みなと－ＭＩＮＡＴＯ－" }, "geometry": { "type": "Point", "coordinates": [ 139.723291, 35.6610121 ] } },
{ "type": "Feature", "properties": { "lat": 35.6718466, "lon": 139.7393832, "title": "赤坂アーバンホテル" }, "geometry": { "type": "Point", "coordinates": [ 139.7393832, 35.671846599999988 ] } },
{ "type": "Feature", "properties": { "lat": 35.670122337874567, "lon": 139.73335134418031, "title": "ホテルリブマックス赤坂" }, "geometry": { "type": "Point", "coordinates": [ 139.733351344180306, 35.670122337874567 ] } },
{ "type": "Feature", "properties": { "lat": 35.656715435986499, "lon": 139.73324233304851, "title": "ザ・ライブリー東京麻布十番（ＴＨＥ　ＬＩＶＥＬＹ　東京麻布十番）" }, "geometry": { "type": "Point", "coordinates": [ 139.733242333048508, 35.656715435986499 ] } },
{ "type": "Feature", "properties": { "lat": 35.662438235418698, "lon": 139.72951281656759, "title": "アクトホテル六本木" }, "geometry": { "type": "Point", "coordinates": [ 139.729512816567592, 35.662438235418698 ] } },
{ "type": "Feature", "properties": { "lat": 35.6756489, "lon": 139.7365777, "title": "ホテルリズベリオ赤坂" }, "geometry": { "type": "Point", "coordinates": [ 139.7365777, 35.6756489 ] } },
{ "type": "Feature", "properties": { "lat": 35.65449708, "lon": 139.7367168, "title": "HOTEL　THE　GLANZ（ホテル　ザ　グランツ）" }, "geometry": { "type": "Point", "coordinates": [ 139.736716800000011, 35.65449708 ] } },
{ "type": "Feature", "properties": { "lat": 35.65604355043137, "lon": 139.74332077986639, "title": "ＧＵＥＳＴ　ＨＯＵＳＥ　ＴＯＫＹＯ　ＡＺＡＢＵ" }, "geometry": { "type": "Point", "coordinates": [ 139.743320779866394, 35.65604355043137 ] } },
{ "type": "Feature", "properties": { "lat": 35.6626311, "lon": 139.7301312, "title": "六本木プラザホテル" }, "geometry": { "type": "Point", "coordinates": [ 139.730131199999988, 35.662631100000013 ] } },
{ "type": "Feature", "properties": { "lat": 35.672944, "lon": 139.738219, "title": "Ａｋａｓａｋａ　Ｔｈｅ　Ｈｏｓｔｅｌ" }, "geometry": { "type": "Point", "coordinates": [ 139.738219, 35.672944 ] } },
{ "type": "Feature", "properties": { "lat": 35.659467502682752, "lon": 139.72857560985639, "title": "グランドハイアット東京" }, "geometry": { "type": "Point", "coordinates": [ 139.728575609856392, 35.659467502682752 ] } },
{ "type": "Feature", "properties": { "lat": 35.6740379, "lon": 139.73518349999989, "title": "安らぎの女子宿　赤坂の里" }, "geometry": { "type": "Point", "coordinates": [ 139.735183499999891, 35.6740379 ] } },
{ "type": "Feature", "properties": { "lat": 35.665098, "lon": 139.7347764, "title": "５４Ｊｏｕｒｎｅｙ六本木ホステル" }, "geometry": { "type": "Point", "coordinates": [ 139.734776399999987, 35.665098 ] } },
{ "type": "Feature", "properties": { "lat": 35.6743261, "lon": 139.7380159, "title": "ＣＯＣＯＳＨＵＫＵ　赤坂　Ｐｒｅｍｉｕｍ" }, "geometry": { "type": "Point", "coordinates": [ 139.7380159, 35.6743261 ] } },
{ "type": "Feature", "properties": { "lat": 35.669861835995597, "lon": 139.7328454730164, "title": "ＭＩＭＡＲＵ東京　赤坂" }, "geometry": { "type": "Point", "coordinates": [ 139.732845473016397, 35.669861835995597 ] } },
{ "type": "Feature", "properties": { "lat": 35.674103, "lon": 139.7352753, "title": "赤坂の里Ｐｒｅｍｉｕｍ" }, "geometry": { "type": "Point", "coordinates": [ 139.735275300000012, 35.674103 ] } },
{ "type": "Feature", "properties": { "lat": 35.6728528, "lon": 139.7378808, "title": "Ｇｕｅｓｔｈｏｕｓｅ　Ａｋａｓａｋａ" }, "geometry": { "type": "Point", "coordinates": [ 139.7378808, 35.6728528 ] } },
{ "type": "Feature", "properties": { "lat": 35.6720219, "lon": 139.7385021, "title": "５４　Ｊｏｕｒｎｅｙ　東京赤坂" }, "geometry": { "type": "Point", "coordinates": [ 139.7385021, 35.6720219 ] } },
{ "type": "Feature", "properties": { "lat": 35.674729802236641, "lon": 139.7377882281813, "title": "ベストウェスタンホテルフィーノ東京赤坂" }, "geometry": { "type": "Point", "coordinates": [ 139.737788228181302, 35.674729802236641 ] } },
{ "type": "Feature", "properties": { "lat": 35.6633447, "lon": 139.7283983, "title": "Ｖｉｌｌａ　Ｒｏｐｐｏｎｇｉ" }, "geometry": { "type": "Point", "coordinates": [ 139.7283983, 35.6633447 ] } },
{ "type": "Feature", "properties": { "lat": 35.6624363, "lon": 139.726968, "title": "カスカータ（ＨＯＴＥＬ　ＧＬＡＮＺ　ＣＡＳＣＡＴＡ）" }, "geometry": { "type": "Point", "coordinates": [ 139.726968, 35.6624363 ] } },
{ "type": "Feature", "properties": { "lat": 35.6722175, "lon": 139.7397644, "title": "Ａｋａｓａｋａ　Ｇｕｅｓｔｈｏｕｓｅ　ＨＩＶＥ" }, "geometry": { "type": "Point", "coordinates": [ 139.739764400000013, 35.6722175 ] } },
{ "type": "Feature", "properties": { "lat": 35.6582261, "lon": 139.7438673, "title": "山本ビル" }, "geometry": { "type": "Point", "coordinates": [ 139.7438673, 35.6582261 ] } },
{ "type": "Feature", "properties": { "lat": 35.658177, "lon": 139.7439669, "title": "山本ビル　＾" }, "geometry": { "type": "Point", "coordinates": [ 139.7439669, 35.658177 ] } },
{ "type": "Feature", "properties": { "lat": 35.6550238, "lon": 139.7352354, "title": "Ａｐｔ＃０１２　麻布十番駅徒歩３分・東京タワー六本木徒歩圏内の好立地／６０１　＾" }, "geometry": { "type": "Point", "coordinates": [ 139.7352354, 35.6550238 ] } },
{ "type": "Feature", "properties": { "lat": 35.6687077, "lon": 139.7393764, "title": "Ｔｒａｖｅｌｅｒｚ　Ａｋａｓａｋａ３０２　＾" }, "geometry": { "type": "Point", "coordinates": [ 139.7393764, 35.6687077 ] } },
{ "type": "Feature", "properties": { "lat": 35.668614, "lon": 139.7393228, "title": "Ｔｒａｖｅｌｅｒｚ　Ｔｏｋｙｏ　Ａｋａｓａｋａ　３０１　＾" }, "geometry": { "type": "Point", "coordinates": [ 139.7393228, 35.668614 ] } },
{ "type": "Feature", "properties": { "lat": 35.656517069403328, "lon": 139.73341997120039, "title": "ｉｌｌｉ　Ｇｒａｎ　Ａｚａｂｕｊｕｂａｎ" }, "geometry": { "type": "Point", "coordinates": [ 139.733419971200391, 35.656517069403328 ] } },
{ "type": "Feature", "properties": { "lat": 35.6630949, "lon": 139.734477, "title": "じゃるだんビル／民泊" }, "geometry": { "type": "Point", "coordinates": [ 139.734477, 35.6630949 ] } },
{ "type": "Feature", "properties": { "lat": 35.66062705, "lon": 139.7246172, "title": "六本木駅徒歩７分／９０平米２ＬＤＫ／デザイナーズ戸建／民泊" }, "geometry": { "type": "Point", "coordinates": [ 139.724617200000012, 35.66062705 ] } },
{ "type": "Feature", "properties": { "lat": 35.6645287, "lon": 139.7323862, "title": "Ｒｏｐｐｏｎｇｉ　Ｈｏｕｓｅ　ｂｙ　Ｕ／民泊" }, "geometry": { "type": "Point", "coordinates": [ 139.7323862, 35.6645287 ] } },
{ "type": "Feature", "properties": { "lat": 35.65576048, "lon": 139.7342251, "title": "六本木麻布　ＬＵＸＵＲＹ　ＶＩＬＬＡＳ　ＳＫＹ　ＧＡＴＥ　ＡＺＡＢＵ　＾" }, "geometry": { "type": "Point", "coordinates": [ 139.7342251, 35.65576048 ] } },
{ "type": "Feature", "properties": { "lat": 35.6567386, "lon": 139.7439772, "title": "ＬｉｖｅＧＲＡＣＥ　Ｈｏｔｅｌ　麻布芝公園　＾" }, "geometry": { "type": "Point", "coordinates": [ 139.743977199999989, 35.6567386 ] } },
{ "type": "Feature", "properties": { "lat": 35.6516435, "lon": 139.7303861, "title": "南麻布ＭＯＮＯ　＾" }, "geometry": { "type": "Point", "coordinates": [ 139.7303861, 35.6516435 ] } },
{ "type": "Feature", "properties": { "lat": 35.6516472, "lon": 139.7228714, "title": "Ｃｉｅｌ南麻布" }, "geometry": { "type": "Point", "coordinates": [ 139.7228714, 35.651647200000014 ] } },
{ "type": "Feature", "properties": { "lat": 35.6551384, "lon": 139.7445225, "title": "ｉｎｔｈｅＨｏｏｄ　Ｈｉｇａｓｈｉ　Ａｚａｂｕ　＾" }, "geometry": { "type": "Point", "coordinates": [ 139.744522499999988, 35.6551384 ] } },
{ "type": "Feature", "properties": { "lat": 35.6663859, "lon": 139.725896, "title": "スペース六本木／民泊" }, "geometry": { "type": "Point", "coordinates": [ 139.725896, 35.6663859 ] } },
{ "type": "Feature", "properties": { "lat": 35.6556613, "lon": 139.744516, "title": "Ｈｉｇａｓｈｉ　Ａｚａｂｕ　ＦＬＥＧ／民泊" }, "geometry": { "type": "Point", "coordinates": [ 139.744516, 35.6556613 ] } },
{ "type": "Feature", "properties": { "lat": 35.6689805, "lon": 139.738846, "title": "ＬｉｖｅＧＲＡＣＥ　Ｈｏｔｅｌ　赤坂　＾" }, "geometry": { "type": "Point", "coordinates": [ 139.738846, 35.6689805 ] } },
{ "type": "Feature", "properties": { "lat": 35.6742528, "lon": 139.7369642, "title": "Ａｋａｓａｋａ／民泊" }, "geometry": { "type": "Point", "coordinates": [ 139.736964199999989, 35.6742528 ] } },
{ "type": "Feature", "properties": { "lat": 35.6756779, "lon": 139.7340482, "title": "２０１９年新築・高機能を追求した新型高級マンション＃赤坂見附駅徒歩４分／民泊" }, "geometry": { "type": "Point", "coordinates": [ 139.734048199999989, 35.6756779 ] } },
{ "type": "Feature", "properties": { "lat": 35.6560619, "lon": 139.7433131, "title": "三田ハウス／民泊" }, "geometry": { "type": "Point", "coordinates": [ 139.7433131, 35.6560619 ] } },
{ "type": "Feature", "properties": { "lat": 35.6532032, "lon": 139.7364463, "title": "東京華館／民泊" }, "geometry": { "type": "Point", "coordinates": [ 139.736446300000011, 35.6532032 ] } },
{ "type": "Feature", "properties": { "lat": 35.656649, "lon": 139.7364937, "title": "六本木森ハウス／民泊" }, "geometry": { "type": "Point", "coordinates": [ 139.736493700000011, 35.656649 ] } },
{ "type": "Feature", "properties": { "lat": 35.656649, "lon": 139.7364937, "title": "六本木猫ハウス／民泊" }, "geometry": { "type": "Point", "coordinates": [ 139.736493700000011, 35.656649 ] } },
{ "type": "Feature", "properties": { "lat": 35.656649, "lon": 139.7364937, "title": "六本木Ｃｌａｓｓｙハウス／民泊" }, "geometry": { "type": "Point", "coordinates": [ 139.736493700000011, 35.656649 ] } },
{ "type": "Feature", "properties": { "lat": 35.656649, "lon": 139.7364937, "title": "六本木ジャパンハウス／民泊" }, "geometry": { "type": "Point", "coordinates": [ 139.736493700000011, 35.656649 ] } },
{ "type": "Feature", "properties": { "lat": 35.6572572, "lon": 139.7412726, "title": "【記念日旅行、家族旅行、グループ旅行、女子会に最適！】空を見上げると東京タワーが目の前に！／民泊" }, "geometry": { "type": "Point", "coordinates": [ 139.7412726, 35.6572572 ] } },
{ "type": "Feature", "properties": { "lat": 35.657215955593152, "lon": 139.7371544471645, "title": "Ｂｉｎｅｍｕ" }, "geometry": { "type": "Point", "coordinates": [ 139.7371544471645, 35.657215955593152 ] } },
{ "type": "Feature", "properties": { "lat": 35.6746985, "lon": 139.7368066, "title": "Ｔｈｅ　Ｗａｒｄｒｏｂｅ　Ｈｏｓｔｅｌ　ＬＩＢＲＥＲＩＡ" }, "geometry": { "type": "Point", "coordinates": [ 139.7368066, 35.6746985 ] } },
{ "type": "Feature", "properties": { "lat": 35.6771666, "lon": 139.7361138, "title": "マツリホテル第２クワムラビル４Ｆ" }, "geometry": { "type": "Point", "coordinates": [ 139.7361138, 35.6771666 ] } },
{ "type": "Feature", "properties": { "lat": 35.6583419, "lon": 139.7398855, "title": "ケンズプレイス麻布台" }, "geometry": { "type": "Point", "coordinates": [ 139.739885500000014, 35.6583419 ] } },
{ "type": "Feature", "properties": { "lat": 35.6756618, "lon": 139.7340402, "title": "Ｌ＆Ｐ　ＨＯＴＥＬ" }, "geometry": { "type": "Point", "coordinates": [ 139.73404020000001, 35.6756618 ] } },
{ "type": "Feature", "properties": { "lat": 35.6687131, "lon": 139.7398782, "title": "ＳＵハウス赤坂１０２　＾" }, "geometry": { "type": "Point", "coordinates": [ 139.7398782, 35.6687131 ] } },
{ "type": "Feature", "properties": { "lat": 35.65699314, "lon": 139.7422426, "title": "Ａｌｔ　Ｓｔａｙ麻布Ｅａｓｔ／民泊" }, "geometry": { "type": "Point", "coordinates": [ 139.7422426, 35.65699314 ] } },
{ "type": "Feature", "properties": { "lat": 35.6687077, "lon": 139.7393764, "title": "ＴＲＡＶＥＬＥＲＺ　ＡＫＡＳＡＫＡ　３０２／民泊" }, "geometry": { "type": "Point", "coordinates": [ 139.7393764, 35.6687077 ] } },
{ "type": "Feature", "properties": { "lat": 35.6687077, "lon": 139.7393764, "title": "ＴＲＡＶＥＬＥＲＺ　ＡＫＡＳＡＫＡ　３０１／民泊" }, "geometry": { "type": "Point", "coordinates": [ 139.7393764, 35.6687077 ] } },
{ "type": "Feature", "properties": { "lat": 35.6655792, "lon": 139.7362229, "title": "六本木の商業ビル内　＾" }, "geometry": { "type": "Point", "coordinates": [ 139.7362229, 35.6655792 ] } },
{ "type": "Feature", "properties": { "lat": 35.6744929, "lon": 139.7368043, "title": "ホテル木下　赤坂" }, "geometry": { "type": "Point", "coordinates": [ 139.736804299999989, 35.6744929 ] } },
{ "type": "Feature", "properties": { "lat": 35.6468764, "lon": 139.734624, "title": "ＳＴＵＭＰ　ＳＡ　ＭｉｎａｍｉＡｚａｂｕ／民泊" }, "geometry": { "type": "Point", "coordinates": [ 139.734624, 35.6468764 ] } },
{ "type": "Feature", "properties": { "lat": 35.6566612, "lon": 139.7384418, "title": "スゴイサウナ＆ステイ麻布十番駅前" }, "geometry": { "type": "Point", "coordinates": [ 139.7384418, 35.656661199999988 ] } },
{ "type": "Feature", "properties": { "lat": 35.6772221, "lon": 139.7363025, "title": "ＨＯＴＥＬ　ＥＮＳＯ　ＴＯＫＹＯ　赤坂" }, "geometry": { "type": "Point", "coordinates": [ 139.7363025, 35.6772221 ] } },
{ "type": "Feature", "properties": { "lat": 35.66907546, "lon": 139.7167679, "title": "東急ステイ青山プレミア" }, "geometry": { "type": "Point", "coordinates": [ 139.7167679, 35.66907546 ] } },
{ "type": "Feature", "properties": { "lat": 35.63946248, "lon": 139.7303207, "title": "シェラトン都ホテル東京" }, "geometry": { "type": "Point", "coordinates": [ 139.7303207, 35.63946248 ] } },
{ "type": "Feature", "properties": { "lat": 35.6710516, "lon": 139.7178713000001, "title": "ホテルアラマンダ青山" }, "geometry": { "type": "Point", "coordinates": [ 139.717871300000098, 35.6710516 ] } },
{ "type": "Feature", "properties": { "lat": 35.64473396, "lon": 139.724621, "title": "フレックステイイン白金" }, "geometry": { "type": "Point", "coordinates": [ 139.724621, 35.64473396 ] } },
{ "type": "Feature", "properties": { "lat": 35.664585, "lon": 139.7124791, "title": "ＩＮＮ　ＴＨＥ　ＯＭＯＴＥＳＡＮＤＯ" }, "geometry": { "type": "Point", "coordinates": [ 139.7124791, 35.664585 ] } },
{ "type": "Feature", "properties": { "lat": 35.6702649, "lon": 139.7202398, "title": "ｉｌｌｉ　Ｔｅｘ　Ａｏｙａｍａ" }, "geometry": { "type": "Point", "coordinates": [ 139.7202398, 35.6702649 ] } },
{ "type": "Feature", "properties": { "lat": 35.6714032, "lon": 139.7250184, "title": "南青山１ｓｔ" }, "geometry": { "type": "Point", "coordinates": [ 139.72501840000001, 35.6714032 ] } },
{ "type": "Feature", "properties": { "lat": 35.6456996, "lon": 139.7309049, "title": "グランデュオ白金" }, "geometry": { "type": "Point", "coordinates": [ 139.730904900000013, 35.6456996 ] } },
{ "type": "Feature", "properties": { "lat": 35.6663439, "lon": 139.7201201, "title": "ホテルアドネス　＾" }, "geometry": { "type": "Point", "coordinates": [ 139.7201201, 35.6663439 ] } },
{ "type": "Feature", "properties": { "lat": 35.669934468479411, "lon": 139.72633907116401, "title": "マイグレ南青山" }, "geometry": { "type": "Point", "coordinates": [ 139.726339071164006, 35.669934468479411 ] } },
{ "type": "Feature", "properties": { "lat": 35.6649202, "lon": 139.7199904, "title": "Ｐｏｋａ　Ｖｉｌｌａ　Ａｏｙａｍａ／民泊" }, "geometry": { "type": "Point", "coordinates": [ 139.7199904, 35.6649202 ] } },
{ "type": "Feature", "properties": { "lat": 35.6707907, "lon": 139.7261157, "title": "Ｒｅａｌ　Ｌｉｆｅ　ＡＯＹＡＭＡ　ｐｒｅ　＾" }, "geometry": { "type": "Point", "coordinates": [ 139.7261157, 35.6707907 ] } },
{ "type": "Feature", "properties": { "lat": 35.6455638, "lon": 139.7249785, "title": "結城ビル２０２　＾" }, "geometry": { "type": "Point", "coordinates": [ 139.7249785, 35.6455638 ] } },
{ "type": "Feature", "properties": { "lat": 35.6462021, "lon": 139.7258713, "title": "Ｍｉｃｒｏ　Ｈｏｔｅｌｓ　Ｎｅａｒｂｙ　Ｒｏｐｐｏｎｇｉ" }, "geometry": { "type": "Point", "coordinates": [ 139.7258713, 35.6462021 ] } },
{ "type": "Feature", "properties": { "lat": 35.6443746, "lon": 139.7281611, "title": "ＳＨＩＲＯＫＡＮＥ　　ＰＥＮＴＨＯＵＳＥ／民泊" }, "geometry": { "type": "Point", "coordinates": [ 139.7281611, 35.6443746 ] } },
{ "type": "Feature", "properties": { "lat": 35.6692345, "lon": 139.7170506, "title": "Ｔｈｅ　Ｍｉｃｒｏ　Ｍｕｓｅｕｍ　Ｈｏｓｔｅｌ　Ａｏｙａｍａ" }, "geometry": { "type": "Point", "coordinates": [ 139.7170506, 35.6692345 ] } },
{ "type": "Feature", "properties": { "lat": 35.670792, "lon": 139.72612, "title": "Ｒｅａｌ　Ｌｉｆｅ　ＡＯＹＡＭＡ　２Ｆ　＾" }, "geometry": { "type": "Point", "coordinates": [ 139.72612, 35.670792 ] } },
{ "type": "Feature", "properties": { "lat": 35.65843688, "lon": 139.7186184, "title": "ＡＩ　ＡＯＹＡＭＡ／民泊" }, "geometry": { "type": "Point", "coordinates": [ 139.7186184, 35.65843688 ] } },
{ "type": "Feature", "properties": { "lat": 35.62772785, "lon": 139.7362457, "title": "品川プリンスホテル" }, "geometry": { "type": "Point", "coordinates": [ 139.736245700000012, 35.62772785 ] } },
{ "type": "Feature", "properties": { "lat": 35.62857087, "lon": 139.736326, "title": "品川プリンスホテル　Ｎタワー" }, "geometry": { "type": "Point", "coordinates": [ 139.736326, 35.62857087 ] } },
{ "type": "Feature", "properties": { "lat": 35.638032358435773, "lon": 139.7393710767212, "title": "アパホテル〈品川　泉岳寺駅前〉" }, "geometry": { "type": "Point", "coordinates": [ 139.739371076721199, 35.638032358435773 ] } },
{ "type": "Feature", "properties": { "lat": 35.6427583, "lon": 139.7470938, "title": "静鉄ホテルプレジオ東京田町" }, "geometry": { "type": "Point", "coordinates": [ 139.747093799999988, 35.6427583 ] } },
{ "type": "Feature", "properties": { "lat": 35.627645229452952, "lon": 139.73703137428879, "title": "品川プリンスホテル　イーストタワー" }, "geometry": { "type": "Point", "coordinates": [ 139.73703137428879, 35.627645229452952 ] } },
{ "type": "Feature", "properties": { "lat": 35.63017194, "lon": 139.7333208, "title": "グランドプリンスホテル新高輪" }, "geometry": { "type": "Point", "coordinates": [ 139.7333208, 35.63017194 ] } },
{ "type": "Feature", "properties": { "lat": 35.633454, "lon": 139.7377068000001, "title": "都シティ　東京高輪" }, "geometry": { "type": "Point", "coordinates": [ 139.737706800000097, 35.633454 ] } },
{ "type": "Feature", "properties": { "lat": 35.6499069, "lon": 139.7512129, "title": "スーパーホテル東京・芝【高濃度人工炭酸泉　開城の湯】" }, "geometry": { "type": "Point", "coordinates": [ 139.751212900000013, 35.6499069 ] } },
{ "type": "Feature", "properties": { "lat": 35.64289036, "lon": 139.7481968, "title": "相鉄フレッサイン　東京田町" }, "geometry": { "type": "Point", "coordinates": [ 139.748196799999988, 35.64289036 ] } },
{ "type": "Feature", "properties": { "lat": 35.640672, "lon": 139.7413735, "title": "スマイルホテル品川泉岳寺駅前" }, "geometry": { "type": "Point", "coordinates": [ 139.7413735, 35.640672 ] } },
{ "type": "Feature", "properties": { "lat": 35.6382895, "lon": 139.739462, "title": "東急ステイ高輪（泉岳寺駅前）" }, "geometry": { "type": "Point", "coordinates": [ 139.739462, 35.6382895 ] } },
{ "type": "Feature", "properties": { "lat": 35.631924812817047, "lon": 139.73462691698839, "title": "グランドプリンスホテル高輪" }, "geometry": { "type": "Point", "coordinates": [ 139.73462691698839, 35.631924812817047 ] } },
{ "type": "Feature", "properties": { "lat": 35.64841479, "lon": 139.7501159, "title": "アパホテル〈三田駅前〉（全室禁煙）" }, "geometry": { "type": "Point", "coordinates": [ 139.7501159, 35.64841479 ] } },
{ "type": "Feature", "properties": { "lat": 35.651630084251252, "lon": 139.74963705396729, "title": "ローズステイ東京芝公園" }, "geometry": { "type": "Point", "coordinates": [ 139.749637053967291, 35.651630084251252 ] } },
{ "type": "Feature", "properties": { "lat": 35.64365145, "lon": 139.7509132, "title": "ホテルグレイスリー田町" }, "geometry": { "type": "Point", "coordinates": [ 139.750913200000014, 35.64365145 ] } },
{ "type": "Feature", "properties": { "lat": 35.6449425, "lon": 139.75217, "title": "ホテルグランマーチ東京芝浦" }, "geometry": { "type": "Point", "coordinates": [ 139.75217, 35.6449425 ] } },
{ "type": "Feature", "properties": { "lat": 35.62930258, "lon": 139.7329486, "title": "品川東武ホテル" }, "geometry": { "type": "Point", "coordinates": [ 139.732948599999986, 35.62930258 ] } },
{ "type": "Feature", "properties": { "lat": 35.62757799, "lon": 139.7407342, "title": "ストリングスホテル東京インターコンチネンタル　ｂｙ　ＩＨＧ" }, "geometry": { "type": "Point", "coordinates": [ 139.7407342, 35.62757799 ] } },
{ "type": "Feature", "properties": { "lat": 35.65126721, "lon": 139.7490075, "title": "ホテル　ザ　セレスティン東京芝" }, "geometry": { "type": "Point", "coordinates": [ 139.7490075, 35.65126721 ] } },
{ "type": "Feature", "properties": { "lat": 35.630305946754582, "lon": 139.74131421374861, "title": "ナインアワーズ品川駅　ｆｏｒ　ｍｅｎ" }, "geometry": { "type": "Point", "coordinates": [ 139.741314213748609, 35.630305946754582 ] } },
{ "type": "Feature", "properties": { "lat": 35.65083105, "lon": 139.7451884, "title": "春日旅館" }, "geometry": { "type": "Point", "coordinates": [ 139.745188399999989, 35.65083105 ] } },
{ "type": "Feature", "properties": { "lat": 35.6484734, "lon": 139.7503445, "title": "ホテルリブマックス三田駅前" }, "geometry": { "type": "Point", "coordinates": [ 139.750344500000011, 35.6484734 ] } },
{ "type": "Feature", "properties": { "lat": 35.64281805, "lon": 139.7449193, "title": "住友不動産ホテル　ヴィラフォンテーヌグランド東京田町" }, "geometry": { "type": "Point", "coordinates": [ 139.7449193, 35.64281805 ] } },
{ "type": "Feature", "properties": { "lat": 35.63093303, "lon": 139.73554, "title": "ザ・プリンス　さくらタワー東京、オートグラフ　コレクション" }, "geometry": { "type": "Point", "coordinates": [ 139.73554, 35.63093303 ] } },
{ "type": "Feature", "properties": { "lat": 35.65290598, "lon": 139.7512517, "title": "東京グランドホテル" }, "geometry": { "type": "Point", "coordinates": [ 139.751251700000012, 35.65290598 ] } },
{ "type": "Feature", "properties": { "lat": 35.62652524, "lon": 139.7374262, "title": "東横ＩＮＮ品川駅高輪口" }, "geometry": { "type": "Point", "coordinates": [ 139.737426199999987, 35.62652524 ] } },
{ "type": "Feature", "properties": { "lat": 35.6445379, "lon": 139.7439072, "title": "わさび三田ホテル　＾" }, "geometry": { "type": "Point", "coordinates": [ 139.7439072, 35.6445379 ] } },
{ "type": "Feature", "properties": { "lat": 35.645575272038421, "lon": 139.74926674823621, "title": "プルマン東京田町" }, "geometry": { "type": "Point", "coordinates": [ 139.749266748236209, 35.645575272038421 ] } },
{ "type": "Feature", "properties": { "lat": 35.6372929, "lon": 139.7322994, "title": "ＨＪ　ＰＬＡＣＥ　ＴＡＫＡＮＡＷＡ／民泊" }, "geometry": { "type": "Point", "coordinates": [ 139.732299399999988, 35.6372929 ] } },
{ "type": "Feature", "properties": { "lat": 35.6397338, "lon": 139.7396925, "title": "Ａｒａｉｙａ" }, "geometry": { "type": "Point", "coordinates": [ 139.7396925, 35.6397338 ] } },
{ "type": "Feature", "properties": { "lat": 35.6426969, "lon": 139.749047, "title": "Ｈｏｔｅｌ　Ｍａｔｏｍａ" }, "geometry": { "type": "Point", "coordinates": [ 139.749047, 35.6426969 ] } },
{ "type": "Feature", "properties": { "lat": 35.631761759172591, "lon": 139.73522833802869, "title": "高輪　花香路（グランドプリンスホテル高輪内）" }, "geometry": { "type": "Point", "coordinates": [ 139.735228338028691, 35.631761759172591 ] } },
{ "type": "Feature", "properties": { "lat": 35.6399793, "lon": 139.7389219, "title": "ＨＯＴＥＬ　Ｒｉｎ　ＴＯＫＹＯ" }, "geometry": { "type": "Point", "coordinates": [ 139.7389219, 35.6399793 ] } },
{ "type": "Feature", "properties": { "lat": 35.62897769, "lon": 139.7355734, "title": "京急ＥＸホテル高輪（２０２６年２月２７日リニューアルオープン）" }, "geometry": { "type": "Point", "coordinates": [ 139.7355734, 35.62897769 ] } },
{ "type": "Feature", "properties": { "lat": 35.6471717, "lon": 139.7374675, "title": "Ｔｈｅ　３ｒｄ　Ｒｅｓｉｄｅｎｔｉａｌ　Ｓｕｉｔｅ　ＳＨＩＲＯＫＡＮＥ／民泊" }, "geometry": { "type": "Point", "coordinates": [ 139.7374675, 35.6471717 ] } },
{ "type": "Feature", "properties": { "lat": 35.6524573, "lon": 139.7462442, "title": "ＴｏｋｙｏＳｕｎｓｈｉｎｅＴｏｗｅｒ　＾" }, "geometry": { "type": "Point", "coordinates": [ 139.7462442, 35.6524573 ] } },
{ "type": "Feature", "properties": { "lat": 35.6419584, "lon": 139.7474317, "title": "シーサイド田町／民泊" }, "geometry": { "type": "Point", "coordinates": [ 139.7474317, 35.6419584 ] } },
{ "type": "Feature", "properties": { "lat": 35.6319236, "lon": 139.7310845, "title": "Ｔｉｍｅ　Ｃａｍｐ高輪２階　＾" }, "geometry": { "type": "Point", "coordinates": [ 139.7310845, 35.6319236 ] } },
{ "type": "Feature", "properties": { "lat": 35.6283604, "lon": 139.7330513, "title": "Ｐａｎｇｏｏ品川" }, "geometry": { "type": "Point", "coordinates": [ 139.7330513, 35.6283604 ] } },
{ "type": "Feature", "properties": { "lat": 35.6356063, "lon": 139.7388576, "title": "ＪＷマリオット・ホテル東京" }, "geometry": { "type": "Point", "coordinates": [ 139.738857599999989, 35.6356063 ] } },
{ "type": "Feature", "properties": { "lat": 35.6595429, "lon": 139.7058053, "title": "サクラ・フルール　青山" }, "geometry": { "type": "Point", "coordinates": [ 139.7058053, 35.6595429 ] } },
{ "type": "Feature", "properties": { "lat": 35.66577822, "lon": 139.7022692, "title": "ドーミーインＰＲＥＭＩＵＭ渋谷神宮前（ドーミーイン・御宿野乃　ホテルズグループ）" }, "geometry": { "type": "Point", "coordinates": [ 139.702269199999989, 35.66577822 ] } },
{ "type": "Feature", "properties": { "lat": 35.65624031, "lon": 139.6990615, "title": "セルリアンタワー東急ホテル" }, "geometry": { "type": "Point", "coordinates": [ 139.6990615, 35.65624031 ] } },
{ "type": "Feature", "properties": { "lat": 35.656219677673391, "lon": 139.6950147276342, "title": "アパホテル〈渋谷道玄坂上〉" }, "geometry": { "type": "Point", "coordinates": [ 139.695014727634202, 35.656219677673391 ] } },
{ "type": "Feature", "properties": { "lat": 35.65590715, "lon": 139.7040806, "title": "ＪＲ東日本ホテルメッツ渋谷" }, "geometry": { "type": "Point", "coordinates": [ 139.7040806, 35.65590715 ] } },
{ "type": "Feature", "properties": { "lat": 35.65870117, "lon": 139.6998558, "title": "渋谷エクセルホテル東急" }, "geometry": { "type": "Point", "coordinates": [ 139.6998558, 35.65870117 ] } },
{ "type": "Feature", "properties": { "lat": 35.66308953, "lon": 139.6986113, "title": "渋谷東武ホテル" }, "geometry": { "type": "Point", "coordinates": [ 139.69861130000001, 35.66308953 ] } },
{ "type": "Feature", "properties": { "lat": 35.65481842, "lon": 139.7051472, "title": "東急ステイ渋谷新南口" }, "geometry": { "type": "Point", "coordinates": [ 139.7051472, 35.65481842 ] } },
{ "type": "Feature", "properties": { "lat": 35.664898, "lon": 139.6940757, "title": "Ｔａｂｉｓｔ　ホテルニューワシントン　渋谷" }, "geometry": { "type": "Point", "coordinates": [ 139.694075700000013, 35.664898 ] } },
{ "type": "Feature", "properties": { "lat": 35.66020384, "lon": 139.7020056, "title": "渋谷東急ＲＥＩホテル" }, "geometry": { "type": "Point", "coordinates": [ 139.7020056, 35.66020384 ] } },
{ "type": "Feature", "properties": { "lat": 35.6641714, "lon": 139.7000676, "title": "ザ・ワンファイブ東京渋谷" }, "geometry": { "type": "Point", "coordinates": [ 139.700067600000011, 35.6641714 ] } },
{ "type": "Feature", "properties": { "lat": 35.657139, "lon": 139.7030203, "title": "ＳＨＩＢＵＹＡ　ＳＴＲＥＡＭ　ＨＯＴＥＬ" }, "geometry": { "type": "Point", "coordinates": [ 139.703020299999906, 35.657139 ] } },
{ "type": "Feature", "properties": { "lat": 35.663448209039579, "lon": 139.70181099968019, "title": "ｓｅｑｕｅｎｃｅ　ＭＩＹＡＳＨＩＴＡ　ＰＡＲＫ" }, "geometry": { "type": "Point", "coordinates": [ 139.701810999680191, 35.663448209039579 ] } },
{ "type": "Feature", "properties": { "lat": 35.64790266, "lon": 139.7100943, "title": "ドシー恵比寿" }, "geometry": { "type": "Point", "coordinates": [ 139.7100943, 35.64790266 ] } },
{ "type": "Feature", "properties": { "lat": 35.64535873506177, "lon": 139.70707531132911, "title": "プリンス　スマート　イン　恵比寿" }, "geometry": { "type": "Point", "coordinates": [ 139.707075311329106, 35.64535873506177 ] } },
{ "type": "Feature", "properties": { "lat": 35.65565413, "lon": 139.6937315, "title": "東急ステイ渋谷　（道玄坂上）" }, "geometry": { "type": "Point", "coordinates": [ 139.693731500000013, 35.65565413 ] } },
{ "type": "Feature", "properties": { "lat": 35.65500090502497, "lon": 139.69974046319459, "title": "ＣＯＭＭＵＮ　ＳＨＩＢＵＹＡ（コミュン　渋谷）" }, "geometry": { "type": "Point", "coordinates": [ 139.699740463194587, 35.65500090502497 ] } },
{ "type": "Feature", "properties": { "lat": 35.6699481, "lon": 139.6875296000001, "title": "ａｌｍｏｎｄ　ｈｏｓｔｅｌ　＆　ｃａｆｅ" }, "geometry": { "type": "Point", "coordinates": [ 139.68752960000009, 35.6699481 ] } },
{ "type": "Feature", "properties": { "lat": 35.66320053, "lon": 139.6949033, "title": "渋谷クレストンホテル" }, "geometry": { "type": "Point", "coordinates": [ 139.6949033, 35.66320053 ] } },
{ "type": "Feature", "properties": { "lat": 35.65625427, "lon": 139.7016169, "title": "渋谷グランベルホテル" }, "geometry": { "type": "Point", "coordinates": [ 139.7016169, 35.65625427 ] } },
{ "type": "Feature", "properties": { "lat": 35.644374, "lon": 139.709459, "title": "恵比寿ホリックホテル" }, "geometry": { "type": "Point", "coordinates": [ 139.709459, 35.644374 ] } },
{ "type": "Feature", "properties": { "lat": 35.6553861, "lon": 139.6929157, "title": "Ｔｕｒｎ　Ｔａｂｌｅ" }, "geometry": { "type": "Point", "coordinates": [ 139.692915699999986, 35.6553861 ] } },
{ "type": "Feature", "properties": { "lat": 35.65913, "lon": 139.6972062, "title": "ホテル　ダイヤモンド" }, "geometry": { "type": "Point", "coordinates": [ 139.697206200000011, 35.65913 ] } },
{ "type": "Feature", "properties": { "lat": 35.65991203, "lon": 139.6953867, "title": "ＳＨＩＢＵＹＡ　ＨＯＴＥＬ　ＥＮ（渋谷ホテル　エン）" }, "geometry": { "type": "Point", "coordinates": [ 139.6953867, 35.65991203 ] } },
{ "type": "Feature", "properties": { "lat": 35.6534542, "lon": 139.7071155, "title": "ホテルグラフィー渋谷（ＨＯＴＥＬ　ＧＲＡＰＨＹ　渋谷）" }, "geometry": { "type": "Point", "coordinates": [ 139.707115499999986, 35.6534542 ] } },
{ "type": "Feature", "properties": { "lat": 35.66257, "lon": 139.6983586, "title": "ｌｙｆ渋谷東京（ライフ渋谷東京）" }, "geometry": { "type": "Point", "coordinates": [ 139.6983586, 35.66257 ] } },
{ "type": "Feature", "properties": { "lat": 35.6621966, "lon": 139.6996954, "title": "ザ　ミレニアルズ渋谷（ＴＨＥ　ＭＩＬＬＥＮＮＩＡＬＳ）" }, "geometry": { "type": "Point", "coordinates": [ 139.6996954, 35.6621966 ] } },
{ "type": "Feature", "properties": { "lat": 35.660059378075971, "lon": 139.69717710317991, "title": "ホテルインディゴ東京渋谷　ｂｙ　ＩＨＧ" }, "geometry": { "type": "Point", "coordinates": [ 139.697177103179911, 35.660059378075971 ] } },
{ "type": "Feature", "properties": { "lat": 35.6597555, "lon": 139.6950761, "title": "ＢｏｏｋＴｅａＢｅｄ　渋谷" }, "geometry": { "type": "Point", "coordinates": [ 139.6950761, 35.6597555 ] } },
{ "type": "Feature", "properties": { "lat": 35.6614482, "lon": 139.7031089, "title": "ａｌｌ　ｄａｙ　ｐｌａｃｅ　ｓｈｉｂｕｙａ" }, "geometry": { "type": "Point", "coordinates": [ 139.703108899999989, 35.6614482 ] } },
{ "type": "Feature", "properties": { "lat": 35.6669134, "lon": 139.7053078, "title": "マイグレ　ｐｅｔｉｔ　渋谷原宿" }, "geometry": { "type": "Point", "coordinates": [ 139.705307800000014, 35.6669134 ] } },
{ "type": "Feature", "properties": { "lat": 35.6539145, "lon": 139.7096392, "title": "Ｓｈｉｂｕｙａ　Ａｎｏｎ／Ｂｕｉｌｄｉｎｇ　Ｂ／民泊" }, "geometry": { "type": "Point", "coordinates": [ 139.7096392, 35.6539145 ] } },
{ "type": "Feature", "properties": { "lat": 35.658237713806621, "lon": 139.69479863252349, "title": "ＯＬＤ　ＨＥＲＩＴＡＧＥ　ＳＨＩＢＵＹＡ" }, "geometry": { "type": "Point", "coordinates": [ 139.694798632523487, 35.658237713806621 ] } },
{ "type": "Feature", "properties": { "lat": 35.6577998, "lon": 139.6948268, "title": "レガリアヒルズ／民泊" }, "geometry": { "type": "Point", "coordinates": [ 139.694826799999987, 35.6577998 ] } },
{ "type": "Feature", "properties": { "lat": 35.6577989, "lon": 139.6948037, "title": "レガリアヒルズ２０１／民泊" }, "geometry": { "type": "Point", "coordinates": [ 139.6948037, 35.6577989 ] } },
{ "type": "Feature", "properties": { "lat": 35.6449015, "lon": 139.718524, "title": "Ｔｕｎｅ　Ｉｎｎ　Ｅｂｉｓｕ　＾" }, "geometry": { "type": "Point", "coordinates": [ 139.718524, 35.6449015 ] } },
{ "type": "Feature", "properties": { "lat": 35.649615, "lon": 139.7091577, "title": "ｉｌｌｉ　Ｌａｙ　ＳｈｉｂｕｙａーＥｂｉｓｕ" }, "geometry": { "type": "Point", "coordinates": [ 139.7091577, 35.649615 ] } },
{ "type": "Feature", "properties": { "lat": 35.6551167, "lon": 139.6929823, "title": "ＮＡＤＥＳＨＩＫＯ　ＨＯＴＥＬ　ＳＨＩＢＵＹＡ　ｂｙ　ｕｎｉｔｏ" }, "geometry": { "type": "Point", "coordinates": [ 139.692982300000011, 35.6551167 ] } },
{ "type": "Feature", "properties": { "lat": 35.6621262, "lon": 139.6956445, "title": "ｉｌｌｉ　Ｍａｎｉ　Ｓｈｉｂｕｙａ" }, "geometry": { "type": "Point", "coordinates": [ 139.695644499999986, 35.6621262 ] } },
{ "type": "Feature", "properties": { "lat": 35.6674014, "lon": 139.6813169, "title": "ＡＢＵＲＡ　ＨＡＵＳ／民泊" }, "geometry": { "type": "Point", "coordinates": [ 139.681316900000013, 35.6674014 ] } },
{ "type": "Feature", "properties": { "lat": 35.654031, "lon": 139.6988332, "title": "夢玄坂　＾" }, "geometry": { "type": "Point", "coordinates": [ 139.6988332, 35.654031 ] } },
{ "type": "Feature", "properties": { "lat": 35.6624281, "lon": 139.694388, "title": "渋谷シティハウス　Ｓｈｉｂｕｙａ　Ｃｉｔｙ　Ｈｏｕｓｅ／民泊" }, "geometry": { "type": "Point", "coordinates": [ 139.694388, 35.6624281 ] } },
{ "type": "Feature", "properties": { "lat": 35.6593021, "lon": 139.6967812, "title": "ＬＶＢ渋谷道玄坂／民泊" }, "geometry": { "type": "Point", "coordinates": [ 139.6967812, 35.6593021 ] } },
{ "type": "Feature", "properties": { "lat": 35.6570844, "lon": 139.6975259, "title": "ｉｌｌｉ　Ｔｒｉａ　Ｓｈｉｂｕｙａ" }, "geometry": { "type": "Point", "coordinates": [ 139.697525899999988, 35.6570844 ] } },
{ "type": "Feature", "properties": { "lat": 35.6452553, "lon": 139.7137758, "title": "ＪＲ恵比寿駅徒歩４分★築浅戸建３階建７０平米２ＬＤＫ★定員８名／民泊" }, "geometry": { "type": "Point", "coordinates": [ 139.7137758, 35.6452553 ] } },
{ "type": "Feature", "properties": { "lat": 35.6799869, "lon": 139.6817057, "title": "ＬｉｖｅＧＲＡＣＥ　Ｈｏｔｅｌ　渋谷西新宿　＾" }, "geometry": { "type": "Point", "coordinates": [ 139.6817057, 35.6799869 ] } },
{ "type": "Feature", "properties": { "lat": 35.6559333, "lon": 139.6936714, "title": "円山町戸建て／ＴＥＲＲＡＣＥ　ＨＯＵＳＥ　Ｓｈｉｂｕｙａ　Ｍａｒｕｙａｍａｃｈｏ　＾" }, "geometry": { "type": "Point", "coordinates": [ 139.6936714, 35.6559333 ] } },
{ "type": "Feature", "properties": { "lat": 35.658235, "lon": 139.6938795, "title": "【５泊以上のご予約で送迎無料】渋谷中心部から徒歩５分　２階建一戸建　＾" }, "geometry": { "type": "Point", "coordinates": [ 139.6938795, 35.658235 ] } },
{ "type": "Feature", "properties": { "lat": 35.6592288, "lon": 139.6960633, "title": "ＳＬＥＥＰＬＡＢ　ＴＨＥ　ＳＴＡＹ　渋谷" }, "geometry": { "type": "Point", "coordinates": [ 139.6960633, 35.6592288 ] } },
{ "type": "Feature", "properties": { "lat": 35.6549711, "lon": 139.6970904, "title": "ＳＴＡＲＲＹ　ＳＴＡＹ　ＨＯＵＳＥ　ＳＨＩＢＵＹＡ　Ｉ　＾" }, "geometry": { "type": "Point", "coordinates": [ 139.6970904, 35.6549711 ] } },
{ "type": "Feature", "properties": { "lat": 35.6583108, "lon": 139.6926647, "title": "Ｒｅ：ＯＮｃＥ　Ｓｈｉｂｕｙａ" }, "geometry": { "type": "Point", "coordinates": [ 139.6926647, 35.6583108 ] } },
{ "type": "Feature", "properties": { "lat": 35.6449406, "lon": 139.7185155, "title": "Ｔｕｎｅ　Ｉｎｎ　Ｅｂｉｓｕ　＃２／民泊" }, "geometry": { "type": "Point", "coordinates": [ 139.7185155, 35.6449406 ] } },
{ "type": "Feature", "properties": { "lat": 35.6449406, "lon": 139.7185155, "title": "Ｔｕｎｅ　Ｉｎｎ　Ｅｂｉｓｕ　＃３／民泊" }, "geometry": { "type": "Point", "coordinates": [ 139.7185155, 35.6449406 ] } },
{ "type": "Feature", "properties": { "lat": 35.6640501, "lon": 139.7036024, "title": "東遊居★音房　＾" }, "geometry": { "type": "Point", "coordinates": [ 139.7036024, 35.6640501 ] } },
{ "type": "Feature", "properties": { "lat": 35.6460536, "lon": 139.7181549, "title": "恵比寿・渋谷／ＡＲＴＩＳＴＩＣ　ＨＯＵＳＥ／民泊" }, "geometry": { "type": "Point", "coordinates": [ 139.7181549, 35.6460536 ] } },
{ "type": "Feature", "properties": { "lat": 35.6579803, "lon": 139.7094984, "title": "渋谷Ｅアドレス／民泊" }, "geometry": { "type": "Point", "coordinates": [ 139.7094984, 35.6579803 ] } },
{ "type": "Feature", "properties": { "lat": 35.6576141, "lon": 139.7082392, "title": "防犯カメラ・管理人・敷地内　禁煙の安全なマンション／民泊" }, "geometry": { "type": "Point", "coordinates": [ 139.7082392, 35.6576141 ] } },
{ "type": "Feature", "properties": { "lat": 35.6592288, "lon": 139.6960633, "title": "ｅｂｅｅ＇ｓ　Ｒｏｏｍ　ＳＨＩＢＵＹＡ　－　渋谷駅徒歩５分　キッチン付き！／民泊" }, "geometry": { "type": "Point", "coordinates": [ 139.6960633, 35.6592288 ] } },
{ "type": "Feature", "properties": { "lat": 35.6593021, "lon": 139.6967812, "title": "藤和エクシール道玄坂８０２／民泊" }, "geometry": { "type": "Point", "coordinates": [ 139.6967812, 35.6593021 ] } },
{ "type": "Feature", "properties": { "lat": 35.6662446, "lon": 139.7060239, "title": "ＴＡＵＲＵＳ　５０２　＾" }, "geometry": { "type": "Point", "coordinates": [ 139.7060239, 35.6662446 ] } },
{ "type": "Feature", "properties": { "lat": 35.6662446, "lon": 139.7060239, "title": "ＴＡＵＲＵＳ　５０１　＾" }, "geometry": { "type": "Point", "coordinates": [ 139.7060239, 35.6662446 ] } },
{ "type": "Feature", "properties": { "lat": 35.649857, "lon": 139.7044861, "title": "ＶＡＳ代官山物件／民泊" }, "geometry": { "type": "Point", "coordinates": [ 139.7044861, 35.649857 ] } },
{ "type": "Feature", "properties": { "lat": 35.6538034, "lon": 139.7096281, "title": "Ｓｈｉｂｕｙａ　Ａｎｏｎ／Ｂｕｉｌｄｉｎｇ　Ａ／民泊" }, "geometry": { "type": "Point", "coordinates": [ 139.7096281, 35.6538034 ] } },
{ "type": "Feature", "properties": { "lat": 35.6825075, "lon": 139.6833351, "title": "グランディオーソ初台／民泊" }, "geometry": { "type": "Point", "coordinates": [ 139.6833351, 35.6825075 ] } },
{ "type": "Feature", "properties": { "lat": 35.6480265, "lon": 139.7192721, "title": "Ｅｂｉｓｕ　Ｈｉｒｏｏ　ｈｏｕｓｅ／民泊" }, "geometry": { "type": "Point", "coordinates": [ 139.719272100000012, 35.6480265 ] } },
{ "type": "Feature", "properties": { "lat": 35.6629005, "lon": 139.6953852, "title": "サロン渋谷　＾" }, "geometry": { "type": "Point", "coordinates": [ 139.6953852, 35.6629005 ] } },
{ "type": "Feature", "properties": { "lat": 35.6625403, "lon": 139.7011408, "title": "ダイネス壱番館渋谷６０８／民泊" }, "geometry": { "type": "Point", "coordinates": [ 139.7011408, 35.6625403 ] } },
{ "type": "Feature", "properties": { "lat": 35.6723889, "lon": 139.7096564, "title": "フードビル／民泊" }, "geometry": { "type": "Point", "coordinates": [ 139.7096564, 35.6723889 ] } },
{ "type": "Feature", "properties": { "lat": 35.6625432, "lon": 139.7011295, "title": "レジデンシャルホテル　ダイネス壱番館渋谷　４０５" }, "geometry": { "type": "Point", "coordinates": [ 139.7011295, 35.6625432 ] } },
{ "type": "Feature", "properties": { "lat": 35.6473468, "lon": 139.7205231, "title": "マツリホテルルフレ恵比寿２０１" }, "geometry": { "type": "Point", "coordinates": [ 139.7205231, 35.6473468 ] } },
{ "type": "Feature", "properties": { "lat": 35.6473468, "lon": 139.7205231, "title": "マツリホテルルフレ恵比寿４０１" }, "geometry": { "type": "Point", "coordinates": [ 139.7205231, 35.6473468 ] } },
{ "type": "Feature", "properties": { "lat": 35.656642, "lon": 139.7062054, "title": "渋谷ウェーブ" }, "geometry": { "type": "Point", "coordinates": [ 139.706205399999988, 35.656642 ] } },
{ "type": "Feature", "properties": { "lat": 35.6779194, "lon": 139.6799511, "title": "バルコニーからの素敵な夜景・最上階！Ｆｏｒｅｓｔ　Ｙｏｙｏｇｉ　＾" }, "geometry": { "type": "Point", "coordinates": [ 139.679951100000011, 35.6779194 ] } },
{ "type": "Feature", "properties": { "lat": 35.6590763, "lon": 139.6964422, "title": "ライオンズマンション道玄坂／民泊" }, "geometry": { "type": "Point", "coordinates": [ 139.6964422, 35.6590763 ] } },
{ "type": "Feature", "properties": { "lat": 35.64467372, "lon": 139.7165246, "title": "ｅｂｉｓｕ　ｂｌｕｅ　＾" }, "geometry": { "type": "Point", "coordinates": [ 139.716524600000014, 35.64467372 ] } },
{ "type": "Feature", "properties": { "lat": 35.67709168, "lon": 139.679595, "title": "Ｂｅｅ　Ｈｏｕｓｅ　Ｎｉｓｈｉｈａｒａ　＾" }, "geometry": { "type": "Point", "coordinates": [ 139.679595, 35.67709168 ] } },
{ "type": "Feature", "properties": { "lat": 35.6454606, "lon": 139.7189154, "title": "ＨＡＮ’Ｓ　ＥＢＩＳＵ" }, "geometry": { "type": "Point", "coordinates": [ 139.718915399999986, 35.6454606 ] } },
{ "type": "Feature", "properties": { "lat": 35.651267, "lon": 139.6981574, "title": "ＡＩ　ＤＡＩＫＡＮＹＡＭＡ／民泊" }, "geometry": { "type": "Point", "coordinates": [ 139.698157400000014, 35.651267 ] } },
{ "type": "Feature", "properties": { "lat": 35.6563924, "lon": 139.6965651, "title": "渋谷文化進化ＳＴＡＹ" }, "geometry": { "type": "Point", "coordinates": [ 139.696565099999987, 35.6563924 ] } },
{ "type": "Feature", "properties": { "lat": 35.647068, "lon": 139.7083298, "title": "東急ステイ渋谷　恵比寿（２０２６年３月１７日オープン）" }, "geometry": { "type": "Point", "coordinates": [ 139.7083298, 35.647068 ] } },
{ "type": "Feature", "properties": { "lat": 35.659467, "lon": 139.6974593, "title": "ヴィラジュリア道玄坂【大人専用１８禁・ハピホテ提携】" }, "geometry": { "type": "Point", "coordinates": [ 139.6974593, 35.659467 ] } },
{ "type": "Feature", "properties": { "lat": 35.658619972093042, "lon": 139.6951107260835, "title": "ＨＯＴＥＬ　ＳＵＬＡＴＡ　渋谷道玄坂【大人専用１８禁・ハピホテ提携】" }, "geometry": { "type": "Point", "coordinates": [ 139.695110726083499, 35.658619972093042 ] } },
{ "type": "Feature", "properties": { "lat": 35.6579945, "lon": 139.7095067, "title": "渋谷Ｅアドレス　Ｏｈａｎａ’ｓ　ｈｏｍｅ／民泊" }, "geometry": { "type": "Point", "coordinates": [ 139.7095067, 35.6579945 ] } },
{ "type": "Feature", "properties": { "lat": 35.656086351079722, "lon": 139.6936457141382, "title": "Ｓｈｉｂｕｙａ　Ｃａｐｓｕｌｅ　Ｂａｍｂｏｏ　Ｈｏｔｅｌ" }, "geometry": { "type": "Point", "coordinates": [ 139.693645714138199, 35.656086351079722 ] } },
{ "type": "Feature", "properties": { "lat": 35.6576866, "lon": 139.6947133, "title": "渋谷ハウス御室" }, "geometry": { "type": "Point", "coordinates": [ 139.694713299999989, 35.6576866 ] } },
{ "type": "Feature", "properties": { "lat": 35.6642386, "lon": 139.7038637, "title": "準備中" }, "geometry": { "type": "Point", "coordinates": [ 139.7038637, 35.6642386 ] } },
{ "type": "Feature", "properties": { "lat": 35.659078744935996, "lon": 139.69492587546321, "title": "ＨＯＴＥＬ　０３【大人専用１８禁・ハピホテ提携】" }, "geometry": { "type": "Point", "coordinates": [ 139.694925875463213, 35.659078744935996 ] } },
{ "type": "Feature", "properties": { "lat": 35.689699023460918, "lon": 139.68351793068851, "title": "アパホテル＆リゾート〈西新宿五丁目駅前タワー〉" }, "geometry": { "type": "Point", "coordinates": [ 139.68351793068851, 35.689699023460918 ] } },
{ "type": "Feature", "properties": { "lat": 35.68647584, "lon": 139.7004213, "title": "小田急ホテルセンチュリーサザンタワー" }, "geometry": { "type": "Point", "coordinates": [ 139.700421299999988, 35.68647584 ] } },
{ "type": "Feature", "properties": { "lat": 35.67301526, "lon": 139.6635361, "title": "ホテル　ブーゲンビリア新宿（旧ホテル　ラ・ガール・ドゥ・ラ　ヴィー新宿）" }, "geometry": { "type": "Point", "coordinates": [ 139.663536099999988, 35.67301526 ] } },
{ "type": "Feature", "properties": { "lat": 35.683848343848638, "lon": 139.70140622887081, "title": "全理連　代々木の宿（旧　全理連宿泊部）" }, "geometry": { "type": "Point", "coordinates": [ 139.701406228870809, 35.683848343848638 ] } },
{ "type": "Feature", "properties": { "lat": 35.68745346, "lon": 139.6986881, "title": "景雲荘" }, "geometry": { "type": "Point", "coordinates": [ 139.6986881, 35.68745346 ] } },
{ "type": "Feature", "properties": { "lat": 35.676930352515022, "lon": 139.67524903809809, "title": "西新宿グリーンホテル（旧：ホテルノーブル）" }, "geometry": { "type": "Point", "coordinates": [ 139.675249038098087, 35.676930352515022 ] } },
{ "type": "Feature", "properties": { "lat": 35.68720349, "lon": 139.6988131, "title": "ホテルサンルートプラザ新宿" }, "geometry": { "type": "Point", "coordinates": [ 139.6988131, 35.68720349 ] } },
{ "type": "Feature", "properties": { "lat": 35.687654141047332, "lon": 139.69834231170671, "title": "ＪＲ九州ホテルブラッサム新宿" }, "geometry": { "type": "Point", "coordinates": [ 139.69834231170671, 35.687654141047332 ] } },
{ "type": "Feature", "properties": { "lat": 35.6835195, "lon": 139.6840994, "title": "ＡＲＴ　ＨＯＴＥＬＳ　ＳＨＩＢＵＹＡ" }, "geometry": { "type": "Point", "coordinates": [ 139.6840994, 35.6835195 ] } },
{ "type": "Feature", "properties": { "lat": 35.67611526, "lon": 139.676671, "title": "サクラホテル幡ヶ谷" }, "geometry": { "type": "Point", "coordinates": [ 139.676671, 35.67611526 ] } },
{ "type": "Feature", "properties": { "lat": 35.6742172, "lon": 139.6677526, "title": "ＫＡＲＩＯ笹塚" }, "geometry": { "type": "Point", "coordinates": [ 139.6677526, 35.6742172 ] } },
{ "type": "Feature", "properties": { "lat": 35.6759051, "lon": 139.6713459, "title": "ＨＩＭＡＬＡＹＡ　ＣＬＯＵＤ　ＨＯＴＥＬ" }, "geometry": { "type": "Point", "coordinates": [ 139.6713459, 35.6759051 ] } },
{ "type": "Feature", "properties": { "lat": 35.6804088, "lon": 139.6755502, "title": "ルアナ渋谷" }, "geometry": { "type": "Point", "coordinates": [ 139.6755502, 35.6804088 ] } },
{ "type": "Feature", "properties": { "lat": 35.682816727527161, "lon": 139.69921723835191, "title": "将ハウス" }, "geometry": { "type": "Point", "coordinates": [ 139.699217238351906, 35.682816727527161 ] } },
{ "type": "Feature", "properties": { "lat": 35.6846076, "lon": 139.680629, "title": "スタイルウッド西新宿" }, "geometry": { "type": "Point", "coordinates": [ 139.680629, 35.6846076 ] } },
{ "type": "Feature", "properties": { "lat": 35.6819674, "lon": 139.6817954, "title": "Ｍａｒｉｎｅ　Ｃｏｖｅ　初台" }, "geometry": { "type": "Point", "coordinates": [ 139.6817954, 35.6819674 ] } },
{ "type": "Feature", "properties": { "lat": 35.6797265, "lon": 139.6746179, "title": "ＬＩＶＩＯＮ　Ｖ　幡ヶ谷" }, "geometry": { "type": "Point", "coordinates": [ 139.674617899999987, 35.6797265 ] } },
{ "type": "Feature", "properties": { "lat": 35.6748155, "lon": 139.6732124, "title": "ＪＩＮＧ　ＨＯＵＳＥ渋谷ダブルベッド／新宿・渋谷駅近／民泊" }, "geometry": { "type": "Point", "coordinates": [ 139.673212400000011, 35.6748155 ] } },
{ "type": "Feature", "properties": { "lat": 35.6806388, "lon": 139.7004161, "title": "代々木フラッツ／民泊" }, "geometry": { "type": "Point", "coordinates": [ 139.700416100000012, 35.6806388 ] } },
{ "type": "Feature", "properties": { "lat": 35.6870275, "lon": 139.6805193, "title": "グラシアス渋谷本町　＾" }, "geometry": { "type": "Point", "coordinates": [ 139.680519299999986, 35.6870275 ] } },
{ "type": "Feature", "properties": { "lat": 35.68062246, "lon": 139.7006883, "title": "代々木ニューフラッツ／民泊" }, "geometry": { "type": "Point", "coordinates": [ 139.7006883, 35.68062246 ] } },
{ "type": "Feature", "properties": { "lat": 35.6765361, "lon": 139.675196, "title": "ｃａｓａ　ｈａｎａ　＾" }, "geometry": { "type": "Point", "coordinates": [ 139.675196, 35.6765361 ] } },
{ "type": "Feature", "properties": { "lat": 35.6805473, "lon": 139.6839688, "title": "ＡＣＯＥ　ＦＵＹＵ　ＨＡＴＳＵＤＡＩ／民泊" }, "geometry": { "type": "Point", "coordinates": [ 139.6839688, 35.6805473 ] } },
{ "type": "Feature", "properties": { "lat": 35.6680112, "lon": 139.6902448, "title": "Ａｐｔ＃０３１　Ｙｏｙｏｇｉ　Ｐａｒｋ　Ｈｏｔｅｌ　＾" }, "geometry": { "type": "Point", "coordinates": [ 139.690244799999988, 35.6680112 ] } },
{ "type": "Feature", "properties": { "lat": 35.6816955, "lon": 139.6993341, "title": "さくら代々木／民泊" }, "geometry": { "type": "Point", "coordinates": [ 139.699334099999987, 35.6816955 ] } },
{ "type": "Feature", "properties": { "lat": 35.677079730235732, "lon": 139.66735385525431, "title": "ｒａｋｕｎａ　Ｉｎｎ　動〜ｓａｓａｚｕｋａ　笹塚駅徒歩７分　＾" }, "geometry": { "type": "Point", "coordinates": [ 139.667353855254305, 35.677079730235732 ] } },
{ "type": "Feature", "properties": { "lat": 35.6820492, "lon": 139.6985862, "title": "ＴＳアネックス代々木／民泊" }, "geometry": { "type": "Point", "coordinates": [ 139.6985862, 35.6820492 ] } },
{ "type": "Feature", "properties": { "lat": 35.6829005, "lon": 139.6989651, "title": "新宿シティハウス　Ｓｈｉｎｊｕｋｕ　Ｃｉｔｙ　Ｈｏｕｓｅ／民泊" }, "geometry": { "type": "Point", "coordinates": [ 139.6989651, 35.6829005 ] } },
{ "type": "Feature", "properties": { "lat": 35.6818811, "lon": 139.7003313, "title": "代々木ホームズ／民泊" }, "geometry": { "type": "Point", "coordinates": [ 139.700331299999988, 35.6818811 ] } },
{ "type": "Feature", "properties": { "lat": 35.6843992, "lon": 139.6829921, "title": "Ｓｅｉｒａｉ　Ｖａｃａｔｉｏｎ　Ｒｅｎｔａｌ　Ｈａｔｓｕｄａｉ　＾" }, "geometry": { "type": "Point", "coordinates": [ 139.6829921, 35.6843992 ] } },
{ "type": "Feature", "properties": { "lat": 35.6772255, "lon": 139.692314, "title": "Ｎｏｒｔｈ　Ｃｏｔｔａｇｅ　＾" }, "geometry": { "type": "Point", "coordinates": [ 139.692314, 35.6772255 ] } },
{ "type": "Feature", "properties": { "lat": 35.6780273, "lon": 139.6767275, "title": "いいね！プレイス" }, "geometry": { "type": "Point", "coordinates": [ 139.6767275, 35.6780273 ] } },
{ "type": "Feature", "properties": { "lat": 35.6820551, "lon": 139.674259, "title": "泉庵　＾" }, "geometry": { "type": "Point", "coordinates": [ 139.674259, 35.6820551 ] } },
{ "type": "Feature", "properties": { "lat": 35.6778834, "lon": 139.6829818, "title": "ＦＣ　ＨＯＵＳＥ　ＳＨＩＢＵＹＡ＿２０１　＾" }, "geometry": { "type": "Point", "coordinates": [ 139.6829818, 35.6778834 ] } },
{ "type": "Feature", "properties": { "lat": 35.680457, "lon": 139.6762355, "title": "ＡＩＳ　幡ヶ谷３／民泊" }, "geometry": { "type": "Point", "coordinates": [ 139.6762355, 35.680457 ] } },
{ "type": "Feature", "properties": { "lat": 35.680457, "lon": 139.6762355, "title": "ＡＩＳ　幡ヶ谷６／民泊" }, "geometry": { "type": "Point", "coordinates": [ 139.6762355, 35.680457 ] } },
{ "type": "Feature", "properties": { "lat": 35.6824298, "lon": 139.6741212, "title": "マツリホテル幡ヶ谷" }, "geometry": { "type": "Point", "coordinates": [ 139.6741212, 35.6824298 ] } },
{ "type": "Feature", "properties": { "lat": 35.6855992, "lon": 139.7040313, "title": "ＳＰＡＣＥ　Ｆ　ＹＯＹＯＧＩ　Ｖ" }, "geometry": { "type": "Point", "coordinates": [ 139.7040313, 35.6855992 ] } },
{ "type": "Feature", "properties": { "lat": 35.6778834, "lon": 139.6829818, "title": "ＳＨＩＢＵＹＡ　Ｎｏ．２Ｎｏ．３／民泊" }, "geometry": { "type": "Point", "coordinates": [ 139.6829818, 35.6778834 ] } },
{ "type": "Feature", "properties": { "lat": 35.6787401, "lon": 139.6785156, "title": "Ｂｅｅ　Ｈｏｍｅｓ　－　幡ヶ谷ハイム　＾" }, "geometry": { "type": "Point", "coordinates": [ 139.6785156, 35.6787401 ] } },
{ "type": "Feature", "properties": { "lat": 35.6777477, "lon": 139.6691855, "title": "ブルックリンスタイルアパートメント／民泊" }, "geometry": { "type": "Point", "coordinates": [ 139.6691855, 35.6777477 ] } },
{ "type": "Feature", "properties": { "lat": 35.6846333, "lon": 139.680938, "title": "スマイルハウス／民泊" }, "geometry": { "type": "Point", "coordinates": [ 139.680938, 35.6846333 ] } },
{ "type": "Feature", "properties": { "lat": 35.68366608, "lon": 139.6786713, "title": "椿／民泊" }, "geometry": { "type": "Point", "coordinates": [ 139.6786713, 35.68366608 ] } },
{ "type": "Feature", "properties": { "lat": 35.6795165, "lon": 139.6728037, "title": "フラワーハウス／民泊" }, "geometry": { "type": "Point", "coordinates": [ 139.6728037, 35.6795165 ] } },
{ "type": "Feature", "properties": { "lat": 35.6806129, "lon": 139.6771078, "title": "Ｆｕｌｌ　Ｈｏｕｓｅ１０１" }, "geometry": { "type": "Point", "coordinates": [ 139.677107799999987, 35.6806129 ] } },
{ "type": "Feature", "properties": { "lat": 35.6806129, "lon": 139.6771078, "title": "Ｆｕｌｌ　Ｈｏｕｓｅ１０２" }, "geometry": { "type": "Point", "coordinates": [ 139.677107799999987, 35.6806129 ] } },
{ "type": "Feature", "properties": { "lat": 35.6806129, "lon": 139.6771078, "title": "Ｆｕｌｌ　Ｈｏｕｓｅ２０１" }, "geometry": { "type": "Point", "coordinates": [ 139.677107799999987, 35.6806129 ] } },
{ "type": "Feature", "properties": { "lat": 35.6806129, "lon": 139.6771078, "title": "Ｆｕｌｌ　Ｈｏｕｓｅ２０２" }, "geometry": { "type": "Point", "coordinates": [ 139.677107799999987, 35.6806129 ] } },
{ "type": "Feature", "properties": { "lat": 35.6773037, "lon": 139.6760791, "title": "ＨＡＲＡＤＡ　Ｂｌｄ．８　３Ｆ" }, "geometry": { "type": "Point", "coordinates": [ 139.67607910000001, 35.6773037 ] } },
{ "type": "Feature", "properties": { "lat": 35.6773037, "lon": 139.6760791, "title": "ＨＡＲＡＤＡ　Ｂｌｄ．８　４Ｆ" }, "geometry": { "type": "Point", "coordinates": [ 139.67607910000001, 35.6773037 ] } },
{ "type": "Feature", "properties": { "lat": 35.6773037, "lon": 139.6760791, "title": "ＨＡＲＡＤＡ　Ｂｌｄ．８　５Ｆ" }, "geometry": { "type": "Point", "coordinates": [ 139.67607910000001, 35.6773037 ] } },
{ "type": "Feature", "properties": { "lat": 35.682037, "lon": 139.6984665, "title": "シャトレー代々木／民泊" }, "geometry": { "type": "Point", "coordinates": [ 139.6984665, 35.682037 ] } },
{ "type": "Feature", "properties": { "lat": 35.705631237558698, "lon": 139.74332236958921, "title": "ヴィアイン飯田橋後楽園（ＪＲ西日本グループ）" }, "geometry": { "type": "Point", "coordinates": [ 139.743322369589208, 35.705631237558698 ] } },
{ "type": "Feature", "properties": { "lat": 35.70543595, "lon": 139.7426142, "title": "ホテルマイステイズ飯田橋" }, "geometry": { "type": "Point", "coordinates": [ 139.7426142, 35.70543595 ] } },
{ "type": "Feature", "properties": { "lat": 35.703733, "lon": 139.7440037, "title": "ホップイン東京飯田橋" }, "geometry": { "type": "Point", "coordinates": [ 139.7440037, 35.703733 ] } },
{ "type": "Feature", "properties": { "lat": 35.70088649, "lon": 139.7435782, "title": "東京セントラルユースホステル" }, "geometry": { "type": "Point", "coordinates": [ 139.7435782, 35.70088649 ] } },
{ "type": "Feature", "properties": { "lat": 35.7060619, "lon": 139.7417117, "title": "アンバー飯田橋" }, "geometry": { "type": "Point", "coordinates": [ 139.7417117, 35.7060619 ] } },
{ "type": "Feature", "properties": { "lat": 35.7010379, "lon": 139.7358041, "title": "Ｇ＆Ｒ　Ｈｏｕｓｅ　プレミアム　＾" }, "geometry": { "type": "Point", "coordinates": [ 139.7358041, 35.7010379 ] } },
{ "type": "Feature", "properties": { "lat": 35.70312094399528, "lon": 139.74006436739589, "title": "Ｂｏｕｔｉｑｕｅ　Ｓａｕｎａ　ＡＲＣＨ" }, "geometry": { "type": "Point", "coordinates": [ 139.740064367395888, 35.70312094399528 ] } },
{ "type": "Feature", "properties": { "lat": 35.68559239, "lon": 139.6922971, "title": "京王プレッソイン新宿" }, "geometry": { "type": "Point", "coordinates": [ 139.6922971, 35.68559239 ] } },
{ "type": "Feature", "properties": { "lat": 35.69419703, "lon": 139.6942743, "title": "西鉄イン新宿" }, "geometry": { "type": "Point", "coordinates": [ 139.694274299999989, 35.69419703 ] } },
{ "type": "Feature", "properties": { "lat": 35.69180388, "lon": 139.7325073, "title": "ホテル　グランドヒル市ヶ谷" }, "geometry": { "type": "Point", "coordinates": [ 139.7325073, 35.69180388 ] } },
{ "type": "Feature", "properties": { "lat": 35.68699503, "lon": 139.693133, "title": "新宿ワシントンホテル　本館" }, "geometry": { "type": "Point", "coordinates": [ 139.693133, 35.68699503 ] } },
{ "type": "Feature", "properties": { "lat": 35.69306428, "lon": 139.7113285, "title": "ホテルリステル新宿" }, "geometry": { "type": "Point", "coordinates": [ 139.7113285, 35.69306428 ] } },
{ "type": "Feature", "properties": { "lat": 35.69592766, "lon": 139.7044762, "title": "ホテル　シェーナ" }, "geometry": { "type": "Point", "coordinates": [ 139.704476199999988, 35.69592766 ] } },
{ "type": "Feature", "properties": { "lat": 35.695933376496448, "lon": 139.70121815767209, "title": "アパホテル〈新宿　歌舞伎町タワー〉" }, "geometry": { "type": "Point", "coordinates": [ 139.701218157672088, 35.695933376496448 ] } },
{ "type": "Feature", "properties": { "lat": 35.6979782, "lon": 139.7038617, "title": "アパホテル〈東新宿　歌舞伎町タワー〉" }, "geometry": { "type": "Point", "coordinates": [ 139.7038617, 35.6979782 ] } },
{ "type": "Feature", "properties": { "lat": 35.69449716, "lon": 139.7002682, "title": "新宿プリンスホテル" }, "geometry": { "type": "Point", "coordinates": [ 139.700268200000011, 35.69449716 ] } },
{ "type": "Feature", "properties": { "lat": 35.6969647, "lon": 139.702241, "title": "高濃度炭酸泉　演舞の湯　スーパーホテル新宿歌舞伎町" }, "geometry": { "type": "Point", "coordinates": [ 139.702241, 35.6969647 ] } },
{ "type": "Feature", "properties": { "lat": 35.6959193, "lon": 139.7005264, "title": "ＨＯＴＥＬ　ＧＲＯＯＶＥ　ＳＨＩＮＪＵＫＵ，　Ａ　ＰＡＲＫＲＯＹＡＬ　Ｈｏｔｅｌ" }, "geometry": { "type": "Point", "coordinates": [ 139.7005264, 35.6959193 ] } },
{ "type": "Feature", "properties": { "lat": 35.69724413, "lon": 139.7023068, "title": "カプセルホテル新宿５１０" }, "geometry": { "type": "Point", "coordinates": [ 139.7023068, 35.69724413 ] } },
{ "type": "Feature", "properties": { "lat": 35.69015304, "lon": 139.6943134, "title": "京王プラザホテル" }, "geometry": { "type": "Point", "coordinates": [ 139.6943134, 35.69015304 ] } },
{ "type": "Feature", "properties": { "lat": 35.6739457, "lon": 139.7158074, "title": "日本青年館ホテル" }, "geometry": { "type": "Point", "coordinates": [ 139.715807399999989, 35.6739457 ] } },
{ "type": "Feature", "properties": { "lat": 35.71056818, "lon": 139.7230018, "title": "リーガロイヤルホテル東京" }, "geometry": { "type": "Point", "coordinates": [ 139.7230018, 35.71056818 ] } },
{ "type": "Feature", "properties": { "lat": 35.68980591, "lon": 139.6961216, "title": "かどやホテル＜東京都＞" }, "geometry": { "type": "Point", "coordinates": [ 139.6961216, 35.68980591 ] } },
{ "type": "Feature", "properties": { "lat": 35.688074811221909, "lon": 139.71841041534421, "title": "ホテルウィングインターナショナルプレミアム東京四谷" }, "geometry": { "type": "Point", "coordinates": [ 139.718410415344209, 35.688074811221909 ] } },
{ "type": "Feature", "properties": { "lat": 35.7125479, "lon": 139.7049787, "title": "相鉄グランドフレッサ　高田馬場" }, "geometry": { "type": "Point", "coordinates": [ 139.7049787, 35.7125479 ] } },
{ "type": "Feature", "properties": { "lat": 35.688866720079808, "lon": 139.70884234020821, "title": "アパホテル〈新宿御苑前〉（全室禁煙）" }, "geometry": { "type": "Point", "coordinates": [ 139.708842340208207, 35.688866720079808 ] } },
{ "type": "Feature", "properties": { "lat": 35.68676544, "lon": 139.7283078, "title": "ホテルニューショーヘイ" }, "geometry": { "type": "Point", "coordinates": [ 139.72830780000001, 35.68676544 ] } },
{ "type": "Feature", "properties": { "lat": 35.6893351, "lon": 139.7029496, "title": "安心お宿　Ｔｏｋｙｏ　Ｍａｎ　新宿駅南口店" }, "geometry": { "type": "Point", "coordinates": [ 139.702949600000011, 35.6893351 ] } },
{ "type": "Feature", "properties": { "lat": 35.680223783947433, "lon": 139.71545594359489, "title": "三井ガーデンホテル神宮外苑の杜プレミア" }, "geometry": { "type": "Point", "coordinates": [ 139.71545594359489, 35.680223783947433 ] } },
{ "type": "Feature", "properties": { "lat": 35.69426645, "lon": 139.6937994, "title": "ホテルローズガーデン新宿" }, "geometry": { "type": "Point", "coordinates": [ 139.693799399999989, 35.69426645 ] } },
{ "type": "Feature", "properties": { "lat": 35.686769749454697, "lon": 139.72743862195131, "title": "ホテル京阪　東京四谷" }, "geometry": { "type": "Point", "coordinates": [ 139.727438621951308, 35.686769749454697 ] } },
{ "type": "Feature", "properties": { "lat": 35.68655895, "lon": 139.6925414, "title": "新宿ワシントンホテル　ＡＮＮＥＸ（別館）" }, "geometry": { "type": "Point", "coordinates": [ 139.69254140000001, 35.68655895 ] } },
{ "type": "Feature", "properties": { "lat": 35.69421682, "lon": 139.7070788, "title": "ホテル　サンライト新宿" }, "geometry": { "type": "Point", "coordinates": [ 139.7070788, 35.69421682 ] } },
{ "type": "Feature", "properties": { "lat": 35.695257, "lon": 139.697578, "title": "ビジネスホテル新宿タウンアネクス" }, "geometry": { "type": "Point", "coordinates": [ 139.697578, 35.695257 ] } },
{ "type": "Feature", "properties": { "lat": 35.698336, "lon": 139.707232, "title": "アパホテル〈東新宿駅前〉" }, "geometry": { "type": "Point", "coordinates": [ 139.707232, 35.698336 ] } },
{ "type": "Feature", "properties": { "lat": 35.69590248, "lon": 139.6975017, "title": "ビジネスホテル新宿タウンホテル" }, "geometry": { "type": "Point", "coordinates": [ 139.6975017, 35.69590248 ] } },
{ "type": "Feature", "properties": { "lat": 35.68891208, "lon": 139.715445, "title": "レジデンスホテル　ウィル新宿" }, "geometry": { "type": "Point", "coordinates": [ 139.715445, 35.68891208 ] } },
{ "type": "Feature", "properties": { "lat": 35.69228375, "lon": 139.7089926, "title": "ホテルたてしな" }, "geometry": { "type": "Point", "coordinates": [ 139.708992599999988, 35.69228375 ] } },
{ "type": "Feature", "properties": { "lat": 35.6967544, "lon": 139.7068464, "title": "東急ステイ新宿イーストサイド" }, "geometry": { "type": "Point", "coordinates": [ 139.706846399999989, 35.6967544 ] } },
{ "type": "Feature", "properties": { "lat": 35.69277579, "lon": 139.7247996, "title": "ホテル　ブーゲンビリア曙橋" }, "geometry": { "type": "Point", "coordinates": [ 139.724799600000011, 35.69277579 ] } },
{ "type": "Feature", "properties": { "lat": 35.69344477, "lon": 139.7104202, "title": "東京ビジネスホテル" }, "geometry": { "type": "Point", "coordinates": [ 139.710420199999987, 35.69344477 ] } },