{
"type": "FeatureCollection",
"name": "intlmeetings2025",
"crs": { "type": "name", "properties": { "name": "urn:ogc:def:crs:OGC:1.3:CRS84" } },
"features": [
{ "type": "Feature", "properties": { "lat": 35.6987839, "lon": 139.7667853, "name": "御茶ノ水ソラシティカンファレンスセンター" }, "geometry": { "type": "Point", "coordinates": [ 139.7667853, 35.6987839 ] } },
{ "type": "Feature", "properties": { "lat": 35.6279119, "lon": 139.7367526, "name": "品川プリンスホテル" }, "geometry": { "type": "Point", "coordinates": [ 139.736752599999988, 35.6279119 ] } },
{ "type": "Feature", "properties": { "lat": 35.6926657, "lon": 139.7287377, "name": "防衛省国際会議場" }, "geometry": { "type": "Point", "coordinates": [ 139.728737700000011, 35.6926657 ] } },
{ "type": "Feature", "properties": { "lat": 35.6759275, "lon": 139.7549406, "name": "法務省大会議室 (中央合同庁舎6号館地下1階)" }, "geometry": { "type": "Point", "coordinates": [ 139.7549406, 35.6759275 ] } },
{ "type": "Feature", "properties": { "lat": 35.658962, "lon": 139.7481391, "name": "東京プリンスホテル" }, "geometry": { "type": "Point", "coordinates": [ 139.7481391, 35.658962 ] } },
{ "type": "Feature", "properties": { "lat": 35.6829909, "lon": 139.7434002, "name": "グランドアーク半蔵門" }, "geometry": { "type": "Point", "coordinates": [ 139.7434002, 35.6829909 ] } },
{ "type": "Feature", "properties": { "lat": 35.6187258, "lon": 139.7772702, "name": "産業技術総合研究所臨海副都心センター•日本科学未来館" }, "geometry": { "type": "Point", "coordinates": [ 139.7772702, 35.6187258 ] } },
{ "type": "Feature", "properties": { "lat": 35.6521039, "lon": 139.7379629, "name": "三田共用会議所" }, "geometry": { "type": "Point", "coordinates": [ 139.737962900000014, 35.6521039 ] } },
{ "type": "Feature", "properties": { "lat": 35.6902544, "lon": 139.6942516, "name": "京王プラザホテル" }, "geometry": { "type": "Point", "coordinates": [ 139.6942516, 35.6902544 ] } },
{ "type": "Feature", "properties": { "lat": 35.6767429, "lon": 139.7637532, "name": "東京国際フォーラム" }, "geometry": { "type": "Point", "coordinates": [ 139.7637532, 35.6767429 ] } },
{ "type": "Feature", "properties": { "lat": 35.6605332, "lon": 139.7948506, "name": "芝浦工業大学" }, "geometry": { "type": "Point", "coordinates": [ 139.7948506, 35.6605332 ] } },
{ "type": "Feature", "properties": { "lat": 35.6671751, "lon": 139.7438601, "name": "The Okura Tokyo" }, "geometry": { "type": "Point", "coordinates": [ 139.7438601, 35.6671751 ] } },
{ "type": "Feature", "properties": { "lat": 35.6521039, "lon": 139.7379629, "name": "三田共用会議所" }, "geometry": { "type": "Point", "coordinates": [ 139.737962900000014, 35.6521039 ] } },
{ "type": "Feature", "properties": { "lat": 35.6767429, "lon": 139.7637532, "name": "東京国際フォーラム" }, "geometry": { "type": "Point", "coordinates": [ 139.7637532, 35.6767429 ] } },
{ "type": "Feature", "properties": { "lat": 35.620762, "lon": 139.775883, "name": "東京国際交流館プラザ平成" }, "geometry": { "type": "Point", "coordinates": [ 139.775883, 35.620762 ] } },
{ "type": "Feature", "properties": { "lat": 35.6980449, "lon": 139.7621731, "name": "明治大学" }, "geometry": { "type": "Point", "coordinates": [ 139.762173100000012, 35.6980449 ] } },
{ "type": "Feature", "properties": { "lat": 35.665289, "lon": 139.726374, "name": "国立新美術館" }, "geometry": { "type": "Point", "coordinates": [ 139.726374, 35.665289 ] } },
{ "type": "Feature", "properties": { "lat": 35.6767429, "lon": 139.7637532, "name": "東京国際フォーラム" }, "geometry": { "type": "Point", "coordinates": [ 139.7637532, 35.6767429 ] } },
{ "type": "Feature", "properties": { "lat": 35.6708962, "lon": 139.7528469, "name": "イイノホール&カンファレンスセンター" }, "geometry": { "type": "Point", "coordinates": [ 139.7528469, 35.6708962 ] } },
{ "type": "Feature", "properties": { "lat": 35.6313736, "lon": 139.7356844, "name": "グランドプリンスホテル高輪" }, "geometry": { "type": "Point", "coordinates": [ 139.7356844, 35.6313736 ] } },
{ "type": "Feature", "properties": { "lat": 35.6489596, "lon": 139.7431687, "name": "慶應義塾大学" }, "geometry": { "type": "Point", "coordinates": [ 139.743168700000012, 35.6489596 ] } },
{ "type": "Feature", "properties": { "lat": 35.6980449, "lon": 139.7621731, "name": "明治大学" }, "geometry": { "type": "Point", "coordinates": [ 139.762173100000012, 35.6980449 ] } },
{ "type": "Feature", "properties": { "lat": 35.6809158, "lon": 139.7340561, "name": "ホテルニューオータニ東京" }, "geometry": { "type": "Point", "coordinates": [ 139.7340561, 35.6809158 ] } },
{ "type": "Feature", "properties": { "lat": 35.6628932, "lon": 139.7612899, "name": "コンラッド東京" }, "geometry": { "type": "Point", "coordinates": [ 139.7612899, 35.6628932 ] } },
{ "type": "Feature", "properties": { "lat": 35.6888254, "lon": 139.7382287, "name": "科学技術振興機構" }, "geometry": { "type": "Point", "coordinates": [ 139.7382287, 35.6888254 ] } },
{ "type": "Feature", "properties": { "lat": 35.6767429, "lon": 139.7637532, "name": "東京国際フォーラム" }, "geometry": { "type": "Point", "coordinates": [ 139.7637532, 35.6767429 ] } },
{ "type": "Feature", "properties": { "lat": 35.665289, "lon": 139.726374, "name": "国立新美術館" }, "geometry": { "type": "Point", "coordinates": [ 139.726374, 35.665289 ] } },
{ "type": "Feature", "properties": { "lat": 35.6739881, "lon": 139.7527367, "name": "中央合同庁舎" }, "geometry": { "type": "Point", "coordinates": [ 139.752736700000014, 35.6739881 ] } },
{ "type": "Feature", "properties": { "lat": 35.6521039, "lon": 139.7379629, "name": "三田共用会議所" }, "geometry": { "type": "Point", "coordinates": [ 139.737962900000014, 35.6521039 ] } },
{ "type": "Feature", "properties": { "lat": 35.620762, "lon": 139.775883, "name": "東京国際交流館プラザ平成" }, "geometry": { "type": "Point", "coordinates": [ 139.775883, 35.620762 ] } },
{ "type": "Feature", "properties": { "lat": 35.6743713, "lon": 139.7429313, "name": "衆議院第一議員会館国際会議室" }, "geometry": { "type": "Point", "coordinates": [ 139.7429313, 35.6743713 ] } },
{ "type": "Feature", "properties": { "lat": 35.6521039, "lon": 139.7379629, "name": "三田共用会議所" }, "geometry": { "type": "Point", "coordinates": [ 139.737962900000014, 35.6521039 ] } },
{ "type": "Feature", "properties": { "lat": 35.6193359, "lon": 139.7763995, "name": "日本科学未来館" }, "geometry": { "type": "Point", "coordinates": [ 139.7763995, 35.6193359 ] } },
{ "type": "Feature", "properties": { "lat": 35.6701196, "lon": 139.7425404, "name": "赤坂インターシティコンファレンス" }, "geometry": { "type": "Point", "coordinates": [ 139.7425404, 35.6701196 ] } },
{ "type": "Feature", "properties": { "lat": 35.6980449, "lon": 139.7621731, "name": "明治大学" }, "geometry": { "type": "Point", "coordinates": [ 139.762173100000012, 35.6980449 ] } },
{ "type": "Feature", "properties": { "lat": 35.6374063, "lon": 139.7915719, "name": "ヴィラフォンテーヌ グランド東京有明" }, "geometry": { "type": "Point", "coordinates": [ 139.7915719, 35.6374063 ] } },
{ "type": "Feature", "properties": { "lat": 35.666878, "lon": 139.749503, "name": "虎ノ門ヒルズフォーラム" }, "geometry": { "type": "Point", "coordinates": [ 139.749503, 35.666878 ] } },
{ "type": "Feature", "properties": { "lat": 35.6554159, "lon": 139.7632523, "name": "ベイサイドホテルアジュール竹芝" }, "geometry": { "type": "Point", "coordinates": [ 139.7632523, 35.6554159 ] } },
{ "type": "Feature", "properties": { "lat": 35.6300117, "lon": 139.7334779, "name": "グランドプリンスホテル新高輪、飯倉公館" }, "geometry": { "type": "Point", "coordinates": [ 139.7334779, 35.6300117 ] } },
{ "type": "Feature", "properties": { "lat": 35.6767429, "lon": 139.7637532, "name": "東京国際フォーラム" }, "geometry": { "type": "Point", "coordinates": [ 139.7637532, 35.6767429 ] } },
{ "type": "Feature", "properties": { "lat": 35.658962, "lon": 139.7481391, "name": "東京プリンスホテル" }, "geometry": { "type": "Point", "coordinates": [ 139.7481391, 35.658962 ] } },
{ "type": "Feature", "properties": { "lat": 35.6811829, "lon": 139.7637704, "name": "丸ビルホール" }, "geometry": { "type": "Point", "coordinates": [ 139.7637704, 35.6811829 ] } },
{ "type": "Feature", "properties": { "lat": 35.658962, "lon": 139.7481391, "name": "東京プリンスホテル" }, "geometry": { "type": "Point", "coordinates": [ 139.7481391, 35.658962 ] } },
{ "type": "Feature", "properties": { "lat": 35.6980449, "lon": 139.7621731, "name": "明治大学" }, "geometry": { "type": "Point", "coordinates": [ 139.762173100000012, 35.6980449 ] } },
{ "type": "Feature", "properties": { "lat": 35.7087334, "lon": 139.7196485, "name": "早稲田大学" }, "geometry": { "type": "Point", "coordinates": [ 139.7196485, 35.7087334 ] } },
{ "type": "Feature", "properties": { "lat": 35.6809158, "lon": 139.7340561, "name": "ホテルニューオータニ東京" }, "geometry": { "type": "Point", "coordinates": [ 139.7340561, 35.6809158 ] } },
{ "type": "Feature", "properties": { "lat": 35.6980449, "lon": 139.7621731, "name": "明治大学" }, "geometry": { "type": "Point", "coordinates": [ 139.762173100000012, 35.6980449 ] } },
{ "type": "Feature", "properties": { "lat": 35.6289786, "lon": 139.7365394, "name": "TKPガーデンシティPREMIUM品川高輪口" }, "geometry": { "type": "Point", "coordinates": [ 139.7365394, 35.6289786 ] } },
{ "type": "Feature", "properties": { "lat": 35.6749035, "lon": 139.6931741, "name": "国立オリンピック記念青少年総合センター" }, "geometry": { "type": "Point", "coordinates": [ 139.6931741, 35.6749035 ] } },
{ "type": "Feature", "properties": { "lat": 35.6668271, "lon": 139.7491539, "name": "虎ノ門ヒルズ" }, "geometry": { "type": "Point", "coordinates": [ 139.74915390000001, 35.6668271 ] } },
{ "type": "Feature", "properties": { "lat": 35.620762, "lon": 139.775883, "name": "東京国際交流館プラザ平成" }, "geometry": { "type": "Point", "coordinates": [ 139.775883, 35.620762 ] } },
{ "type": "Feature", "properties": { "lat": 35.6521039, "lon": 139.7379629, "name": "三田共用会議所" }, "geometry": { "type": "Point", "coordinates": [ 139.737962900000014, 35.6521039 ] } },
{ "type": "Feature", "properties": { "lat": 35.7087334, "lon": 139.7196485, "name": "早稲田大学" }, "geometry": { "type": "Point", "coordinates": [ 139.7196485, 35.7087334 ] } },
{ "type": "Feature", "properties": { "lat": 35.6797011, "lon": 139.7400909, "name": "都市センターホテル、砂防会館" }, "geometry": { "type": "Point", "coordinates": [ 139.740090900000013, 35.6797011 ] } },
{ "type": "Feature", "properties": { "lat": 35.666878, "lon": 139.749503, "name": "虎ノ門ヒルズフォーラム" }, "geometry": { "type": "Point", "coordinates": [ 139.749503, 35.666878 ] } },
{ "type": "Feature", "properties": { "lat": 35.6705332, "lon": 139.7542791, "name": "日比谷国際ビルコンファレンススクエア" }, "geometry": { "type": "Point", "coordinates": [ 139.7542791, 35.6705332 ] } },
{ "type": "Feature", "properties": { "lat": 35.6322669, "lon": 139.7885742, "name": "TOC有明コンベンションホール" }, "geometry": { "type": "Point", "coordinates": [ 139.7885742, 35.6322669 ] } },
{ "type": "Feature", "properties": { "lat": 35.6291226, "lon": 139.7947414, "name": "東京ビッグサイト" }, "geometry": { "type": "Point", "coordinates": [ 139.7947414, 35.6291226 ] } },
{ "type": "Feature", "properties": { "lat": 35.6980449, "lon": 139.7621731, "name": "明治大学" }, "geometry": { "type": "Point", "coordinates": [ 139.762173100000012, 35.6980449 ] } },
{ "type": "Feature", "properties": { "lat": 35.6291226, "lon": 139.7947414, "name": "東京ビッグサイト" }, "geometry": { "type": "Point", "coordinates": [ 139.7947414, 35.6291226 ] } },
{ "type": "Feature", "properties": { "lat": 35.6193359, "lon": 139.7763995, "name": "日本科学未来館" }, "geometry": { "type": "Point", "coordinates": [ 139.7763995, 35.6193359 ] } },
{ "type": "Feature", "properties": { "lat": 35.6708962, "lon": 139.7528469, "name": "イイノホール&カンファレンスセンター" }, "geometry": { "type": "Point", "coordinates": [ 139.7528469, 35.6708962 ] } },
{ "type": "Feature", "properties": { "lat": 35.6809158, "lon": 139.7340561, "name": "ホテルニューオータニ東京" }, "geometry": { "type": "Point", "coordinates": [ 139.7340561, 35.6809158 ] } },
{ "type": "Feature", "properties": { "lat": 35.6623688, "lon": 139.7285666, "name": "ベルサール六本木コンファレンス" }, "geometry": { "type": "Point", "coordinates": [ 139.7285666, 35.6623688 ] } },
{ "type": "Feature", "properties": { "lat": 35.6291226, "lon": 139.7947414, "name": "東京ビッグサイト" }, "geometry": { "type": "Point", "coordinates": [ 139.7947414, 35.6291226 ] } },
{ "type": "Feature", "properties": { "lat": 35.6749035, "lon": 139.6931741, "name": "国立オリンピック記念青少年総合センター" }, "geometry": { "type": "Point", "coordinates": [ 139.6931741, 35.6749035 ] } },
{ "type": "Feature", "properties": { "lat": 35.6987839, "lon": 139.7667853, "name": "御茶ノ水ソラシティカンファレンスセンター" }, "geometry": { "type": "Point", "coordinates": [ 139.7667853, 35.6987839 ] } },
{ "type": "Feature", "properties": { "lat": 35.658962, "lon": 139.7481391, "name": "東京プリンスホテル" }, "geometry": { "type": "Point", "coordinates": [ 139.7481391, 35.658962 ] } },
{ "type": "Feature", "properties": { "lat": 35.6961555, "lon": 139.6910507, "name": "ベルサール新宿グランド" }, "geometry": { "type": "Point", "coordinates": [ 139.6910507, 35.6961555 ] } },
{ "type": "Feature", "properties": { "lat": 35.6743187, "lon": 139.7536284, "name": "弁護士会館" }, "geometry": { "type": "Point", "coordinates": [ 139.7536284, 35.6743187 ] } },
{ "type": "Feature", "properties": { "lat": 35.7087334, "lon": 139.7196485, "name": "早稲田大学" }, "geometry": { "type": "Point", "coordinates": [ 139.7196485, 35.7087334 ] } },
{ "type": "Feature", "properties": { "lat": 35.6755095, "lon": 139.7706169, "name": "国立映画アーカイブ" }, "geometry": { "type": "Point", "coordinates": [ 139.7706169, 35.6755095 ] } },
{ "type": "Feature", "properties": { "lat": 35.6615447, "lon": 139.7408302, "name": "麻布台ヒルズ" }, "geometry": { "type": "Point", "coordinates": [ 139.7408302, 35.6615447 ] } },
{ "type": "Feature", "properties": { "lat": 35.665289, "lon": 139.726374, "name": "国立新美術館" }, "geometry": { "type": "Point", "coordinates": [ 139.726374, 35.665289 ] } },
{ "type": "Feature", "properties": { "lat": 35.6906881, "lon": 139.7606157, "name": "KKRホテル東京" }, "geometry": { "type": "Point", "coordinates": [ 139.760615699999988, 35.6906881 ] } },
{ "type": "Feature", "properties": { "lat": 35.6701196, "lon": 139.7425404, "name": "赤坂インターシティコンファレンス" }, "geometry": { "type": "Point", "coordinates": [ 139.7425404, 35.6701196 ] } },
{ "type": "Feature", "properties": { "lat": 35.681316, "lon": 139.7721568, "name": "ビジョンセンター東京京橋" }, "geometry": { "type": "Point", "coordinates": [ 139.7721568, 35.681316 ] } },
{ "type": "Feature", "properties": { "lat": 35.662312, "lon": 139.7082801, "name": "国連大学" }, "geometry": { "type": "Point", "coordinates": [ 139.7082801, 35.662312 ] } },
{ "type": "Feature", "properties": { "lat": 35.6980449, "lon": 139.7621731, "name": "明治大学" }, "geometry": { "type": "Point", "coordinates": [ 139.762173100000012, 35.6980449 ] } },
{ "type": "Feature", "properties": { "lat": 35.6662932, "lon": 139.7312789, "name": "ザ•リッツ•カールトン東京" }, "geometry": { "type": "Point", "coordinates": [ 139.7312789, 35.6662932 ] } },
{ "type": "Feature", "properties": { "lat": 35.6186811, "lon": 139.7123195, "name": "星薬科大学" }, "geometry": { "type": "Point", "coordinates": [ 139.7123195, 35.6186811 ] } },
{ "type": "Feature", "properties": { "lat": 35.7147593, "lon": 139.7008992, "name": "東京富士大学" }, "geometry": { "type": "Point", "coordinates": [ 139.7008992, 35.7147593 ] } },
{ "type": "Feature", "properties": { "lat": 35.6711902, "lon": 139.7486951, "name": "会計検査院" }, "geometry": { "type": "Point", "coordinates": [ 139.7486951, 35.6711902 ] } },
{ "type": "Feature", "properties": { "lat": 35.658962, "lon": 139.7481391, "name": "東京プリンスホテル" }, "geometry": { "type": "Point", "coordinates": [ 139.7481391, 35.658962 ] } },
{ "type": "Feature", "properties": { "lat": 35.6984924, "lon": 139.7668622, "name": "御茶ノ水ソラシティホール" }, "geometry": { "type": "Point", "coordinates": [ 139.7668622, 35.6984924 ] } },
{ "type": "Feature", "properties": { "lat": 35.691014, "lon": 139.737574, "name": "日本大学" }, "geometry": { "type": "Point", "coordinates": [ 139.737574, 35.691014 ] } },
{ "type": "Feature", "properties": { "lat": 35.662312, "lon": 139.7082801, "name": "国連大学" }, "geometry": { "type": "Point", "coordinates": [ 139.7082801, 35.662312 ] } }
]
}
