{
"type": "FeatureCollection",
"name": "michelin2025",
"crs": { "type": "name", "properties": { "name": "urn:ogc:def:crs:OGC:1.3:CRS84" } },
"features": [
{ "type": "Feature", "properties": { "lat": 35.6802794, "lon": 139.8026875, "title": "オーツー／O2" }, "geometry": { "type": "Point", "coordinates": [ 139.8026875, 35.6802794 ] } },
{ "type": "Feature", "properties": { "lat": 35.6869308, "lon": 139.797613, "title": "たかはし／Takahashi" }, "geometry": { "type": "Point", "coordinates": [ 139.797613, 35.6869308 ] } },
{ "type": "Feature", "properties": { "lat": 35.6703625, "lon": 139.798532, "title": "トラットリア ブカ・マッシモ／TRATTORIA BUCA'MASSIMO" }, "geometry": { "type": "Point", "coordinates": [ 139.798532, 35.6703625 ] } },
{ "type": "Feature", "properties": { "lat": 35.683252, "lon": 139.796714, "title": "清澄 たか原／Kiyosumi Takahara" }, "geometry": { "type": "Point", "coordinates": [ 139.796714, 35.683252 ] } },
{ "type": "Feature", "properties": { "lat": 35.6815296, "lon": 139.7994541, "title": "エマン／eman" }, "geometry": { "type": "Point", "coordinates": [ 139.7994541, 35.6815296 ] } },
{ "type": "Feature", "properties": { "lat": 35.6711342, "lon": 139.7962245, "title": "渡辺料理店／Watanabe Ryouri-mise" }, "geometry": { "type": "Point", "coordinates": [ 139.7962245, 35.6711342 ] } },
{ "type": "Feature", "properties": { "lat": 35.6557897, "lon": 139.7229868, "title": "分とく山／Waketokuyama" }, "geometry": { "type": "Point", "coordinates": [ 139.7229868, 35.6557897 ] } },
{ "type": "Feature", "properties": { "lat": 35.6469763, "lon": 139.7318335, "title": "ロッツォ シチリア／ROZZO SICILIA" }, "geometry": { "type": "Point", "coordinates": [ 139.7318335, 35.6469763 ] } },
{ "type": "Feature", "properties": { "lat": 35.6609927, "lon": 139.7266246, "title": "マ・キュイジーヌ／Ma Cuisine" }, "geometry": { "type": "Point", "coordinates": [ 139.7266246, 35.6609927 ] } },
{ "type": "Feature", "properties": { "lat": 35.6634093, "lon": 139.741803, "title": "ローブ／L'aube" }, "geometry": { "type": "Point", "coordinates": [ 139.741803, 35.6634093 ] } },
{ "type": "Feature", "properties": { "lat": 35.6555635, "lon": 139.7338983, "title": "てんぷら 前平／Tempura Maehira" }, "geometry": { "type": "Point", "coordinates": [ 139.7338983, 35.6555635 ] } },
{ "type": "Feature", "properties": { "lat": 35.6569911, "lon": 139.732651, "title": "元あざぶ くしま／Motoazabu Kushima" }, "geometry": { "type": "Point", "coordinates": [ 139.732651, 35.6569911 ] } },
{ "type": "Feature", "properties": { "lat": 35.6593434, "lon": 139.7225143, "title": "氣分／KIBUN" }, "geometry": { "type": "Point", "coordinates": [ 139.7225143, 35.6593434 ] } },
{ "type": "Feature", "properties": { "lat": 35.6473324, "lon": 139.7366675, "title": "鮨 田中／Sushi Tanaka" }, "geometry": { "type": "Point", "coordinates": [ 139.73666750000001, 35.6473324 ] } },
{ "type": "Feature", "properties": { "lat": 35.6592177, "lon": 139.7223426, "title": "常／Towa" }, "geometry": { "type": "Point", "coordinates": [ 139.7223426, 35.6592177 ] } },
{ "type": "Feature", "properties": { "lat": 35.6603351, "lon": 139.7242702, "title": "タクミ／Takumi" }, "geometry": { "type": "Point", "coordinates": [ 139.7242702, 35.6603351 ] } },
{ "type": "Feature", "properties": { "lat": 35.6474366, "lon": 139.7401592, "title": "晴山／Seizan" }, "geometry": { "type": "Point", "coordinates": [ 139.7401592, 35.6474366 ] } },
{ "type": "Feature", "properties": { "lat": 35.6659856, "lon": 139.7485669, "title": "かんだ／Kanda" }, "geometry": { "type": "Point", "coordinates": [ 139.748566899999986, 35.6659856 ] } },
{ "type": "Feature", "properties": { "lat": 35.6619012, "lon": 139.7203494, "title": "壽修／Jushu" }, "geometry": { "type": "Point", "coordinates": [ 139.7203494, 35.6619012 ] } },
{ "type": "Feature", "properties": { "lat": 35.6559432, "lon": 139.7335607, "title": "麻布 かどわき／Azabu Kadowaki" }, "geometry": { "type": "Point", "coordinates": [ 139.7335607, 35.6559432 ] } },
{ "type": "Feature", "properties": { "lat": 35.6617646, "lon": 139.7141848, "title": "宮坂／Miyasaka" }, "geometry": { "type": "Point", "coordinates": [ 139.7141848, 35.6617646 ] } },
{ "type": "Feature", "properties": { "lat": 35.658894, "lon": 139.7301459, "title": "ラ・ブリアンツァ／La Brianza" }, "geometry": { "type": "Point", "coordinates": [ 139.7301459, 35.658894 ] } },
{ "type": "Feature", "properties": { "lat": 35.6621957, "lon": 139.7183206, "title": "割烹 隆／Kappo Ryu" }, "geometry": { "type": "Point", "coordinates": [ 139.7183206, 35.6621957 ] } },
{ "type": "Feature", "properties": { "lat": 35.6649259, "lon": 139.7278073, "title": "ヒカリモノ／Hikarimono" }, "geometry": { "type": "Point", "coordinates": [ 139.7278073, 35.6649259 ] } },
{ "type": "Feature", "properties": { "lat": 35.6615594, "lon": 139.7241308, "title": "西麻布 野口／Nishiazabu Noguchi" }, "geometry": { "type": "Point", "coordinates": [ 139.724130800000012, 35.6615594 ] } },
{ "type": "Feature", "properties": { "lat": 35.6647715, "lon": 139.7316832, "title": "入鹿 TOKYO／IRUCA TOKYO" }, "geometry": { "type": "Point", "coordinates": [ 139.7316832, 35.6647715 ] } },
{ "type": "Feature", "properties": { "lat": 35.6600386, "lon": 139.7227427, "title": "おそばの甲賀／Osobano Kouga" }, "geometry": { "type": "Point", "coordinates": [ 139.7227427, 35.6600386 ] } },
{ "type": "Feature", "properties": { "lat": 35.64631, "lon": 139.7428625, "title": "聖坂 和敬／Hijirizaka Wakei" }, "geometry": { "type": "Point", "coordinates": [ 139.7428625, 35.64631 ] } },
{ "type": "Feature", "properties": { "lat": 35.673049, "lon": 139.7362794, "title": "広東名菜 赤坂璃宮／Canton Meisai Akasaka Rikyu" }, "geometry": { "type": "Point", "coordinates": [ 139.7362794, 35.673049 ] } },
{ "type": "Feature", "properties": { "lat": 35.6656983, "lon": 139.7176142, "title": "ジンボ ミナミ アオヤマ／JINBO MINAMI AOYAMA" }, "geometry": { "type": "Point", "coordinates": [ 139.717614200000014, 35.6656983 ] } },
{ "type": "Feature", "properties": { "lat": 35.6664985, "lon": 139.7545666, "title": "鮨 神楽／Sushi Kagura" }, "geometry": { "type": "Point", "coordinates": [ 139.7545666, 35.6664985 ] } },
{ "type": "Feature", "properties": { "lat": 35.6668319, "lon": 139.7516011, "title": "港式料理 鴻禧／Koshikiryori Koki" }, "geometry": { "type": "Point", "coordinates": [ 139.751601099999988, 35.6668319 ] } },
{ "type": "Feature", "properties": { "lat": 35.6594393, "lon": 139.7267062, "title": "明寂／Myojaku" }, "geometry": { "type": "Point", "coordinates": [ 139.7267062, 35.6594393 ] } },
{ "type": "Feature", "properties": { "lat": 35.6377436, "lon": 139.7227802, "title": "三和／Sanwa" }, "geometry": { "type": "Point", "coordinates": [ 139.722780199999988, 35.6377436 ] } },
{ "type": "Feature", "properties": { "lat": 35.6646572, "lon": 139.7292087, "title": "ブーケ・ド・フランス／Bouquet de France" }, "geometry": { "type": "Point", "coordinates": [ 139.729208699999987, 35.6646572 ] } },
{ "type": "Feature", "properties": { "lat": 35.6544976, "lon": 139.744007, "title": "宮わき／Miyawaki" }, "geometry": { "type": "Point", "coordinates": [ 139.744007, 35.6544976 ] } },
{ "type": "Feature", "properties": { "lat": 35.6555301, "lon": 139.7347368, "title": "立喰 鮨となり／Tachigui Sushi Tonari" }, "geometry": { "type": "Point", "coordinates": [ 139.7347368, 35.6555301 ] } },
{ "type": "Feature", "properties": { "lat": 35.6619505, "lon": 139.7536589, "title": "天ぷら かき揚げ 之村／Tempura Kakiage Yukimura" }, "geometry": { "type": "Point", "coordinates": [ 139.7536589, 35.6619505 ] } },
{ "type": "Feature", "properties": { "lat": 35.6680427, "lon": 139.7329117, "title": "江戸前鮨 英／Edomae Sushi Hanabusa" }, "geometry": { "type": "Point", "coordinates": [ 139.732911699999988, 35.6680427 ] } },
{ "type": "Feature", "properties": { "lat": 35.6568806, "lon": 139.7323136, "title": "天 よこた／Ten Yokota" }, "geometry": { "type": "Point", "coordinates": [ 139.7323136, 35.6568806 ] } },
{ "type": "Feature", "properties": { "lat": 35.6375432, "lon": 139.7231827, "title": "アルシミスト／Alchimiste" }, "geometry": { "type": "Point", "coordinates": [ 139.7231827, 35.6375432 ] } },
{ "type": "Feature", "properties": { "lat": 35.6664928, "lon": 139.7142703, "title": "ミモザ／MIMOSA" }, "geometry": { "type": "Point", "coordinates": [ 139.71427030000001, 35.6664928 ] } },
{ "type": "Feature", "properties": { "lat": 35.6562703, "lon": 139.7385296, "title": "中国飯店 富麗華／Chugoku Hanten Fureika" }, "geometry": { "type": "Point", "coordinates": [ 139.7385296, 35.6562703 ] } },
{ "type": "Feature", "properties": { "lat": 35.661618, "lon": 139.7434494, "title": "フロリレージュ／Florilège" }, "geometry": { "type": "Point", "coordinates": [ 139.7434494, 35.661618 ] } },
{ "type": "Feature", "properties": { "lat": 35.6483106, "lon": 139.7237115, "title": "青草窠／Seisoka" }, "geometry": { "type": "Point", "coordinates": [ 139.7237115, 35.6483106 ] } },
{ "type": "Feature", "properties": { "lat": 35.6764667, "lon": 139.7361833, "title": "赤坂 島袋／Akasaka Shimabukuro" }, "geometry": { "type": "Point", "coordinates": [ 139.7361833, 35.6764667 ] } },
{ "type": "Feature", "properties": { "lat": 35.6601187, "lon": 139.7321322, "title": "根深／Nebuka" }, "geometry": { "type": "Point", "coordinates": [ 139.7321322, 35.6601187 ] } },
{ "type": "Feature", "properties": { "lat": 35.6410052, "lon": 139.7376701, "title": "中国菜 華丘房／Chugokusai KAKYU-BOU" }, "geometry": { "type": "Point", "coordinates": [ 139.7376701, 35.6410052 ] } },
{ "type": "Feature", "properties": { "lat": 35.6453066, "lon": 139.7237223, "title": "オルタナティヴ／Alternative" }, "geometry": { "type": "Point", "coordinates": [ 139.7237223, 35.6453066 ] } },
{ "type": "Feature", "properties": { "lat": 35.6673323, "lon": 139.7473131, "title": "アポテオーズ／apothéose" }, "geometry": { "type": "Point", "coordinates": [ 139.747313100000014, 35.6673323 ] } },
{ "type": "Feature", "properties": { "lat": 35.6712475, "lon": 139.7209746, "title": "鮨 龍次郎／Sushi Ryujiro" }, "geometry": { "type": "Point", "coordinates": [ 139.7209746, 35.6712475 ] } },
{ "type": "Feature", "properties": { "lat": 35.6615201, "lon": 139.7239213, "title": "西麻布 大竹／Nishiazabu Otake" }, "geometry": { "type": "Point", "coordinates": [ 139.7239213, 35.6615201 ] } },
{ "type": "Feature", "properties": { "lat": 35.6713881, "lon": 139.7167184, "title": "鮨 将司／Sushi Masashi" }, "geometry": { "type": "Point", "coordinates": [ 139.7167184, 35.6713881 ] } },
{ "type": "Feature", "properties": { "lat": 35.6627677, "lon": 139.7441996, "title": "空花／Sorahana" }, "geometry": { "type": "Point", "coordinates": [ 139.7441996, 35.6627677 ] } },
{ "type": "Feature", "properties": { "lat": 35.6702649, "lon": 139.7202398, "title": "慈華／itsuka" }, "geometry": { "type": "Point", "coordinates": [ 139.7202398, 35.6702649 ] } },
{ "type": "Feature", "properties": { "lat": 35.6588727, "lon": 139.7292609, "title": "すきやばし 次郎 六本木店／Sukiyabashi Jiro Roppongiten" }, "geometry": { "type": "Point", "coordinates": [ 139.729260900000014, 35.6588727 ] } },
{ "type": "Feature", "properties": { "lat": 35.6681603, "lon": 139.7515587, "title": "新ばし 笹田／Shimbashi Sasada" }, "geometry": { "type": "Point", "coordinates": [ 139.7515587, 35.6681603 ] } },
{ "type": "Feature", "properties": { "lat": 35.6536524, "lon": 139.7350358, "title": "麻布十番 ふくだ／Azabujuban Fukuda" }, "geometry": { "type": "Point", "coordinates": [ 139.7350358, 35.6536524 ] } },
{ "type": "Feature", "properties": { "lat": 35.6696518, "lon": 139.7348389, "title": "ワキヤ 一笑美茶樓／Wakiya Ichiemicharo" }, "geometry": { "type": "Point", "coordinates": [ 139.7348389, 35.6696518 ] } },
{ "type": "Feature", "properties": { "lat": 35.6577389, "lon": 139.7183863, "title": "スダチ／Sudachi" }, "geometry": { "type": "Point", "coordinates": [ 139.7183863, 35.6577389 ] } },
{ "type": "Feature", "properties": { "lat": 35.6710196, "lon": 139.7302038, "title": "ライラ／Lyla" }, "geometry": { "type": "Point", "coordinates": [ 139.7302038, 35.6710196 ] } },
{ "type": "Feature", "properties": { "lat": 35.6708176, "lon": 139.7355288, "title": "炭火割烹 白坂／Sumibikappo SHIROSAKA" }, "geometry": { "type": "Point", "coordinates": [ 139.7355288, 35.6708176 ] } },
{ "type": "Feature", "properties": { "lat": 35.6605613, "lon": 139.7389574, "title": "シリーズ／Series" }, "geometry": { "type": "Point", "coordinates": [ 139.7389574, 35.6605613 ] } },
{ "type": "Feature", "properties": { "lat": 35.6662932, "lon": 139.7312789, "title": "エリタージュ バイ ケイ コバヤシ／Héritage by Kei Kobayashi" }, "geometry": { "type": "Point", "coordinates": [ 139.7312789, 35.6662932 ] } },
{ "type": "Feature", "properties": { "lat": 35.6384089, "lon": 139.7233774, "title": "ラリューム／L'allium" }, "geometry": { "type": "Point", "coordinates": [ 139.7233774, 35.6384089 ] } },
{ "type": "Feature", "properties": { "lat": 35.6705934, "lon": 139.7379695, "title": "赤坂 渡なべ／Akasaka Watanabe" }, "geometry": { "type": "Point", "coordinates": [ 139.7379695, 35.6705934 ] } },
{ "type": "Feature", "properties": { "lat": 35.6563375, "lon": 139.7317968, "title": "一平飯店／Ippei Hanten" }, "geometry": { "type": "Point", "coordinates": [ 139.731796800000012, 35.6563375 ] } },
{ "type": "Feature", "properties": { "lat": 35.6677134, "lon": 139.7130365, "title": "シオ アオヤマ／sio AOYAMA" }, "geometry": { "type": "Point", "coordinates": [ 139.713036499999987, 35.6677134 ] } },
{ "type": "Feature", "properties": { "lat": 35.6594485, "lon": 139.7141548, "title": "ネモ／NéMo" }, "geometry": { "type": "Point", "coordinates": [ 139.714154799999989, 35.6594485 ] } },
{ "type": "Feature", "properties": { "lat": 35.6561146, "lon": 139.7324911, "title": "焼鳥 ひなた／Yakitori Hinata" }, "geometry": { "type": "Point", "coordinates": [ 139.7324911, 35.6561146 ] } },
{ "type": "Feature", "properties": { "lat": 35.6702688, "lon": 139.7343673, "title": "コム・ア・ラ・メゾン／COMME À LA MAISON" }, "geometry": { "type": "Point", "coordinates": [ 139.7343673, 35.6702688 ] } },
{ "type": "Feature", "properties": { "lat": 35.6655427, "lon": 139.7382225, "title": "エディション・コウジ シモムラ／Édition Koji Shimomura" }, "geometry": { "type": "Point", "coordinates": [ 139.7382225, 35.6655427 ] } },
{ "type": "Feature", "properties": { "lat": 35.6637849, "lon": 139.7203369, "title": "田中田 西麻布店／Tanakada Nishiazabuten" }, "geometry": { "type": "Point", "coordinates": [ 139.7203369, 35.6637849 ] } },
{ "type": "Feature", "properties": { "lat": 35.6691201, "lon": 139.7166316, "title": "リストランテ アクアパッツァ／Ristorante ACQUA PAZZA" }, "geometry": { "type": "Point", "coordinates": [ 139.7166316, 35.6691201 ] } },
{ "type": "Feature", "properties": { "lat": 35.6537331, "lon": 139.7350202, "title": "ラ・メゾン・コンフォターブル／La Maison Confortable" }, "geometry": { "type": "Point", "coordinates": [ 139.7350202, 35.6537331 ] } },
{ "type": "Feature", "properties": { "lat": 35.6563015, "lon": 139.7383018, "title": "富士鮨／Fujisushi" }, "geometry": { "type": "Point", "coordinates": [ 139.738301799999988, 35.6563015 ] } },
{ "type": "Feature", "properties": { "lat": 35.6659614, "lon": 139.717079, "title": "ラス／L'AS" }, "geometry": { "type": "Point", "coordinates": [ 139.717079, 35.6659614 ] } },
{ "type": "Feature", "properties": { "lat": 35.64748, "lon": 139.724399, "title": "日日の料理 びおら／Hibinoryori Viola" }, "geometry": { "type": "Point", "coordinates": [ 139.724399, 35.64748 ] } },
{ "type": "Feature", "properties": { "lat": 35.6352612, "lon": 139.7208483, "title": "クロデグルメ／Clos Des Gourmets" }, "geometry": { "type": "Point", "coordinates": [ 139.7208483, 35.6352612 ] } },
{ "type": "Feature", "properties": { "lat": 35.6666523, "lon": 139.7250246, "title": "乃木坂 結／Nogizaka yui" }, "geometry": { "type": "Point", "coordinates": [ 139.725024600000012, 35.6666523 ] } },
{ "type": "Feature", "properties": { "lat": 35.6588751, "lon": 139.7242628, "title": "リストランテ アルポルト／RISTORANTE Al Porto" }, "geometry": { "type": "Point", "coordinates": [ 139.7242628, 35.6588751 ] } },
{ "type": "Feature", "properties": { "lat": 35.6685882, "lon": 139.7169946, "title": "マルカ／malca" }, "geometry": { "type": "Point", "coordinates": [ 139.7169946, 35.6685882 ] } },
{ "type": "Feature", "properties": { "lat": 35.6670775, "lon": 139.7605238, "title": "トキ／TOKi" }, "geometry": { "type": "Point", "coordinates": [ 139.760523799999987, 35.6670775 ] } },
{ "type": "Feature", "properties": { "lat": 35.6567647, "lon": 139.7342279, "title": "串揚げ料理 かわた／Kushiage Ryori Kawata" }, "geometry": { "type": "Point", "coordinates": [ 139.7342279, 35.6567647 ] } },
{ "type": "Feature", "properties": { "lat": 35.6442847, "lon": 139.7256198, "title": "洋食 エドヤ／Yoshoku Edoya" }, "geometry": { "type": "Point", "coordinates": [ 139.7256198, 35.6442847 ] } },
{ "type": "Feature", "properties": { "lat": 35.6649259, "lon": 139.7278073, "title": "九九九／Kukuku" }, "geometry": { "type": "Point", "coordinates": [ 139.7278073, 35.6649259 ] } },
{ "type": "Feature", "properties": { "lat": 35.6580891, "lon": 139.7236063, "title": "七ひろ／NANAHIRO" }, "geometry": { "type": "Point", "coordinates": [ 139.7236063, 35.6580891 ] } },
{ "type": "Feature", "properties": { "lat": 35.6673323, "lon": 139.7473131, "title": "ケイ コレクション パリ／KEI Collection PARIS" }, "geometry": { "type": "Point", "coordinates": [ 139.747313100000014, 35.6673323 ] } },
{ "type": "Feature", "properties": { "lat": 35.6616422, "lon": 139.7209771, "title": "ル ブトン／Le Bouton" }, "geometry": { "type": "Point", "coordinates": [ 139.7209771, 35.6616422 ] } },
{ "type": "Feature", "properties": { "lat": 35.6602626, "lon": 139.7223248, "title": "上／JO" }, "geometry": { "type": "Point", "coordinates": [ 139.7223248, 35.6602626 ] } },
{ "type": "Feature", "properties": { "lat": 35.6715648, "lon": 139.7218885, "title": "ナリサワ／NARISAWA" }, "geometry": { "type": "Point", "coordinates": [ 139.7218885, 35.6715648 ] } },
{ "type": "Feature", "properties": { "lat": 35.6393592, "lon": 139.7281112, "title": "シノワ／ShinoiS" }, "geometry": { "type": "Point", "coordinates": [ 139.7281112, 35.6393592 ] } },
{ "type": "Feature", "properties": { "lat": 35.6564907, "lon": 139.7399653, "title": "ラ・リューン／La Lune" }, "geometry": { "type": "Point", "coordinates": [ 139.7399653, 35.6564907 ] } },
{ "type": "Feature", "properties": { "lat": 35.6610845, "lon": 139.737013, "title": "メティス 六本木／Mētis Roppongi" }, "geometry": { "type": "Point", "coordinates": [ 139.737013, 35.6610845 ] } },
{ "type": "Feature", "properties": { "lat": 35.6371434, "lon": 139.7233575, "title": "ジョンティ アッシュ／gentil H" }, "geometry": { "type": "Point", "coordinates": [ 139.7233575, 35.6371434 ] } },
{ "type": "Feature", "properties": { "lat": 35.6353281, "lon": 139.7210052, "title": "地蔵鮓／Jizozushi" }, "geometry": { "type": "Point", "coordinates": [ 139.7210052, 35.6353281 ] } },
{ "type": "Feature", "properties": { "lat": 35.6699391, "lon": 139.7340557, "title": "赤坂 菊乃井／Akasaka Kikunoi" }, "geometry": { "type": "Point", "coordinates": [ 139.7340557, 35.6699391 ] } },
{ "type": "Feature", "properties": { "lat": 35.6558855, "lon": 139.7334241, "title": "クラージュ／Courage" }, "geometry": { "type": "Point", "coordinates": [ 139.7334241, 35.6558855 ] } },
{ "type": "Feature", "properties": { "lat": 35.6700676, "lon": 139.7300226, "title": "フィレモネ／Filemone" }, "geometry": { "type": "Point", "coordinates": [ 139.730022600000012, 35.6700676 ] } },
{ "type": "Feature", "properties": { "lat": 35.6554634, "lon": 139.7342076, "title": "蕎庵 三たて／Soan Mitate" }, "geometry": { "type": "Point", "coordinates": [ 139.7342076, 35.6554634 ] } },
{ "type": "Feature", "properties": { "lat": 35.6445594, "lon": 139.7316039, "title": "アルチェッポ／AlCeppo" }, "geometry": { "type": "Point", "coordinates": [ 139.73160390000001, 35.6445594 ] } },
{ "type": "Feature", "properties": { "lat": 35.6620118, "lon": 139.7307167, "title": "六本木 璃庵／ROPPONGI RIAN" }, "geometry": { "type": "Point", "coordinates": [ 139.730716699999988, 35.6620118 ] } },
{ "type": "Feature", "properties": { "lat": 35.6495836, "lon": 139.7283406, "title": "茶禅華／Sazenka" }, "geometry": { "type": "Point", "coordinates": [ 139.7283406, 35.6495836 ] } },
{ "type": "Feature", "properties": { "lat": 35.6571259, "lon": 139.7388435, "title": "御料理 辻／Oryori Tsuji" }, "geometry": { "type": "Point", "coordinates": [ 139.7388435, 35.6571259 ] } },
{ "type": "Feature", "properties": { "lat": 35.6677326, "lon": 139.7334094, "title": "鮨 みうら／Sushi Miura" }, "geometry": { "type": "Point", "coordinates": [ 139.7334094, 35.6677326 ] } },
{ "type": "Feature", "properties": { "lat": 35.6700211, "lon": 139.7208252, "title": "ロー／L'EAU" }, "geometry": { "type": "Point", "coordinates": [ 139.7208252, 35.6700211 ] } },
{ "type": "Feature", "properties": { "lat": 35.6697057, "lon": 139.7305956, "title": "タンモア／Le temps moelleux" }, "geometry": { "type": "Point", "coordinates": [ 139.730595599999987, 35.6697057 ] } },
{ "type": "Feature", "properties": { "lat": 35.6591061, "lon": 139.7260647, "title": "ジーキューブ／Ji-Cube" }, "geometry": { "type": "Point", "coordinates": [ 139.7260647, 35.6591061 ] } },
{ "type": "Feature", "properties": { "lat": 35.6525876, "lon": 139.7334992, "title": "ピアット ミツ／Piatto Mitsu" }, "geometry": { "type": "Point", "coordinates": [ 139.733499200000011, 35.6525876 ] } },
{ "type": "Feature", "properties": { "lat": 35.6619119, "lon": 139.7540636, "title": "冨所／Tomidokoro" }, "geometry": { "type": "Point", "coordinates": [ 139.7540636, 35.6619119 ] } },
{ "type": "Feature", "properties": { "lat": 35.6615201, "lon": 139.7239213, "title": "メラキ／Merachi" }, "geometry": { "type": "Point", "coordinates": [ 139.7239213, 35.6615201 ] } },
{ "type": "Feature", "properties": { "lat": 35.6393592, "lon": 139.7281112, "title": "サーパス／CIRPAS" }, "geometry": { "type": "Point", "coordinates": [ 139.7281112, 35.6393592 ] } },
{ "type": "Feature", "properties": { "lat": 35.651405, "lon": 139.750518, "title": "江戸前 芝浜／Edomae Shibahama" }, "geometry": { "type": "Point", "coordinates": [ 139.750518, 35.651405 ] } },
{ "type": "Feature", "properties": { "lat": 35.6673323, "lon": 139.7473131, "title": "ケイ コレクション パリ／KEI Collection PARIS" }, "geometry": { "type": "Point", "coordinates": [ 139.747313100000014, 35.6673323 ] } },
{ "type": "Feature", "properties": { "lat": 35.6515389, "lon": 139.7506978, "title": "佐野鮨／Sanosushi" }, "geometry": { "type": "Point", "coordinates": [ 139.750697800000012, 35.6515389 ] } },
{ "type": "Feature", "properties": { "lat": 35.6722165, "lon": 139.7255094, "title": "トラットリア シチリアーナ・ドンチッチョ／TRATTORIA SICILIANA Don Ciccio" }, "geometry": { "type": "Point", "coordinates": [ 139.7255094, 35.6722165 ] } },
{ "type": "Feature", "properties": { "lat": 35.6558616, "lon": 139.7348335, "title": "プリンチピオ／Principio" }, "geometry": { "type": "Point", "coordinates": [ 139.7348335, 35.6558616 ] } },
{ "type": "Feature", "properties": { "lat": 35.6602169, "lon": 139.7194309, "title": "レフェルヴェソンス／L'Effervescence" }, "geometry": { "type": "Point", "coordinates": [ 139.7194309, 35.6602169 ] } },
{ "type": "Feature", "properties": { "lat": 35.6562965, "lon": 139.7333595, "title": "うなぎ時任／Unagi Tokito" }, "geometry": { "type": "Point", "coordinates": [ 139.7333595, 35.6562965 ] } },
{ "type": "Feature", "properties": { "lat": 35.6473324, "lon": 139.7366675, "title": "馳走 髙山／Chiso Takayama" }, "geometry": { "type": "Point", "coordinates": [ 139.73666750000001, 35.6473324 ] } },
{ "type": "Feature", "properties": { "lat": 35.6702584, "lon": 139.7145244, "title": "リストランテ ホンダ／Ristorante HONDA" }, "geometry": { "type": "Point", "coordinates": [ 139.714524399999988, 35.6702584 ] } },
{ "type": "Feature", "properties": { "lat": 35.667172, "lon": 139.7247291, "title": "ハルカ ムロオカ／Haruka Murooka" }, "geometry": { "type": "Point", "coordinates": [ 139.7247291, 35.667172 ] } },
{ "type": "Feature", "properties": { "lat": 35.6477607, "lon": 139.741535, "title": "鮨 三か田／Sushi Mikata" }, "geometry": { "type": "Point", "coordinates": [ 139.741535, 35.6477607 ] } },
{ "type": "Feature", "properties": { "lat": 35.6570175, "lon": 139.7221232, "title": "白寧／hakunei" }, "geometry": { "type": "Point", "coordinates": [ 139.7221232, 35.6570175 ] } },
{ "type": "Feature", "properties": { "lat": 35.6581182, "lon": 139.7433407, "title": "野田岩 麻布飯倉本店／Nodaiwa Azabu Iikura Honten" }, "geometry": { "type": "Point", "coordinates": [ 139.7433407, 35.6581182 ] } },
{ "type": "Feature", "properties": { "lat": 35.6644502, "lon": 139.7299132, "title": "ル・スプートニク／le sputnik" }, "geometry": { "type": "Point", "coordinates": [ 139.7299132, 35.6644502 ] } },
{ "type": "Feature", "properties": { "lat": 35.6601922, "lon": 139.7164092, "title": "ローブリュー／LAUBURU" }, "geometry": { "type": "Point", "coordinates": [ 139.716409199999987, 35.6601922 ] } },
{ "type": "Feature", "properties": { "lat": 35.674048, "lon": 139.7378193, "title": "茜坂大沼／Akanezaka Onuma" }, "geometry": { "type": "Point", "coordinates": [ 139.737819300000012, 35.674048 ] } },
{ "type": "Feature", "properties": { "lat": 35.6647207, "lon": 139.7335553, "title": "リューズ／Ryuzu" }, "geometry": { "type": "Point", "coordinates": [ 139.7335553, 35.6647207 ] } },
{ "type": "Feature", "properties": { "lat": 35.6613147, "lon": 139.7222993, "title": "西麻布 拓／Nishiazabu Taku" }, "geometry": { "type": "Point", "coordinates": [ 139.7222993, 35.6613147 ] } },
{ "type": "Feature", "properties": { "lat": 35.6710123, "lon": 139.7251803, "title": "てのしま／Tenoshima" }, "geometry": { "type": "Point", "coordinates": [ 139.7251803, 35.6710123 ] } },
{ "type": "Feature", "properties": { "lat": 35.6529666, "lon": 139.7342552, "title": "フラグメント 麻布十番／fragment Azabujuban" }, "geometry": { "type": "Point", "coordinates": [ 139.7342552, 35.6529666 ] } },
{ "type": "Feature", "properties": { "lat": 35.6547432, "lon": 139.7260956, "title": "蕎麦 たじま／Soba Tajima" }, "geometry": { "type": "Point", "coordinates": [ 139.7260956, 35.6547432 ] } },
{ "type": "Feature", "properties": { "lat": 35.6582989, "lon": 139.7233663, "title": "マルゴット・エ・バッチャーレ／Margotto e Baciare" }, "geometry": { "type": "Point", "coordinates": [ 139.7233663, 35.6582989 ] } },
{ "type": "Feature", "properties": { "lat": 35.6557716, "lon": 139.7443325, "title": "新まき／Aramaki" }, "geometry": { "type": "Point", "coordinates": [ 139.744332500000013, 35.6557716 ] } },
{ "type": "Feature", "properties": { "lat": 35.6715477, "lon": 139.7390073, "title": "ラ グロワ／La Gloire" }, "geometry": { "type": "Point", "coordinates": [ 139.7390073, 35.6715477 ] } },
{ "type": "Feature", "properties": { "lat": 35.6730582, "lon": 139.7377192, "title": "あかさか 割烹 和史／Akasaka Kappo Washi" }, "geometry": { "type": "Point", "coordinates": [ 139.737719199999987, 35.6730582 ] } },
{ "type": "Feature", "properties": { "lat": 35.6604681, "lon": 139.7392169, "title": "パトゥ／Patous" }, "geometry": { "type": "Point", "coordinates": [ 139.7392169, 35.6604681 ] } },
{ "type": "Feature", "properties": { "lat": 35.6617, "lon": 139.7207781, "title": "割烹 室井／Kappo Muroi" }, "geometry": { "type": "Point", "coordinates": [ 139.7207781, 35.6617 ] } },
{ "type": "Feature", "properties": { "lat": 35.6669274, "lon": 139.7512528, "title": "天ぷら あらたみかわ／Tempura Aratamikawa" }, "geometry": { "type": "Point", "coordinates": [ 139.7512528, 35.6669274 ] } },
{ "type": "Feature", "properties": { "lat": 35.6444824, "lon": 139.7276922, "title": "鮨 まつうら／Sushi Matsuura" }, "geometry": { "type": "Point", "coordinates": [ 139.7276922, 35.6444824 ] } },
{ "type": "Feature", "properties": { "lat": 35.6663668, "lon": 139.7145013, "title": "ミソラ／misola" }, "geometry": { "type": "Point", "coordinates": [ 139.7145013, 35.6663668 ] } },
{ "type": "Feature", "properties": { "lat": 35.6557829, "lon": 139.7432984, "title": "クローニー／Crony" }, "geometry": { "type": "Point", "coordinates": [ 139.743298399999986, 35.6557829 ] } },
{ "type": "Feature", "properties": { "lat": 35.6660359, "lon": 139.7181042, "title": "伯雲／Hakuun" }, "geometry": { "type": "Point", "coordinates": [ 139.7181042, 35.6660359 ] } },
{ "type": "Feature", "properties": { "lat": 35.6605344, "lon": 139.7299686, "title": "ラトリエ ドゥ ジョエル・ロブション／L'ATELIER de Joël Robuchon" }, "geometry": { "type": "Point", "coordinates": [ 139.7299686, 35.6605344 ] } },
{ "type": "Feature", "properties": { "lat": 35.6567102, "lon": 139.7424801, "title": "ユヌ パンセ／UNE PINCÉE" }, "geometry": { "type": "Point", "coordinates": [ 139.7424801, 35.6567102 ] } },
{ "type": "Feature", "properties": { "lat": 35.6375912, "lon": 139.7233024, "title": "ルカンケ／REQUINQUER" }, "geometry": { "type": "Point", "coordinates": [ 139.7233024, 35.6375912 ] } },
{ "type": "Feature", "properties": { "lat": 35.6374659, "lon": 139.7232334, "title": "天ぷら 銀屋／Tempura Ginya" }, "geometry": { "type": "Point", "coordinates": [ 139.7232334, 35.6374659 ] } },
{ "type": "Feature", "properties": { "lat": 35.6685901, "lon": 139.7289941, "title": "乃木坂 しん／Nogizaka Shin" }, "geometry": { "type": "Point", "coordinates": [ 139.7289941, 35.6685901 ] } },
{ "type": "Feature", "properties": { "lat": 35.6637168, "lon": 139.7489509, "title": "醍醐／Daigo" }, "geometry": { "type": "Point", "coordinates": [ 139.748950900000011, 35.6637168 ] } },
{ "type": "Feature", "properties": { "lat": 35.6583484, "lon": 139.7188438, "title": "西麻布 鮨 真／Nishiazabu Sushi Shin" }, "geometry": { "type": "Point", "coordinates": [ 139.7188438, 35.6583484 ] } },
{ "type": "Feature", "properties": { "lat": 35.656215, "lon": 139.7330642, "title": "たそがれ／Tasogare" }, "geometry": { "type": "Point", "coordinates": [ 139.7330642, 35.656215 ] } },
{ "type": "Feature", "properties": { "lat": 35.6660891, "lon": 139.7201999, "title": "エーヴィック／EWIG" }, "geometry": { "type": "Point", "coordinates": [ 139.720199900000011, 35.6660891 ] } },
{ "type": "Feature", "properties": { "lat": 35.6701496, "lon": 139.6853446, "title": "ル・キャバレ／Le cabaret" }, "geometry": { "type": "Point", "coordinates": [ 139.6853446, 35.6701496 ] } },
{ "type": "Feature", "properties": { "lat": 35.6644778, "lon": 139.7046895, "title": "玉笑／Tamawarai" }, "geometry": { "type": "Point", "coordinates": [ 139.7046895, 35.6644778 ] } },
{ "type": "Feature", "properties": { "lat": 35.6495268, "lon": 139.7075549, "title": "天ぷら 元吉／Tempura Motoyoshi" }, "geometry": { "type": "Point", "coordinates": [ 139.7075549, 35.6495268 ] } },
{ "type": "Feature", "properties": { "lat": 35.6673861, "lon": 139.7069111, "title": "ボネラン／bonélan" }, "geometry": { "type": "Point", "coordinates": [ 139.706911100000013, 35.6673861 ] } },
{ "type": "Feature", "properties": { "lat": 35.6731582, "lon": 139.6787847, "title": "茂幸／Shigeyuki" }, "geometry": { "type": "Point", "coordinates": [ 139.6787847, 35.6731582 ] } },
{ "type": "Feature", "properties": { "lat": 35.6701238, "lon": 139.6845669, "title": "レイ／REI" }, "geometry": { "type": "Point", "coordinates": [ 139.6845669, 35.6701238 ] } },
{ "type": "Feature", "properties": { "lat": 35.6718214, "lon": 139.7139354, "title": "とんかつ 七井戸／Tonkatsu Nanaido" }, "geometry": { "type": "Point", "coordinates": [ 139.7139354, 35.6718214 ] } },
{ "type": "Feature", "properties": { "lat": 35.6692896, "lon": 139.6890584, "title": "静流／Shizuru" }, "geometry": { "type": "Point", "coordinates": [ 139.6890584, 35.6692896 ] } },
{ "type": "Feature", "properties": { "lat": 35.6477133, "lon": 139.7201899, "title": "おでこ／au deco" }, "geometry": { "type": "Point", "coordinates": [ 139.7201899, 35.6477133 ] } },
{ "type": "Feature", "properties": { "lat": 35.6529873, "lon": 139.7048291, "title": "アタ／Äta" }, "geometry": { "type": "Point", "coordinates": [ 139.704829100000012, 35.6529873 ] } },
{ "type": "Feature", "properties": { "lat": 35.6489877, "lon": 139.719457, "title": "飄香／Piao-Xiang" }, "geometry": { "type": "Point", "coordinates": [ 139.719457, 35.6489877 ] } },
{ "type": "Feature", "properties": { "lat": 35.6489877, "lon": 139.719457, "title": "広尾 石阪／Hiroo Ishizaka" }, "geometry": { "type": "Point", "coordinates": [ 139.719457, 35.6489877 ] } },
{ "type": "Feature", "properties": { "lat": 35.6699611, "lon": 139.7139526, "title": "ジュリア／JULIA" }, "geometry": { "type": "Point", "coordinates": [ 139.7139526, 35.6699611 ] } },
{ "type": "Feature", "properties": { "lat": 35.6487552, "lon": 139.7141205, "title": "アムール／AMOUR" }, "geometry": { "type": "Point", "coordinates": [ 139.7141205, 35.6487552 ] } },
{ "type": "Feature", "properties": { "lat": 35.6629106, "lon": 139.7094699, "title": "ブノワ／Benoit" }, "geometry": { "type": "Point", "coordinates": [ 139.709469899999988, 35.6629106 ] } },
{ "type": "Feature", "properties": { "lat": 35.6687771, "lon": 139.6807486, "title": "ラ・ファソン 古賀／La façon Koga" }, "geometry": { "type": "Point", "coordinates": [ 139.680748599999987, 35.6687771 ] } },
{ "type": "Feature", "properties": { "lat": 35.6879536, "lon": 139.698908, "title": "鳥茂／Torishige" }, "geometry": { "type": "Point", "coordinates": [ 139.698908, 35.6879536 ] } },
{ "type": "Feature", "properties": { "lat": 35.6446568, "lon": 139.7102887, "title": "すしさとる／Sushi Satoru" }, "geometry": { "type": "Point", "coordinates": [ 139.7102887, 35.6446568 ] } },
{ "type": "Feature", "properties": { "lat": 35.6495128, "lon": 139.7210419, "title": "ハスオ／HASUO" }, "geometry": { "type": "Point", "coordinates": [ 139.721041899999989, 35.6495128 ] } },
{ "type": "Feature", "properties": { "lat": 35.6639291, "lon": 139.7089373, "title": "デンクシフロリ／DEN KUSHI FLORI" }, "geometry": { "type": "Point", "coordinates": [ 139.7089373, 35.6639291 ] } },
{ "type": "Feature", "properties": { "lat": 35.6818523, "lon": 139.6933909, "title": "キノシタ／Kinoshita" }, "geometry": { "type": "Point", "coordinates": [ 139.6933909, 35.6818523 ] } },
{ "type": "Feature", "properties": { "lat": 35.6686278, "lon": 139.6890736, "title": "クリスチアノ／Cristiano's" }, "geometry": { "type": "Point", "coordinates": [ 139.6890736, 35.6686278 ] } },
{ "type": "Feature", "properties": { "lat": 35.6490618, "lon": 139.7054097, "title": "サンプリシテ／Simplicité" }, "geometry": { "type": "Point", "coordinates": [ 139.7054097, 35.6490618 ] } },
{ "type": "Feature", "properties": { "lat": 35.6662481, "lon": 139.7069282, "title": "イェン／HYÈNE" }, "geometry": { "type": "Point", "coordinates": [ 139.7069282, 35.6662481 ] } },
{ "type": "Feature", "properties": { "lat": 35.6535466, "lon": 139.7077424, "title": "久原／Kuhara" }, "geometry": { "type": "Point", "coordinates": [ 139.7077424, 35.6535466 ] } },
{ "type": "Feature", "properties": { "lat": 35.6673861, "lon": 139.7069111, "title": "レラン／l'élan" }, "geometry": { "type": "Point", "coordinates": [ 139.706911100000013, 35.6673861 ] } },
{ "type": "Feature", "properties": { "lat": 35.6506772, "lon": 139.6971801, "title": "マダム・トキ／Madame Toki" }, "geometry": { "type": "Point", "coordinates": [ 139.6971801, 35.6506772 ] } },
{ "type": "Feature", "properties": { "lat": 35.6792595, "lon": 139.6937569, "title": "ロク／roku" }, "geometry": { "type": "Point", "coordinates": [ 139.693756900000011, 35.6792595 ] } },
{ "type": "Feature", "properties": { "lat": 35.6779699, "lon": 139.6921146, "title": "ロス レイエス マーゴス／Los Reyes Magos" }, "geometry": { "type": "Point", "coordinates": [ 139.6921146, 35.6779699 ] } },
{ "type": "Feature", "properties": { "lat": 35.6505314, "lon": 139.70714, "title": "ソーセ／Saucer" }, "geometry": { "type": "Point", "coordinates": [ 139.70714, 35.6505314 ] } },
{ "type": "Feature", "properties": { "lat": 35.6447738, "lon": 139.7104392, "title": "匠 鮨 おわな／Takumi Sushi Owana" }, "geometry": { "type": "Point", "coordinates": [ 139.7104392, 35.6447738 ] } },
{ "type": "Feature", "properties": { "lat": 35.6502612, "lon": 139.7096024, "title": "ビストロエビス／Bistro YEBISU" }, "geometry": { "type": "Point", "coordinates": [ 139.7096024, 35.6502612 ] } },
{ "type": "Feature", "properties": { "lat": 35.6704453, "lon": 139.6825132, "title": "ジーテン／jeeten" }, "geometry": { "type": "Point", "coordinates": [ 139.682513199999988, 35.6704453 ] } },
{ "type": "Feature", "properties": { "lat": 35.6490285, "lon": 139.7201778, "title": "ポンテ デル ピアット／PONTE DEL PIATTO" }, "geometry": { "type": "Point", "coordinates": [ 139.720177799999988, 35.6490285 ] } },
{ "type": "Feature", "properties": { "lat": 35.6769032, "lon": 139.7043254, "title": "シンシア／Sincère" }, "geometry": { "type": "Point", "coordinates": [ 139.704325399999988, 35.6769032 ] } },
{ "type": "Feature", "properties": { "lat": 35.6484697, "lon": 139.7056689, "title": "アビス／abysse" }, "geometry": { "type": "Point", "coordinates": [ 139.7056689, 35.6484697 ] } },
{ "type": "Feature", "properties": { "lat": 35.6600242, "lon": 139.7083099, "title": "モノリス／MONOLITH" }, "geometry": { "type": "Point", "coordinates": [ 139.708309899999989, 35.6600242 ] } },
{ "type": "Feature", "properties": { "lat": 35.6461202, "lon": 139.7159304, "title": "御料理 一穂／Oryori Ichiho" }, "geometry": { "type": "Point", "coordinates": [ 139.7159304, 35.6461202 ] } },
{ "type": "Feature", "properties": { "lat": 35.6466583, "lon": 139.7154615, "title": "イル バロンドーロ／IL BALLOND'ORO" }, "geometry": { "type": "Point", "coordinates": [ 139.7154615, 35.6466583 ] } },
{ "type": "Feature", "properties": { "lat": 35.6497661, "lon": 139.7203894, "title": "鮨 ゆうき／Sushi Yuki" }, "geometry": { "type": "Point", "coordinates": [ 139.720389399999988, 35.6497661 ] } },
{ "type": "Feature", "properties": { "lat": 35.6607645, "lon": 139.7085533, "title": "ラチュレ／LATURE" }, "geometry": { "type": "Point", "coordinates": [ 139.7085533, 35.6607645 ] } },
{ "type": "Feature", "properties": { "lat": 35.6500894, "lon": 139.7043105, "title": "ファロ／falò" }, "geometry": { "type": "Point", "coordinates": [ 139.7043105, 35.6500894 ] } },
{ "type": "Feature", "properties": { "lat": 35.6719271, "lon": 139.7139156, "title": "アンディ／Ăn Ði" }, "geometry": { "type": "Point", "coordinates": [ 139.7139156, 35.6719271 ] } },
{ "type": "Feature", "properties": { "lat": 35.6710134, "lon": 139.6880066, "title": "礼讃／Raisan" }, "geometry": { "type": "Point", "coordinates": [ 139.6880066, 35.6710134 ] } },
{ "type": "Feature", "properties": { "lat": 35.6665629, "lon": 139.6883058, "title": "京料理 阿うん／Kyoryori Aun" }, "geometry": { "type": "Point", "coordinates": [ 139.6883058, 35.6665629 ] } },
{ "type": "Feature", "properties": { "lat": 35.6698859, "lon": 139.7142945, "title": "青山 おとと／Aoyama Ototo" }, "geometry": { "type": "Point", "coordinates": [ 139.7142945, 35.6698859 ] } },
{ "type": "Feature", "properties": { "lat": 35.650822, "lon": 139.7035226, "title": "アロセリア サル イ アモール／Arrocería Sal y Amor" }, "geometry": { "type": "Point", "coordinates": [ 139.703522600000014, 35.650822 ] } },
{ "type": "Feature", "properties": { "lat": 35.6693976, "lon": 139.6820247, "title": "潮待ち／Shiomachi" }, "geometry": { "type": "Point", "coordinates": [ 139.6820247, 35.6693976 ] } },
{ "type": "Feature", "properties": { "lat": 35.6480245, "lon": 139.7153193, "title": "創和堂／SŌWADŌ" }, "geometry": { "type": "Point", "coordinates": [ 139.7153193, 35.6480245 ] } },
{ "type": "Feature", "properties": { "lat": 35.6610947, "lon": 139.7057965, "title": "鮨 一喜／Sushi Ikki" }, "geometry": { "type": "Point", "coordinates": [ 139.7057965, 35.6610947 ] } },
{ "type": "Feature", "properties": { "lat": 35.6691436, "lon": 139.6808398, "title": "日々の中華食堂／Hibino Chukashokudo" }, "geometry": { "type": "Point", "coordinates": [ 139.6808398, 35.6691436 ] } },
{ "type": "Feature", "properties": { "lat": 35.6529873, "lon": 139.7048291, "title": "代官山 いっさい喝采／Daikanyama Issai Kassai" }, "geometry": { "type": "Point", "coordinates": [ 139.704829100000012, 35.6529873 ] } },
{ "type": "Feature", "properties": { "lat": 35.6489302, "lon": 139.7059561, "title": "レクテ／recte" }, "geometry": { "type": "Point", "coordinates": [ 139.7059561, 35.6489302 ] } },
{ "type": "Feature", "properties": { "lat": 35.6783509, "lon": 139.6929474, "title": "レガーロ／Regalo" }, "geometry": { "type": "Point", "coordinates": [ 139.6929474, 35.6783509 ] } },
{ "type": "Feature", "properties": { "lat": 35.6801808, "lon": 139.680181, "title": "ユヌ イメルシオン／UNE IMMERSION" }, "geometry": { "type": "Point", "coordinates": [ 139.680181, 35.6801808 ] } },
{ "type": "Feature", "properties": { "lat": 35.6707605, "lon": 139.6824997, "title": "サイカ／çayca" }, "geometry": { "type": "Point", "coordinates": [ 139.6824997, 35.6707605 ] } },
{ "type": "Feature", "properties": { "lat": 35.6472094, "lon": 139.7156289, "title": "アベス／ABBESSES" }, "geometry": { "type": "Point", "coordinates": [ 139.715628900000013, 35.6472094 ] } },
{ "type": "Feature", "properties": { "lat": 35.6540804, "lon": 139.7022691, "title": "かつお食堂／Katsuo Shokudo" }, "geometry": { "type": "Point", "coordinates": [ 139.7022691, 35.6540804 ] } },
{ "type": "Feature", "properties": { "lat": 35.6494513, "lon": 139.7204094, "title": "ボッテガ／BOTTEGA" }, "geometry": { "type": "Point", "coordinates": [ 139.7204094, 35.6494513 ] } },
{ "type": "Feature", "properties": { "lat": 35.673458, "lon": 139.7101767, "title": "神宮前 樋口／Jingumae Higuchi" }, "geometry": { "type": "Point", "coordinates": [ 139.7101767, 35.673458 ] } },
{ "type": "Feature", "properties": { "lat": 35.652071, "lon": 139.7042789, "title": "イドル／Yd’or" }, "geometry": { "type": "Point", "coordinates": [ 139.7042789, 35.652071 ] } },
{ "type": "Feature", "properties": { "lat": 35.6497661, "lon": 139.7203894, "title": "鮨 ゆうき／Sushi Yuki" }, "geometry": { "type": "Point", "coordinates": [ 139.720389399999988, 35.6497661 ] } },
{ "type": "Feature", "properties": { "lat": 35.656833, "lon": 139.6927328, "title": "エス／ess." }, "geometry": { "type": "Point", "coordinates": [ 139.692732799999987, 35.656833 ] } },
{ "type": "Feature", "properties": { "lat": 35.6437644, "lon": 139.715691, "title": "鳥焼き 小花／Toriyaki Ohana" }, "geometry": { "type": "Point", "coordinates": [ 139.715691, 35.6437644 ] } },
{ "type": "Feature", "properties": { "lat": 35.6792752, "lon": 139.69363, "title": "オルケストラ／Orchestra" }, "geometry": { "type": "Point", "coordinates": [ 139.69363, 35.6792752 ] } },
{ "type": "Feature", "properties": { "lat": 35.6727427, "lon": 139.6623783, "title": "立食い鮨 鮨川／Tachiguisushi Sushikawa" }, "geometry": { "type": "Point", "coordinates": [ 139.6623783, 35.6727427 ] } },
{ "type": "Feature", "properties": { "lat": 35.6731932, "lon": 139.7127606, "title": "傳／Den" }, "geometry": { "type": "Point", "coordinates": [ 139.7127606, 35.6731932 ] } },
{ "type": "Feature", "properties": { "lat": 35.7002759, "lon": 139.7380593, "title": "鮨 大矢／Sushi Oya" }, "geometry": { "type": "Point", "coordinates": [ 139.7380593, 35.7002759 ] } },
{ "type": "Feature", "properties": { "lat": 35.6910773, "lon": 139.7246981, "title": "津の守坂 小柴／Tsunokamizaka Koshiba" }, "geometry": { "type": "Point", "coordinates": [ 139.724698100000012, 35.6910773 ] } },
{ "type": "Feature", "properties": { "lat": 35.689235, "lon": 139.7226138, "title": "車力門 おの澤／Sharikimon Onozawa" }, "geometry": { "type": "Point", "coordinates": [ 139.7226138, 35.689235 ] } },
{ "type": "Feature", "properties": { "lat": 35.7121166, "lon": 139.7079408, "title": "ラミティエ／L'AMITIE" }, "geometry": { "type": "Point", "coordinates": [ 139.707940799999989, 35.7121166 ] } },
{ "type": "Feature", "properties": { "lat": 35.7002759, "lon": 139.7380593, "title": "神楽坂 まる富／Kagurazaka Marutomi" }, "geometry": { "type": "Point", "coordinates": [ 139.7380593, 35.7002759 ] } },
{ "type": "Feature", "properties": { "lat": 35.7008106, "lon": 139.7408453, "title": "虎白／Kohaku" }, "geometry": { "type": "Point", "coordinates": [ 139.740845299999989, 35.7008106 ] } },
{ "type": "Feature", "properties": { "lat": 35.6899129, "lon": 139.7208184, "title": "すし処 志げる／Sushidokoro Shigeru" }, "geometry": { "type": "Point", "coordinates": [ 139.720818400000013, 35.6899129 ] } },
{ "type": "Feature", "properties": { "lat": 35.6895261, "lon": 139.7225845, "title": "燗コーヒー 藤々／Kan Coffee Fujifuji" }, "geometry": { "type": "Point", "coordinates": [ 139.722584500000011, 35.6895261 ] } },
{ "type": "Feature", "properties": { "lat": 35.6897713, "lon": 139.7226369, "title": "荒木町 たつや／Arakicho Tatsuya" }, "geometry": { "type": "Point", "coordinates": [ 139.7226369, 35.6897713 ] } },
{ "type": "Feature", "properties": { "lat": 35.7034778, "lon": 139.7328226, "title": "焼鳥 山香／Yakitori SANKA" }, "geometry": { "type": "Point", "coordinates": [ 139.7328226, 35.7034778 ] } },
{ "type": "Feature", "properties": { "lat": 35.701714, "lon": 139.7398215, "title": "愚直に／Guchokuni" }, "geometry": { "type": "Point", "coordinates": [ 139.7398215, 35.701714 ] } },
{ "type": "Feature", "properties": { "lat": 35.7002896, "lon": 139.7393666, "title": "イチニーヨン.カグラザカ／124. KAGURAZAKA" }, "geometry": { "type": "Point", "coordinates": [ 139.739366600000011, 35.7002896 ] } },
{ "type": "Feature", "properties": { "lat": 35.7017745, "lon": 139.7401009, "title": "ルグドゥノム ブション リヨネ／LUGDUNUM Bouchon Lyonnais" }, "geometry": { "type": "Point", "coordinates": [ 139.740100899999987, 35.7017745 ] } },
{ "type": "Feature", "properties": { "lat": 35.712898, "lon": 139.7075219, "title": "とんかつ ひなた／Tonkatsu Hinata" }, "geometry": { "type": "Point", "coordinates": [ 139.707521899999989, 35.712898 ] } },
{ "type": "Feature", "properties": { "lat": 35.6895562, "lon": 139.7128781, "title": "食堂わた／Shokudo Wata" }, "geometry": { "type": "Point", "coordinates": [ 139.712878100000012, 35.6895562 ] } },
{ "type": "Feature", "properties": { "lat": 35.722835, "lon": 139.7011358, "title": "蕎麦 おさめ／Soba Osame" }, "geometry": { "type": "Point", "coordinates": [ 139.7011358, 35.722835 ] } },
{ "type": "Feature", "properties": { "lat": 35.7012054, "lon": 139.736333, "title": "梅香／Meishan" }, "geometry": { "type": "Point", "coordinates": [ 139.736333, 35.7012054 ] } },
{ "type": "Feature", "properties": { "lat": 35.7019782, "lon": 139.7400451, "title": "ふしきの／FUSHIKINO" }, "geometry": { "type": "Point", "coordinates": [ 139.7400451, 35.7019782 ] } },
{ "type": "Feature", "properties": { "lat": 35.6913338, "lon": 139.7248221, "title": "曙橋 かず／Akebonobashi Kazu" }, "geometry": { "type": "Point", "coordinates": [ 139.724822100000011, 35.6913338 ] } },
{ "type": "Feature", "properties": { "lat": 35.6900747, "lon": 139.7221313, "title": "御料理 ほりうち／Oryori Horiuchi" }, "geometry": { "type": "Point", "coordinates": [ 139.7221313, 35.6900747 ] } },
{ "type": "Feature", "properties": { "lat": 35.7021465, "lon": 139.7398162, "title": "初志／Uisane" }, "geometry": { "type": "Point", "coordinates": [ 139.7398162, 35.7021465 ] } },
{ "type": "Feature", "properties": { "lat": 35.7002408, "lon": 139.7412591, "title": "一宇／Ichiu" }, "geometry": { "type": "Point", "coordinates": [ 139.7412591, 35.7002408 ] } },
{ "type": "Feature", "properties": { "lat": 35.688609, "lon": 139.7131973, "title": "匠 達広／Takumi Tatsuhiro" }, "geometry": { "type": "Point", "coordinates": [ 139.7131973, 35.688609 ] } },
{ "type": "Feature", "properties": { "lat": 35.6855863, "lon": 139.7238468, "title": "新楽記／Shinrakuki" }, "geometry": { "type": "Point", "coordinates": [ 139.7238468, 35.6855863 ] } },
{ "type": "Feature", "properties": { "lat": 35.7021576, "lon": 139.7405536, "title": "ヴェール／VERT" }, "geometry": { "type": "Point", "coordinates": [ 139.7405536, 35.7021576 ] } },
{ "type": "Feature", "properties": { "lat": 35.7021576, "lon": 139.7405536, "title": "てんぷら 拓／Tempura Taku" }, "geometry": { "type": "Point", "coordinates": [ 139.7405536, 35.7021576 ] } },
{ "type": "Feature", "properties": { "lat": 35.7021576, "lon": 139.7405536, "title": "多仁本／Tanimoto" }, "geometry": { "type": "Point", "coordinates": [ 139.7405536, 35.7021576 ] } },
{ "type": "Feature", "properties": { "lat": 35.7009902, "lon": 139.7404078, "title": "蕎楽亭／Kyorakutei" }, "geometry": { "type": "Point", "coordinates": [ 139.740407800000014, 35.7009902 ] } },
{ "type": "Feature", "properties": { "lat": 35.7006329, "lon": 139.7398565, "title": "レテール／L'ÉTERRE" }, "geometry": { "type": "Point", "coordinates": [ 139.7398565, 35.7006329 ] } },
{ "type": "Feature", "properties": { "lat": 35.70124, "lon": 139.741939, "title": "ジェフリー／Jfree" }, "geometry": { "type": "Point", "coordinates": [ 139.741939, 35.70124 ] } },
{ "type": "Feature", "properties": { "lat": 35.7013408, "lon": 139.7391271, "title": "神楽坂 石かわ／Kagurazaka Ishikawa" }, "geometry": { "type": "Point", "coordinates": [ 139.7391271, 35.7013408 ] } },
{ "type": "Feature", "properties": { "lat": 35.70135, "lon": 139.7378098, "title": "和しょく えびはら／Washoku Ebihara" }, "geometry": { "type": "Point", "coordinates": [ 139.7378098, 35.70135 ] } },
{ "type": "Feature", "properties": { "lat": 35.6886586, "lon": 139.7224046, "title": "うぶか／Ubuka" }, "geometry": { "type": "Point", "coordinates": [ 139.7224046, 35.6886586 ] } },
{ "type": "Feature", "properties": { "lat": 35.6891021, "lon": 139.7154516, "title": "ラーメン マツイ／RAMEN MATSUI" }, "geometry": { "type": "Point", "coordinates": [ 139.7154516, 35.6891021 ] } },
{ "type": "Feature", "properties": { "lat": 35.6885743, "lon": 139.7223628, "title": "の弥七／Noyashichi" }, "geometry": { "type": "Point", "coordinates": [ 139.722362800000013, 35.6885743 ] } },
{ "type": "Feature", "properties": { "lat": 35.706829, "lon": 139.7167573, "title": "旧雨／Kyuu" }, "geometry": { "type": "Point", "coordinates": [ 139.716757300000012, 35.706829 ] } },
{ "type": "Feature", "properties": { "lat": 35.6885848, "lon": 139.722969, "title": "四ツ谷 みね村／Yotsuya Minemura" }, "geometry": { "type": "Point", "coordinates": [ 139.722969, 35.6885848 ] } },
{ "type": "Feature", "properties": { "lat": 35.6707042, "lon": 139.7466765, "title": "ラルジャン／L'ARGENT" }, "geometry": { "type": "Point", "coordinates": [ 139.7466765, 35.6707042 ] } },
{ "type": "Feature", "properties": { "lat": 35.6809158, "lon": 139.7340561, "title": "トゥールダルジャン 東京／Tour D'argent Tokyo" }, "geometry": { "type": "Point", "coordinates": [ 139.7340561, 35.6809158 ] } },
{ "type": "Feature", "properties": { "lat": 35.6845024, "lon": 139.7612295, "title": "エステール by アラン・デュカス／ESTERRE by Alain Ducasse" }, "geometry": { "type": "Point", "coordinates": [ 139.761229500000013, 35.6845024 ] } },
{ "type": "Feature", "properties": { "lat": 35.6854775, "lon": 139.7656705, "title": "アルヴァ／Arva" }, "geometry": { "type": "Point", "coordinates": [ 139.7656705, 35.6854775 ] } },
{ "type": "Feature", "properties": { "lat": 35.6747591, "lon": 139.7604704, "title": "ヘイフンテラス／Hei Fung Terrace" }, "geometry": { "type": "Point", "coordinates": [ 139.7604704, 35.6747591 ] } },
{ "type": "Feature", "properties": { "lat": 35.6843524, "lon": 139.7640405, "title": "アッパー／THE UPPER" }, "geometry": { "type": "Point", "coordinates": [ 139.7640405, 35.6843524 ] } },
{ "type": "Feature", "properties": { "lat": 35.6799926, "lon": 139.7379363, "title": "マス／MAZ" }, "geometry": { "type": "Point", "coordinates": [ 139.7379363, 35.6799926 ] } },
{ "type": "Feature", "properties": { "lat": 35.6983631, "lon": 139.7543507, "title": "神保町 五木田／Jimbocho Gokita" }, "geometry": { "type": "Point", "coordinates": [ 139.7543507, 35.6983631 ] } },
{ "type": "Feature", "properties": { "lat": 35.6781486, "lon": 139.7669907, "title": "セザン／SÉZANNE" }, "geometry": { "type": "Point", "coordinates": [ 139.7669907, 35.6781486 ] } },
{ "type": "Feature", "properties": { "lat": 35.6797285, "lon": 139.7387446, "title": "ヌー トウキョウ／Nœud. TOKYO" }, "geometry": { "type": "Point", "coordinates": [ 139.7387446, 35.6797285 ] } },
{ "type": "Feature", "properties": { "lat": 35.672454, "lon": 139.7579015, "title": "レ セゾン／Les Saisons" }, "geometry": { "type": "Point", "coordinates": [ 139.7579015, 35.672454 ] } },
{ "type": "Feature", "properties": { "lat": 35.6911402, "lon": 139.763569, "title": "神田錦町 鮨 たか晴／Kandanishikicho Sushi Takaharu" }, "geometry": { "type": "Point", "coordinates": [ 139.763569, 35.6911402 ] } },
{ "type": "Feature", "properties": { "lat": 35.7027967, "lon": 139.7698958, "title": "いし橋／Ishibashi" }, "geometry": { "type": "Point", "coordinates": [ 139.7698958, 35.7027967 ] } },
{ "type": "Feature", "properties": { "lat": 35.6777236, "lon": 139.7614575, "title": "ヤウメイ／YAUMAY" }, "geometry": { "type": "Point", "coordinates": [ 139.7614575, 35.6777236 ] } },
{ "type": "Feature", "properties": { "lat": 35.6803413, "lon": 139.7359638, "title": "紀尾井町 福田家／Kioicho Fukudaya" }, "geometry": { "type": "Point", "coordinates": [ 139.7359638, 35.6803413 ] } },
{ "type": "Feature", "properties": { "lat": 35.675117, "lon": 139.7609658, "title": "アピシウス／APICIUS" }, "geometry": { "type": "Point", "coordinates": [ 139.7609658, 35.675117 ] } },
{ "type": "Feature", "properties": { "lat": 35.6941243, "lon": 139.7395562, "title": "香下／Koshita" }, "geometry": { "type": "Point", "coordinates": [ 139.73955620000001, 35.6941243 ] } },
{ "type": "Feature", "properties": { "lat": 35.6891599, "lon": 139.7352518, "title": "ティン ガナ／Tinc gana" }, "geometry": { "type": "Point", "coordinates": [ 139.735251799999986, 35.6891599 ] } },
{ "type": "Feature", "properties": { "lat": 35.672454, "lon": 139.7579015, "title": "寅黒／Torakuro" }, "geometry": { "type": "Point", "coordinates": [ 139.7579015, 35.672454 ] } },
{ "type": "Feature", "properties": { "lat": 35.6845024, "lon": 139.7612295, "title": "中国飯店 琥珀宮／Chugoku Hanten Kohakukyu (Amber Palace)" }, "geometry": { "type": "Point", "coordinates": [ 139.761229500000013, 35.6845024 ] } },
{ "type": "Feature", "properties": { "lat": 35.6879122, "lon": 139.7631803, "title": "スィークル／CYCLE by Mauro Colagreco" }, "geometry": { "type": "Point", "coordinates": [ 139.763180299999988, 35.6879122 ] } },
{ "type": "Feature", "properties": { "lat": 35.6963279, "lon": 139.7570421, "title": "アルテレーゴ／ALTER EGO" }, "geometry": { "type": "Point", "coordinates": [ 139.7570421, 35.6963279 ] } },
{ "type": "Feature", "properties": { "lat": 35.6915445, "lon": 139.7410642, "title": "シェ オリビエ／Chez Olivier" }, "geometry": { "type": "Point", "coordinates": [ 139.741064200000011, 35.6915445 ] } },
{ "type": "Feature", "properties": { "lat": 35.67778, "lon": 139.7613411, "title": "プルニエ／PRUNIER" }, "geometry": { "type": "Point", "coordinates": [ 139.76134110000001, 35.67778 ] } },
{ "type": "Feature", "properties": { "lat": 35.6947662, "lon": 139.7627566, "title": "三燈舎／SANTOSHAM" }, "geometry": { "type": "Point", "coordinates": [ 139.762756599999989, 35.6947662 ] } },
{ "type": "Feature", "properties": { "lat": 35.6845047, "lon": 139.7625724, "title": "プレーガ 東京／Plaiga TOKYO" }, "geometry": { "type": "Point", "coordinates": [ 139.76257240000001, 35.6845047 ] } },
{ "type": "Feature", "properties": { "lat": 35.6737436, "lon": 139.7591762, "title": "龍吟／RyuGin" }, "geometry": { "type": "Point", "coordinates": [ 139.759176200000013, 35.6737436 ] } },
{ "type": "Feature", "properties": { "lat": 35.6965828, "lon": 139.7569623, "title": "カオ／KHAO" }, "geometry": { "type": "Point", "coordinates": [ 139.7569623, 35.6965828 ] } },
{ "type": "Feature", "properties": { "lat": 35.6727287, "lon": 139.763891, "title": "バードランド／BIRD LAND" }, "geometry": { "type": "Point", "coordinates": [ 139.763891, 35.6727287 ] } },
{ "type": "Feature", "properties": { "lat": 35.6727201, "lon": 139.772057, "title": "ビストロ・シンバ／bistro simba" }, "geometry": { "type": "Point", "coordinates": [ 139.772057, 35.6727201 ] } },
{ "type": "Feature", "properties": { "lat": 35.6850947, "lon": 139.7755579, "title": "ラ ペ／La Paix" }, "geometry": { "type": "Point", "coordinates": [ 139.7755579, 35.6850947 ] } },
{ "type": "Feature", "properties": { "lat": 35.668557, "lon": 139.7618936, "title": "ファロ／FARO" }, "geometry": { "type": "Point", "coordinates": [ 139.7618936, 35.668557 ] } },
{ "type": "Feature", "properties": { "lat": 35.6870475, "lon": 139.7730634, "title": "センス／Sense" }, "geometry": { "type": "Point", "coordinates": [ 139.773063400000012, 35.6870475 ] } },
{ "type": "Feature", "properties": { "lat": 35.6711228, "lon": 139.7630816, "title": "てんぷら 近藤／Tempura Kondo" }, "geometry": { "type": "Point", "coordinates": [ 139.7630816, 35.6711228 ] } },
{ "type": "Feature", "properties": { "lat": 35.6860581, "lon": 139.7840419, "title": "天ぷら やぐち／Tempura Yaguchi" }, "geometry": { "type": "Point", "coordinates": [ 139.7840419, 35.6860581 ] } },
{ "type": "Feature", "properties": { "lat": 35.6729966, "lon": 139.7665258, "title": "ベージュ アラン・デュカス／BEIGE Alain Ducasse" }, "geometry": { "type": "Point", "coordinates": [ 139.766525800000011, 35.6729966 ] } },
{ "type": "Feature", "properties": { "lat": 35.6692505, "lon": 139.7592458, "title": "青空／Harutaka" }, "geometry": { "type": "Point", "coordinates": [ 139.7592458, 35.6692505 ] } },
{ "type": "Feature", "properties": { "lat": 35.6862565, "lon": 139.784509, "title": "日本橋 蕎ノ字／Nihombashi Sonoji" }, "geometry": { "type": "Point", "coordinates": [ 139.784509, 35.6862565 ] } },
{ "type": "Feature", "properties": { "lat": 35.6709068, "lon": 139.7688463, "title": "時喰み／Tokihami" }, "geometry": { "type": "Point", "coordinates": [ 139.7688463, 35.6709068 ] } },
{ "type": "Feature", "properties": { "lat": 35.6655101, "lon": 139.773662, "title": "鮨 桂太／Sushi Keita" }, "geometry": { "type": "Point", "coordinates": [ 139.773662, 35.6655101 ] } },
{ "type": "Feature", "properties": { "lat": 35.6764566, "lon": 139.7704595, "title": "京橋 てんぷら 深町／Kyobashi Tempura Fukamachi" }, "geometry": { "type": "Point", "coordinates": [ 139.770459499999987, 35.6764566 ] } },
{ "type": "Feature", "properties": { "lat": 35.6707373, "lon": 139.7636546, "title": "喰善 あべ／Shokuzen Abe" }, "geometry": { "type": "Point", "coordinates": [ 139.7636546, 35.6707373 ] } },
{ "type": "Feature", "properties": { "lat": 35.6739889, "lon": 139.766406, "title": "マシア／MASIA" }, "geometry": { "type": "Point", "coordinates": [ 139.766406, 35.6739889 ] } },
{ "type": "Feature", "properties": { "lat": 35.674577, "lon": 139.7817404, "title": "中国菜 漢／Chugokusai Kan" }, "geometry": { "type": "Point", "coordinates": [ 139.7817404, 35.674577 ] } },
{ "type": "Feature", "properties": { "lat": 35.685642, "lon": 139.7840497, "title": "柳燕／Ryuen" }, "geometry": { "type": "Point", "coordinates": [ 139.7840497, 35.685642 ] } },
{ "type": "Feature", "properties": { "lat": 35.6729827, "lon": 139.7744134, "title": "鮨 はしもと／Sushi Hashimoto" }, "geometry": { "type": "Point", "coordinates": [ 139.774413399999986, 35.6729827 ] } },
{ "type": "Feature", "properties": { "lat": 35.6702447, "lon": 139.7616783, "title": "銀座 とよだ／Ginza Toyoda" }, "geometry": { "type": "Point", "coordinates": [ 139.7616783, 35.6702447 ] } },
{ "type": "Feature", "properties": { "lat": 35.6710693, "lon": 139.7626123, "title": "現代茶寮 銀座凮月堂／Gendaisaryo Ginza Fugetsudo" }, "geometry": { "type": "Point", "coordinates": [ 139.7626123, 35.6710693 ] } },
{ "type": "Feature", "properties": { "lat": 35.6735658, "lon": 139.7673177, "title": "シン ハラダ／Shin Harada" }, "geometry": { "type": "Point", "coordinates": [ 139.7673177, 35.6735658 ] } },
{ "type": "Feature", "properties": { "lat": 35.6685146, "lon": 139.7610057, "title": "御料理 かつ志／Oryori Katsushi" }, "geometry": { "type": "Point", "coordinates": [ 139.7610057, 35.6685146 ] } },
{ "type": "Feature", "properties": { "lat": 35.6827422, "lon": 139.7793861, "title": "アサヒナガストロノーム／ASAHINA Gastronome" }, "geometry": { "type": "Point", "coordinates": [ 139.779386100000011, 35.6827422 ] } },
{ "type": "Feature", "properties": { "lat": 35.6699259, "lon": 139.7715078, "title": "東京チャイニーズ 一凛／Tokyo Chinese Ichirin" }, "geometry": { "type": "Point", "coordinates": [ 139.7715078, 35.6699259 ] } },
{ "type": "Feature", "properties": { "lat": 35.6868974, "lon": 139.7748465, "title": "ラ・ボンヌターブル／LA BONNE TABLE" }, "geometry": { "type": "Point", "coordinates": [ 139.7748465, 35.6868974 ] } },
{ "type": "Feature", "properties": { "lat": 35.68734, "lon": 139.7739343, "title": "ポンドール・イノ／Pont d'Or Inno" }, "geometry": { "type": "Point", "coordinates": [ 139.7739343, 35.68734 ] } },
{ "type": "Feature", "properties": { "lat": 35.6691454, "lon": 139.7625736, "title": "銀座 ハプスブルク・ファイルヒェン／GINZA HABSBURG VEILCHEN" }, "geometry": { "type": "Point", "coordinates": [ 139.7625736, 35.6691454 ] } },
{ "type": "Feature", "properties": { "lat": 35.6671388, "lon": 139.7656447, "title": "トワヴィサージュ／TROIS VISAGES" }, "geometry": { "type": "Point", "coordinates": [ 139.7656447, 35.6671388 ] } },
{ "type": "Feature", "properties": { "lat": 35.6685747, "lon": 139.7669052, "title": "馳創 吼龍／Chiso Koryu" }, "geometry": { "type": "Point", "coordinates": [ 139.7669052, 35.6685747 ] } },
{ "type": "Feature", "properties": { "lat": 35.6952872, "lon": 139.7835417, "title": "ノル／nôl" }, "geometry": { "type": "Point", "coordinates": [ 139.7835417, 35.6952872 ] } },
{ "type": "Feature", "properties": { "lat": 35.6710498, "lon": 139.761065, "title": "鮨 太一／Sushi Taichi" }, "geometry": { "type": "Point", "coordinates": [ 139.761065, 35.6710498 ] } },
{ "type": "Feature", "properties": { "lat": 35.6698184, "lon": 139.7782051, "title": "焼鳥 本田／Yakitori Honda" }, "geometry": { "type": "Point", "coordinates": [ 139.7782051, 35.6698184 ] } },
{ "type": "Feature", "properties": { "lat": 35.6903063, "lon": 139.7827048, "title": "鮨 一條／Sushi Ichijo" }, "geometry": { "type": "Point", "coordinates": [ 139.7827048, 35.6903063 ] } },
{ "type": "Feature", "properties": { "lat": 35.6708273, "lon": 139.7691915, "title": "イバイア／IBAIA" }, "geometry": { "type": "Point", "coordinates": [ 139.7691915, 35.6708273 ] } },
{ "type": "Feature", "properties": { "lat": 35.6724272, "lon": 139.7728258, "title": "オルタンシア／hortensia" }, "geometry": { "type": "Point", "coordinates": [ 139.7728258, 35.6724272 ] } },
{ "type": "Feature", "properties": { "lat": 35.6699067, "lon": 139.7685078, "title": "歌舞伎座裏まさし／Kabukizaura Masashi" }, "geometry": { "type": "Point", "coordinates": [ 139.7685078, 35.6699067 ] } },
{ "type": "Feature", "properties": { "lat": 35.6770691, "lon": 139.7692033, "title": "シェ・イノ／Chez Inno" }, "geometry": { "type": "Point", "coordinates": [ 139.769203299999987, 35.6770691 ] } },
{ "type": "Feature", "properties": { "lat": 35.6700559, "lon": 139.7602259, "title": "蓮 三四七／Ren Mishina" }, "geometry": { "type": "Point", "coordinates": [ 139.7602259, 35.6700559 ] } },
{ "type": "Feature", "properties": { "lat": 35.6727722, "lon": 139.7711013, "title": "ラ・ベットラ・ダ・オチアイ／LA BETTOLA da Ochiai" }, "geometry": { "type": "Point", "coordinates": [ 139.7711013, 35.6727722 ] } },
{ "type": "Feature", "properties": { "lat": 35.6840871, "lon": 139.7882994, "title": "浜町 かねこ／Hamacho Kaneko" }, "geometry": { "type": "Point", "coordinates": [ 139.7882994, 35.6840871 ] } },
{ "type": "Feature", "properties": { "lat": 35.6928376, "lon": 139.7871528, "title": "旬華 なか村／Shunka Nakamura" }, "geometry": { "type": "Point", "coordinates": [ 139.7871528, 35.6928376 ] } },
{ "type": "Feature", "properties": { "lat": 35.6685422, "lon": 139.76155, "title": "銀座 福樹／Ginza Fukuju" }, "geometry": { "type": "Point", "coordinates": [ 139.76155, 35.6685422 ] } },
{ "type": "Feature", "properties": { "lat": 35.6862536, "lon": 139.7812335, "title": "かつ好／Katsuyoshi" }, "geometry": { "type": "Point", "coordinates": [ 139.781233500000013, 35.6862536 ] } },
{ "type": "Feature", "properties": { "lat": 35.685642, "lon": 139.7840497, "title": "江戸前 晋作／Edomae Shinsaku" }, "geometry": { "type": "Point", "coordinates": [ 139.7840497, 35.685642 ] } },
{ "type": "Feature", "properties": { "lat": 35.6717161, "lon": 139.7633311, "title": "エスキス／ESqUISSE" }, "geometry": { "type": "Point", "coordinates": [ 139.763331099999988, 35.6717161 ] } },
{ "type": "Feature", "properties": { "lat": 35.6730276, "lon": 139.7697806, "title": "おにく 花柳／Oniku Karyu" }, "geometry": { "type": "Point", "coordinates": [ 139.7697806, 35.6730276 ] } },
{ "type": "Feature", "properties": { "lat": 35.6677243, "lon": 139.7705763, "title": "天麩羅 なかがわ／Tempura Nakagawa" }, "geometry": { "type": "Point", "coordinates": [ 139.770576299999988, 35.6677243 ] } },
{ "type": "Feature", "properties": { "lat": 35.6708723, "lon": 139.7737107, "title": "新富町 湯浅／Shintomicho Yuasa" }, "geometry": { "type": "Point", "coordinates": [ 139.7737107, 35.6708723 ] } },
{ "type": "Feature", "properties": { "lat": 35.6679247, "lon": 139.7737482, "title": "櫻木／Sakuragi" }, "geometry": { "type": "Point", "coordinates": [ 139.7737482, 35.6679247 ] } },
{ "type": "Feature", "properties": { "lat": 35.6714346, "lon": 139.7630316, "title": "銀座 小十／Ginza Kojyu" }, "geometry": { "type": "Point", "coordinates": [ 139.7630316, 35.6714346 ] } },
{ "type": "Feature", "properties": { "lat": 35.6697371, "lon": 139.7619665, "title": "銀座 安達直人／Ginza Adachi Naoto" }, "geometry": { "type": "Point", "coordinates": [ 139.7619665, 35.6697371 ] } },
{ "type": "Feature", "properties": { "lat": 35.6700228, "lon": 139.7716376, "title": "プリモ パッソ／PRIMO PASSO" }, "geometry": { "type": "Point", "coordinates": [ 139.7716376, 35.6700228 ] } },
{ "type": "Feature", "properties": { "lat": 35.6693815, "lon": 139.7595144, "title": "鮨 こばやし／Sushi Kobayashi" }, "geometry": { "type": "Point", "coordinates": [ 139.7595144, 35.6693815 ] } },
{ "type": "Feature", "properties": { "lat": 35.670423, "lon": 139.76242, "title": "つるとかめ／Tsurutokame" }, "geometry": { "type": "Point", "coordinates": [ 139.76242, 35.670423 ] } },
{ "type": "Feature", "properties": { "lat": 35.6809812, "lon": 139.7746068, "title": "焼鳥 髙はし／Yakitori Takahashi" }, "geometry": { "type": "Point", "coordinates": [ 139.774606799999987, 35.6809812 ] } },
{ "type": "Feature", "properties": { "lat": 35.6753285, "lon": 139.7664319, "title": "エシカ／ETHICA" }, "geometry": { "type": "Point", "coordinates": [ 139.766431899999986, 35.6753285 ] } },
{ "type": "Feature", "properties": { "lat": 35.6679247, "lon": 139.7737482, "title": "鮨処 やまと／Sushidokoro Yamato" }, "geometry": { "type": "Point", "coordinates": [ 139.7737482, 35.6679247 ] } },
{ "type": "Feature", "properties": { "lat": 35.6718956, "lon": 139.7653829, "title": "銀座 レカン／Ginza L’écrin" }, "geometry": { "type": "Point", "coordinates": [ 139.7653829, 35.6718956 ] } },
{ "type": "Feature", "properties": { "lat": 35.6649954, "lon": 139.7736757, "title": "ふぐ倶楽部 miyawaki 別邸／Fugu Club miyawaki Bettei" }, "geometry": { "type": "Point", "coordinates": [ 139.773675700000013, 35.6649954 ] } },
{ "type": "Feature", "properties": { "lat": 35.6700825, "lon": 139.7629229, "title": "ぎんざ かつかみ弐／GINZA KATSUKAMI II" }, "geometry": { "type": "Point", "coordinates": [ 139.7629229, 35.6700825 ] } },
{ "type": "Feature", "properties": { "lat": 35.6723309, "lon": 139.7652733, "title": "百薬 by 徳山鮓／Hyakuyaku by Tokuyamazushi" }, "geometry": { "type": "Point", "coordinates": [ 139.7652733, 35.6723309 ] } },
{ "type": "Feature", "properties": { "lat": 35.6709068, "lon": 139.7688463, "title": "銀座はるちゃんラーメン／Ginza HARU CHAN Ramen" }, "geometry": { "type": "Point", "coordinates": [ 139.7688463, 35.6709068 ] } },
{ "type": "Feature", "properties": { "lat": 35.6747988, "lon": 139.767302, "title": "ドミニク・ブシェ トーキョー／Dominique Bouchet Tokyo" }, "geometry": { "type": "Point", "coordinates": [ 139.767302, 35.6747988 ] } },
{ "type": "Feature", "properties": { "lat": 35.6870475, "lon": 139.7730634, "title": "シグネチャー／SIGNATURE" }, "geometry": { "type": "Point", "coordinates": [ 139.773063400000012, 35.6870475 ] } },
{ "type": "Feature", "properties": { "lat": 35.6701935, "lon": 139.7650003, "title": "ラフィナージュ／L'AFFINAGE" }, "geometry": { "type": "Point", "coordinates": [ 139.7650003, 35.6701935 ] } },
{ "type": "Feature", "properties": { "lat": 35.6723672, "lon": 139.7750353, "title": "鮨 美幸／Sushi Miyuki" }, "geometry": { "type": "Point", "coordinates": [ 139.775035300000013, 35.6723672 ] } },
{ "type": "Feature", "properties": { "lat": 35.6700825, "lon": 139.7629229, "title": "スリオラ／ZURRIOLA" }, "geometry": { "type": "Point", "coordinates": [ 139.7629229, 35.6700825 ] } },
{ "type": "Feature", "properties": { "lat": 35.6679846, "lon": 139.7626384, "title": "鮨 かねさか／Sushi Kanesaka" }, "geometry": { "type": "Point", "coordinates": [ 139.762638399999986, 35.6679846 ] } },
{ "type": "Feature", "properties": { "lat": 35.6760118, "lon": 139.7714979, "title": "サカキ／SAKAKI" }, "geometry": { "type": "Point", "coordinates": [ 139.771497900000014, 35.6760118 ] } },
{ "type": "Feature", "properties": { "lat": 35.6729358, "lon": 139.7678235, "title": "銀座 しのはら／Ginza Shinohara" }, "geometry": { "type": "Point", "coordinates": [ 139.7678235, 35.6729358 ] } },
{ "type": "Feature", "properties": { "lat": 35.6720816, "lon": 139.7682929, "title": "銀座 きた川／Ginza Kitagawa" }, "geometry": { "type": "Point", "coordinates": [ 139.7682929, 35.6720816 ] } },
{ "type": "Feature", "properties": { "lat": 35.6812057, "lon": 139.7781479, "title": "ホッパーズ／HOPPERS" }, "geometry": { "type": "Point", "coordinates": [ 139.7781479, 35.6812057 ] } },
{ "type": "Feature", "properties": { "lat": 35.6862974, "lon": 139.7757336, "title": "ファルスィ ラルゴ／farsi largo!" }, "geometry": { "type": "Point", "coordinates": [ 139.7757336, 35.6862974 ] } },
{ "type": "Feature", "properties": { "lat": 35.6709865, "lon": 139.7638602, "title": "アマラントス／amarantos" }, "geometry": { "type": "Point", "coordinates": [ 139.763860200000011, 35.6709865 ] } },
{ "type": "Feature", "properties": { "lat": 35.6691371, "lon": 139.7645491, "title": "銀座 志翠／Ginza Kousui" }, "geometry": { "type": "Point", "coordinates": [ 139.764549100000011, 35.6691371 ] } },
{ "type": "Feature", "properties": { "lat": 35.6715885, "lon": 139.7740274, "title": "久丹／Kutan" }, "geometry": { "type": "Point", "coordinates": [ 139.7740274, 35.6715885 ] } },
{ "type": "Feature", "properties": { "lat": 35.6688015, "lon": 139.7614743, "title": "オステリア ダ カッパ／Osteria da K. [káppa]" }, "geometry": { "type": "Point", "coordinates": [ 139.7614743, 35.6688015 ] } },
{ "type": "Feature", "properties": { "lat": 35.6734129, "lon": 139.7700651, "title": "アロセリア ラ パンサ／ARROCERÍA La Panza" }, "geometry": { "type": "Point", "coordinates": [ 139.770065100000011, 35.6734129 ] } },
{ "type": "Feature", "properties": { "lat": 35.6717228, "lon": 139.7637504, "title": "六雁／Mutsukari" }, "geometry": { "type": "Point", "coordinates": [ 139.7637504, 35.6717228 ] } },
{ "type": "Feature", "properties": { "lat": 35.6788388, "lon": 139.7683266, "title": "イル・リストランテ ニコ・ロミート／Il Ristorante - Niko Romito" }, "geometry": { "type": "Point", "coordinates": [ 139.7683266, 35.6788388 ] } },
{ "type": "Feature", "properties": { "lat": 35.6701957, "lon": 139.7679734, "title": "銀座 四代目 髙橋屋／Ginza Yondaime TAKAHASHIYA" }, "geometry": { "type": "Point", "coordinates": [ 139.767973399999988, 35.6701957 ] } },
{ "type": "Feature", "properties": { "lat": 35.6704952, "lon": 139.7621529, "title": "グッチ オステリア ダ マッシモ ボットゥーラ トウキョウ／Gucci Osteria da Massimo Bottura Tokyo" }, "geometry": { "type": "Point", "coordinates": [ 139.7621529, 35.6704952 ] } },
{ "type": "Feature", "properties": { "lat": 35.6706115, "lon": 139.7688321, "title": "ラ・ボッテガイア／LA BOTTEGAIA" }, "geometry": { "type": "Point", "coordinates": [ 139.7688321, 35.6706115 ] } },
{ "type": "Feature", "properties": { "lat": 35.6696425, "lon": 139.7688858, "title": "ビストロ ヴィヴィエンヌ／Bistrot Vivienne" }, "geometry": { "type": "Point", "coordinates": [ 139.7688858, 35.6696425 ] } },
{ "type": "Feature", "properties": { "lat": 35.6703567, "lon": 139.7606524, "title": "銀座 呑小路 やま岸／Ginza Nominokoji Yamagishi" }, "geometry": { "type": "Point", "coordinates": [ 139.7606524, 35.6703567 ] } },
{ "type": "Feature", "properties": { "lat": 35.6698101, "lon": 139.765439, "title": "能登 金沢の幸 銀座 ふる田／Noto Kanazawanosachi Ginza Furuta" }, "geometry": { "type": "Point", "coordinates": [ 139.765439, 35.6698101 ] } },
{ "type": "Feature", "properties": { "lat": 35.6880712, "lon": 139.7844025, "title": "ヤマト／YAMATO" }, "geometry": { "type": "Point", "coordinates": [ 139.7844025, 35.6880712 ] } },
{ "type": "Feature", "properties": { "lat": 35.669278, "lon": 139.7624102, "title": "エスプリ セー ケイ ギンザ／ESPRIT C. KEI GINZA" }, "geometry": { "type": "Point", "coordinates": [ 139.7624102, 35.669278 ] } },
{ "type": "Feature", "properties": { "lat": 35.6692936, "lon": 139.7649044, "title": "ヌガ／Le Nougat" }, "geometry": { "type": "Point", "coordinates": [ 139.7649044, 35.6692936 ] } },
{ "type": "Feature", "properties": { "lat": 35.6870475, "lon": 139.7730634, "title": "ピッツァバー on 38th／The Pizza Bar on 38th" }, "geometry": { "type": "Point", "coordinates": [ 139.773063400000012, 35.6870475 ] } },
{ "type": "Feature", "properties": { "lat": 35.6705793, "lon": 139.7700837, "title": "中華そば 銀座 八五／Chukasoba Ginza Hachigou" }, "geometry": { "type": "Point", "coordinates": [ 139.770083699999986, 35.6705793 ] } },
{ "type": "Feature", "properties": { "lat": 35.6799556, "lon": 139.7869602, "title": "箱崎町すみと／Hakozakicho Sumito" }, "geometry": { "type": "Point", "coordinates": [ 139.78696020000001, 35.6799556 ] } },
{ "type": "Feature", "properties": { "lat": 35.6816481, "lon": 139.7712793, "title": "八重洲 鰻 はし本／Yaesu Unagi Hashimoto" }, "geometry": { "type": "Point", "coordinates": [ 139.7712793, 35.6816481 ] } },
{ "type": "Feature", "properties": { "lat": 35.6908124, "lon": 139.7825617, "title": "釉月／Yugetsu" }, "geometry": { "type": "Point", "coordinates": [ 139.7825617, 35.6908124 ] } },
{ "type": "Feature", "properties": { "lat": 35.685642, "lon": 139.7840497, "title": "御料理 心馬／Oryori Kokoroba" }, "geometry": { "type": "Point", "coordinates": [ 139.7840497, 35.685642 ] } },
{ "type": "Feature", "properties": { "lat": 35.6698761, "lon": 139.7613223, "title": "ロオジエ／L'OSIER" }, "geometry": { "type": "Point", "coordinates": [ 139.761322299999989, 35.6698761 ] } },
{ "type": "Feature", "properties": { "lat": 35.6702401, "lon": 139.7604687, "title": "鮨 こじま／Sushi Kojima" }, "geometry": { "type": "Point", "coordinates": [ 139.7604687, 35.6702401 ] } },
{ "type": "Feature", "properties": { "lat": 35.6339718, "lon": 139.7181671, "title": "やきとり 阿部／Yakitori Abe" }, "geometry": { "type": "Point", "coordinates": [ 139.718167099999988, 35.6339718 ] } },
{ "type": "Feature", "properties": { "lat": 35.6045215, "lon": 139.7337586, "title": "ブラッスリー ポワソンルージュ／BRASSERIE POISSON ROUGE" }, "geometry": { "type": "Point", "coordinates": [ 139.733758599999987, 35.6045215 ] } },
{ "type": "Feature", "properties": { "lat": 35.5908116, "lon": 139.7327862, "title": "Homemade Ramen 麦苗／Homemade Ramen Muginae" }, "geometry": { "type": "Point", "coordinates": [ 139.7327862, 35.5908116 ] } },
{ "type": "Feature", "properties": { "lat": 35.6260105, "lon": 139.7296975, "title": "ヌキテパ／Ne Quittez pas" }, "geometry": { "type": "Point", "coordinates": [ 139.729697499999986, 35.6260105 ] } },
{ "type": "Feature", "properties": { "lat": 35.614559, "lon": 139.6999789, "title": "ネリザ／nerisa" }, "geometry": { "type": "Point", "coordinates": [ 139.6999789, 35.614559 ] } },
{ "type": "Feature", "properties": { "lat": 35.6263151, "lon": 139.7280945, "title": "リストランテ アンジェロ／Ristorante Angelo" }, "geometry": { "type": "Point", "coordinates": [ 139.7280945, 35.6263151 ] } },
{ "type": "Feature", "properties": { "lat": 35.6239862, "lon": 139.7333701, "title": "カンテサンス／Quintessence" }, "geometry": { "type": "Point", "coordinates": [ 139.7333701, 35.6239862 ] } },
{ "type": "Feature", "properties": { "lat": 35.6188165, "lon": 139.706355, "title": "もち豚とんかつ たいよう／Mochibuta Tonkatsu Taiyo" }, "geometry": { "type": "Point", "coordinates": [ 139.706355, 35.6188165 ] } }
]
}
