{
"type": "FeatureCollection",
"name": "nightlife2025",
"crs": { "type": "name", "properties": { "name": "urn:ogc:def:crs:OGC:1.3:CRS84" } },
"features": [
{ "type": "Feature", "properties": { "lat": 35.6642349, "lon": 139.7315452, "title": "unravel tokyo" }, "geometry": { "type": "Point", "coordinates": [ 139.7315452, 35.6642349 ] } },
{ "type": "Feature", "properties": { "lat": 35.6633279, "lon": 139.7342002, "title": "ZEUS GARDEN" }, "geometry": { "type": "Point", "coordinates": [ 139.7342002, 35.6633279 ] } },
{ "type": "Feature", "properties": { "lat": 35.6569619, "lon": 139.7353052, "title": "1OAK TOKYO" }, "geometry": { "type": "Point", "coordinates": [ 139.7353052, 35.6569619 ] } },
{ "type": "Feature", "properties": { "lat": 35.6567464, "lon": 139.7620412, "title": "BANK30" }, "geometry": { "type": "Point", "coordinates": [ 139.7620412, 35.6567464 ] } },
{ "type": "Feature", "properties": { "lat": 35.6603701, "lon": 139.7249753, "title": "PULPLISM" }, "geometry": { "type": "Point", "coordinates": [ 139.724975300000011, 35.6603701 ] } },
{ "type": "Feature", "properties": { "lat": 35.6598166, "lon": 139.7322861, "title": "THE PUBLIC SIX" }, "geometry": { "type": "Point", "coordinates": [ 139.73228610000001, 35.6598166 ] } },
{ "type": "Feature", "properties": { "lat": 35.6626778, "lon": 139.7339961, "title": "mint" }, "geometry": { "type": "Point", "coordinates": [ 139.733996100000013, 35.6626778 ] } },
{ "type": "Feature", "properties": { "lat": 35.6613097, "lon": 139.7233922, "title": "Trip Bar" }, "geometry": { "type": "Point", "coordinates": [ 139.7233922, 35.6613097 ] } },
{ "type": "Feature", "properties": { "lat": 35.6622324, "lon": 139.7351655, "title": "JP Bar" }, "geometry": { "type": "Point", "coordinates": [ 139.7351655, 35.6622324 ] } },
{ "type": "Feature", "properties": { "lat": 35.6276709, "lon": 139.73619, "title": " TABLE 9 TOKYO (NINE BAR)" }, "geometry": { "type": "Point", "coordinates": [ 139.73619, 35.6276709 ] } },
{ "type": "Feature", "properties": { "lat": 35.6633279, "lon": 139.7342002, "title": "ZEN TOKYO" }, "geometry": { "type": "Point", "coordinates": [ 139.7342002, 35.6633279 ] } },
{ "type": "Feature", "properties": { "lat": 35.6625667, "lon": 139.734926, "title": "Seven Tokyo" }, "geometry": { "type": "Point", "coordinates": [ 139.734926, 35.6625667 ] } },
{ "type": "Feature", "properties": { "lat": 35.6636817, "lon": 139.7314965, "title": "TOKYO R Bar&Cafe" }, "geometry": { "type": "Point", "coordinates": [ 139.7314965, 35.6636817 ] } },
{ "type": "Feature", "properties": { "lat": 35.6762538, "lon": 139.736323, "title": "Bar Luther" }, "geometry": { "type": "Point", "coordinates": [ 139.736323, 35.6762538 ] } },
{ "type": "Feature", "properties": { "lat": 35.6627685, "lon": 139.7336878, "title": "Padi’s Tokyo" }, "geometry": { "type": "Point", "coordinates": [ 139.733687800000013, 35.6627685 ] } },
{ "type": "Feature", "properties": { "lat": 35.663129, "lon": 139.7330944, "title": "Motown House" }, "geometry": { "type": "Point", "coordinates": [ 139.7330944, 35.663129 ] } },
{ "type": "Feature", "properties": { "lat": 35.6648842, "lon": 139.7297933, "title": "SEL OCTAGON TOKYO" }, "geometry": { "type": "Point", "coordinates": [ 139.729793300000011, 35.6648842 ] } },
{ "type": "Feature", "properties": { "lat": 35.6616341, "lon": 139.7352446, "title": "F.Y.B TOKYO" }, "geometry": { "type": "Point", "coordinates": [ 139.735244599999987, 35.6616341 ] } },
{ "type": "Feature", "properties": { "lat": 35.6624232, "lon": 139.734926, "title": "SONIDO’S BAR" }, "geometry": { "type": "Point", "coordinates": [ 139.734926, 35.6624232 ] } },
{ "type": "Feature", "properties": { "lat": 35.6601544, "lon": 139.7277748, "title": "BASECAMP" }, "geometry": { "type": "Point", "coordinates": [ 139.7277748, 35.6601544 ] } },
{ "type": "Feature", "properties": { "lat": 35.6640023, "lon": 139.7305494, "title": "VABEL LOUNGE (Tower of Vabel)" }, "geometry": { "type": "Point", "coordinates": [ 139.7305494, 35.6640023 ] } },
{ "type": "Feature", "properties": { "lat": 35.665076, "lon": 139.7326313, "title": "atomage" }, "geometry": { "type": "Point", "coordinates": [ 139.7326313, 35.665076 ] } },
{ "type": "Feature", "properties": { "lat": 35.6698382, "lon": 139.7330071, "title": "dot & blue" }, "geometry": { "type": "Point", "coordinates": [ 139.7330071, 35.6698382 ] } },
{ "type": "Feature", "properties": { "lat": 35.6649259, "lon": 139.7278073, "title": "R&B cafe Boo" }, "geometry": { "type": "Point", "coordinates": [ 139.7278073, 35.6649259 ] } },
{ "type": "Feature", "properties": { "lat": 35.6740362, "lon": 139.7373209, "title": "The Great Journey" }, "geometry": { "type": "Point", "coordinates": [ 139.737320899999986, 35.6740362 ] } },
{ "type": "Feature", "properties": { "lat": 35.6646414, "lon": 139.7285563, "title": "Funky D" }, "geometry": { "type": "Point", "coordinates": [ 139.7285563, 35.6646414 ] } },
{ "type": "Feature", "properties": { "lat": 35.6632884, "lon": 139.7329703, "title": "RAKAN TOKYO" }, "geometry": { "type": "Point", "coordinates": [ 139.7329703, 35.6632884 ] } },
{ "type": "Feature", "properties": { "lat": 35.6768826, "lon": 139.736777, "title": "鶴千" }, "geometry": { "type": "Point", "coordinates": [ 139.736777, 35.6768826 ] } },
{ "type": "Feature", "properties": { "lat": 35.6629041, "lon": 139.7338373, "title": "MAGNET" }, "geometry": { "type": "Point", "coordinates": [ 139.7338373, 35.6629041 ] } },
{ "type": "Feature", "properties": { "lat": 35.6723179, "lon": 139.7217362, "title": "青山RizM" }, "geometry": { "type": "Point", "coordinates": [ 139.7217362, 35.6723179 ] } },
{ "type": "Feature", "properties": { "lat": 35.6764362, "lon": 139.735884, "title": "Graffiti" }, "geometry": { "type": "Point", "coordinates": [ 139.735884, 35.6764362 ] } },
{ "type": "Feature", "properties": { "lat": 35.661936, "lon": 139.7330037, "title": "Electrik神社" }, "geometry": { "type": "Point", "coordinates": [ 139.733003700000012, 35.661936 ] } },
{ "type": "Feature", "properties": { "lat": 35.6745648, "lon": 139.7375604, "title": "CRAWFISH" }, "geometry": { "type": "Point", "coordinates": [ 139.7375604, 35.6745648 ] } },
{ "type": "Feature", "properties": { "lat": 35.6555301, "lon": 139.7347368, "title": "Cafe del A.R.M" }, "geometry": { "type": "Point", "coordinates": [ 139.7347368, 35.6555301 ] } },
{ "type": "Feature", "properties": { "lat": 35.6640023, "lon": 139.7305494, "title": "VILLA TOKYO" }, "geometry": { "type": "Point", "coordinates": [ 139.7305494, 35.6640023 ] } },
{ "type": "Feature", "properties": { "lat": 35.6592102, "lon": 139.7325451, "title": "1OAK Tokyo" }, "geometry": { "type": "Point", "coordinates": [ 139.73254510000001, 35.6592102 ] } },
{ "type": "Feature", "properties": { "lat": 35.6625397, "lon": 139.7332497, "title": "MEZZO TOKYO" }, "geometry": { "type": "Point", "coordinates": [ 139.733249699999988, 35.6625397 ] } },
{ "type": "Feature", "properties": { "lat": 35.6651715, "lon": 139.7128739, "title": "VENT" }, "geometry": { "type": "Point", "coordinates": [ 139.7128739, 35.6651715 ] } },
{ "type": "Feature", "properties": { "lat": 35.662247, "lon": 139.7338937, "title": "GOLD LOUNGE New Lex" }, "geometry": { "type": "Point", "coordinates": [ 139.73389370000001, 35.662247 ] } },
{ "type": "Feature", "properties": { "lat": 35.6640023, "lon": 139.7305494, "title": "V2 TOKYO" }, "geometry": { "type": "Point", "coordinates": [ 139.7305494, 35.6640023 ] } },
{ "type": "Feature", "properties": { "lat": 35.6633279, "lon": 139.7342002, "title": "DiA tokyo" }, "geometry": { "type": "Point", "coordinates": [ 139.7342002, 35.6633279 ] } },
{ "type": "Feature", "properties": { "lat": 35.6651715, "lon": 139.7128739, "title": "WALL&WALL" }, "geometry": { "type": "Point", "coordinates": [ 139.7128739, 35.6651715 ] } },
{ "type": "Feature", "properties": { "lat": 35.6632877, "lon": 139.731796, "title": "GERONIMO SHOT BAR" }, "geometry": { "type": "Point", "coordinates": [ 139.731796, 35.6632877 ] } },
{ "type": "Feature", "properties": { "lat": 35.6646572, "lon": 139.7292087, "title": "VIVO BAR TOKYO" }, "geometry": { "type": "Point", "coordinates": [ 139.729208699999987, 35.6646572 ] } },
{ "type": "Feature", "properties": { "lat": 35.66104, "lon": 139.7241171, "title": "R TOKYO" }, "geometry": { "type": "Point", "coordinates": [ 139.7241171, 35.66104 ] } },
{ "type": "Feature", "properties": { "lat": 35.6610284, "lon": 139.7263842, "title": "A-LIFE" }, "geometry": { "type": "Point", "coordinates": [ 139.726384200000012, 35.6610284 ] } },
{ "type": "Feature", "properties": { "lat": 35.6612086, "lon": 139.737256, "title": "VARIT." }, "geometry": { "type": "Point", "coordinates": [ 139.737256, 35.6612086 ] } },
{ "type": "Feature", "properties": { "lat": 35.6604214, "lon": 139.729972, "title": "TUSK" }, "geometry": { "type": "Point", "coordinates": [ 139.729972, 35.6604214 ] } },
{ "type": "Feature", "properties": { "lat": 35.6592912, "lon": 139.7151922, "title": "Future SEVEN" }, "geometry": { "type": "Point", "coordinates": [ 139.7151922, 35.6592912 ] } },
{ "type": "Feature", "properties": { "lat": 35.663129, "lon": 139.7330944, "title": "FIRE HORSE" }, "geometry": { "type": "Point", "coordinates": [ 139.7330944, 35.663129 ] } },
{ "type": "Feature", "properties": { "lat": 35.6651715, "lon": 139.7128739, "title": "ARC" }, "geometry": { "type": "Point", "coordinates": [ 139.7128739, 35.6651715 ] } },
{ "type": "Feature", "properties": { "lat": 35.6674349, "lon": 139.7599669, "title": "MixBerry" }, "geometry": { "type": "Point", "coordinates": [ 139.7599669, 35.6674349 ] } },
{ "type": "Feature", "properties": { "lat": 35.6629686, "lon": 139.7334692, "title": "Cat’s TOKYO" }, "geometry": { "type": "Point", "coordinates": [ 139.7334692, 35.6629686 ] } },
{ "type": "Feature", "properties": { "lat": 35.66104, "lon": 139.7241171, "title": "BERG and WEST" }, "geometry": { "type": "Point", "coordinates": [ 139.7241171, 35.66104 ] } },
{ "type": "Feature", "properties": { "lat": 35.6651607, "lon": 139.712908, "title": "FAME" }, "geometry": { "type": "Point", "coordinates": [ 139.712908, 35.6651607 ] } },
{ "type": "Feature", "properties": { "lat": 35.6616993, "lon": 139.735468, "title": "CIRCUS+" }, "geometry": { "type": "Point", "coordinates": [ 139.735468, 35.6616993 ] } },
{ "type": "Feature", "properties": { "lat": 35.6601103, "lon": 139.7241493, "title": "BAR BLUE" }, "geometry": { "type": "Point", "coordinates": [ 139.7241493, 35.6601103 ] } },
{ "type": "Feature", "properties": { "lat": 35.6631777, "lon": 139.7334094, "title": "APOLLO Club TOKYO" }, "geometry": { "type": "Point", "coordinates": [ 139.7334094, 35.6631777 ] } },
{ "type": "Feature", "properties": { "lat": 35.6652, "lon": 139.7131175, "title": "SHAG" }, "geometry": { "type": "Point", "coordinates": [ 139.71311750000001, 35.6652 ] } },
{ "type": "Feature", "properties": { "lat": 35.6703639, "lon": 139.7268965, "title": "EDITION" }, "geometry": { "type": "Point", "coordinates": [ 139.7268965, 35.6703639 ] } },
{ "type": "Feature", "properties": { "lat": 35.662247, "lon": 139.7338937, "title": "ENZO Bar" }, "geometry": { "type": "Point", "coordinates": [ 139.73389370000001, 35.662247 ] } },
{ "type": "Feature", "properties": { "lat": 35.6569619, "lon": 139.7353052, "title": "ELE TOKYO" }, "geometry": { "type": "Point", "coordinates": [ 139.7353052, 35.6569619 ] } },
{ "type": "Feature", "properties": { "lat": 35.6564722, "lon": 139.7348476, "title": "IVY" }, "geometry": { "type": "Point", "coordinates": [ 139.7348476, 35.6564722 ] } },
{ "type": "Feature", "properties": { "lat": 35.6624746, "lon": 139.7345153, "title": "REIGN TOKYO" }, "geometry": { "type": "Point", "coordinates": [ 139.7345153, 35.6624746 ] } },
{ "type": "Feature", "properties": { "lat": 35.6625342, "lon": 139.7120602, "title": "Le Donjon M" }, "geometry": { "type": "Point", "coordinates": [ 139.7120602, 35.6625342 ] } },
{ "type": "Feature", "properties": { "lat": 35.6626768, "lon": 139.7352604, "title": "Two Dogs Taproom" }, "geometry": { "type": "Point", "coordinates": [ 139.735260399999987, 35.6626768 ] } },
{ "type": "Feature", "properties": { "lat": 35.663129, "lon": 139.7330944, "title": "Sheyda BAR" }, "geometry": { "type": "Point", "coordinates": [ 139.7330944, 35.663129 ] } },
{ "type": "Feature", "properties": { "lat": 35.66104, "lon": 139.7241171, "title": "FREQ." }, "geometry": { "type": "Point", "coordinates": [ 139.7241171, 35.66104 ] } },
{ "type": "Feature", "properties": { "lat": 35.6625667, "lon": 139.734926, "title": "7Sense" }, "geometry": { "type": "Point", "coordinates": [ 139.734926, 35.6625667 ] } },
{ "type": "Feature", "properties": { "lat": 35.6624746, "lon": 139.7345153, "title": "RED AREA" }, "geometry": { "type": "Point", "coordinates": [ 139.7345153, 35.6624746 ] } },
{ "type": "Feature", "properties": { "lat": 35.6762174, "lon": 139.7365166, "title": "Nos Vida" }, "geometry": { "type": "Point", "coordinates": [ 139.736516599999987, 35.6762174 ] } },
{ "type": "Feature", "properties": { "lat": 35.6450186, "lon": 139.7453851, "title": "GUARDIAN DININGBAR & SOUL" }, "geometry": { "type": "Point", "coordinates": [ 139.7453851, 35.6450186 ] } },
{ "type": "Feature", "properties": { "lat": 35.6651715, "lon": 139.7128739, "title": "ORIGAMI" }, "geometry": { "type": "Point", "coordinates": [ 139.7128739, 35.6651715 ] } },
{ "type": "Feature", "properties": { "lat": 35.6684896, "lon": 139.7165467, "title": "Crystal LOUNGE" }, "geometry": { "type": "Point", "coordinates": [ 139.7165467, 35.6684896 ] } },
{ "type": "Feature", "properties": { "lat": 35.6620101, "lon": 139.7345733, "title": "CLUB SIX TOKYO" }, "geometry": { "type": "Point", "coordinates": [ 139.7345733, 35.6620101 ] } },
{ "type": "Feature", "properties": { "lat": 35.6592102, "lon": 139.7325451, "title": "GOLD CAFE" }, "geometry": { "type": "Point", "coordinates": [ 139.73254510000001, 35.6592102 ] } },
{ "type": "Feature", "properties": { "lat": 35.6728528, "lon": 139.7378808, "title": "CLUB TENJIKU" }, "geometry": { "type": "Point", "coordinates": [ 139.7378808, 35.6728528 ] } },
{ "type": "Feature", "properties": { "lat": 35.6652, "lon": 139.7131175, "title": "Sprite" }, "geometry": { "type": "Point", "coordinates": [ 139.71311750000001, 35.6652 ] } },
{ "type": "Feature", "properties": { "lat": 35.66257, "lon": 139.7354893, "title": "EL CAFE LATINO" }, "geometry": { "type": "Point", "coordinates": [ 139.735489300000012, 35.66257 ] } },
{ "type": "Feature", "properties": { "lat": 35.6646572, "lon": 139.7292087, "title": "PARAISO" }, "geometry": { "type": "Point", "coordinates": [ 139.729208699999987, 35.6646572 ] } },
{ "type": "Feature", "properties": { "lat": 35.663129, "lon": 139.7330944, "title": "COPACABANA" }, "geometry": { "type": "Point", "coordinates": [ 139.7330944, 35.663129 ] } },
{ "type": "Feature", "properties": { "lat": 35.6636191, "lon": 139.731694, "title": "R2 SUPPERCLUB" }, "geometry": { "type": "Point", "coordinates": [ 139.731694, 35.6636191 ] } },
{ "type": "Feature", "properties": { "lat": 35.66104, "lon": 139.7241171, "title": "DOUBLE TOKYO" }, "geometry": { "type": "Point", "coordinates": [ 139.7241171, 35.66104 ] } },
{ "type": "Feature", "properties": { "lat": 35.6640023, "lon": 139.7305494, "title": "V2 TOKYO" }, "geometry": { "type": "Point", "coordinates": [ 139.7305494, 35.6640023 ] } },
{ "type": "Feature", "properties": { "lat": 35.667352, "lon": 139.7181655, "title": "月見ル君想フ" }, "geometry": { "type": "Point", "coordinates": [ 139.7181655, 35.667352 ] } },
{ "type": "Feature", "properties": { "lat": 35.6609169, "lon": 139.7369946, "title": "Club EDGE" }, "geometry": { "type": "Point", "coordinates": [ 139.7369946, 35.6609169 ] } },
{ "type": "Feature", "properties": { "lat": 35.6607357, "lon": 139.7259163, "title": "新世界" }, "geometry": { "type": "Point", "coordinates": [ 139.7259163, 35.6607357 ] } },
{ "type": "Feature", "properties": { "lat": 35.6624617, "lon": 139.7121699, "title": "IDOL" }, "geometry": { "type": "Point", "coordinates": [ 139.7121699, 35.6624617 ] } },
{ "type": "Feature", "properties": { "lat": 35.6616341, "lon": 139.7352446, "title": "WONDER LOUNGE" }, "geometry": { "type": "Point", "coordinates": [ 139.735244599999987, 35.6616341 ] } },
{ "type": "Feature", "properties": { "lat": 35.6597572, "lon": 139.7171177, "title": "GRID SMART LOUNGE" }, "geometry": { "type": "Point", "coordinates": [ 139.717117699999989, 35.6597572 ] } },
{ "type": "Feature", "properties": { "lat": 35.6626768, "lon": 139.7352604, "title": "LA35" }, "geometry": { "type": "Point", "coordinates": [ 139.735260399999987, 35.6626768 ] } },
{ "type": "Feature", "properties": { "lat": 35.6636806, "lon": 139.711596, "title": "CAY" }, "geometry": { "type": "Point", "coordinates": [ 139.711596, 35.6636806 ] } },
{ "type": "Feature", "properties": { "lat": 35.6608109, "lon": 139.7261258, "title": "BRAND TOKYO" }, "geometry": { "type": "Point", "coordinates": [ 139.7261258, 35.6608109 ] } },
{ "type": "Feature", "properties": { "lat": 35.6628525, "lon": 139.7335059, "title": "88 STREET BAR" }, "geometry": { "type": "Point", "coordinates": [ 139.733505900000011, 35.6628525 ] } },
{ "type": "Feature", "properties": { "lat": 35.6564543, "lon": 139.7333694, "title": "The Beach Lounge" }, "geometry": { "type": "Point", "coordinates": [ 139.733369399999987, 35.6564543 ] } },
{ "type": "Feature", "properties": { "lat": 35.6659803, "lon": 139.7308747, "title": "A971" }, "geometry": { "type": "Point", "coordinates": [ 139.730874699999987, 35.6659803 ] } },
{ "type": "Feature", "properties": { "lat": 35.66257, "lon": 139.7354893, "title": "BLUE BAR" }, "geometry": { "type": "Point", "coordinates": [ 139.735489300000012, 35.66257 ] } },
{ "type": "Feature", "properties": { "lat": 35.6604214, "lon": 139.729972, "title": "HEARTLAND" }, "geometry": { "type": "Point", "coordinates": [ 139.729972, 35.6604214 ] } },
{ "type": "Feature", "properties": { "lat": 35.6619659, "lon": 139.7288396, "title": "port" }, "geometry": { "type": "Point", "coordinates": [ 139.728839599999986, 35.6619659 ] } },
{ "type": "Feature", "properties": { "lat": 35.6650572, "lon": 139.7352753, "title": "COVE" }, "geometry": { "type": "Point", "coordinates": [ 139.735275300000012, 35.6650572 ] } },
{ "type": "Feature", "properties": { "lat": 35.6604344, "lon": 139.726548, "title": "TONY Taste Of New York" }, "geometry": { "type": "Point", "coordinates": [ 139.726548, 35.6604344 ] } },
{ "type": "Feature", "properties": { "lat": 35.6569619, "lon": 139.7353052, "title": "VILLAGE" }, "geometry": { "type": "Point", "coordinates": [ 139.7353052, 35.6569619 ] } },
{ "type": "Feature", "properties": { "lat": 35.6617608, "lon": 139.7278768, "title": "Gallery" }, "geometry": { "type": "Point", "coordinates": [ 139.7278768, 35.6617608 ] } },
{ "type": "Feature", "properties": { "lat": 35.6642349, "lon": 139.7315452, "title": "morph-tokyo" }, "geometry": { "type": "Point", "coordinates": [ 139.7315452, 35.6642349 ] } },
{ "type": "Feature", "properties": { "lat": 35.666919, "lon": 139.7568824, "title": "URBAN TRAIN" }, "geometry": { "type": "Point", "coordinates": [ 139.7568824, 35.666919 ] } },
{ "type": "Feature", "properties": { "lat": 35.6626768, "lon": 139.7352604, "title": "LINE CLUB" }, "geometry": { "type": "Point", "coordinates": [ 139.735260399999987, 35.6626768 ] } },
{ "type": "Feature", "properties": { "lat": 35.662308, "lon": 139.7351621, "title": "JKB" }, "geometry": { "type": "Point", "coordinates": [ 139.7351621, 35.662308 ] } },
{ "type": "Feature", "properties": { "lat": 35.643212, "lon": 139.733586, "title": "Club Jamaica" }, "geometry": { "type": "Point", "coordinates": [ 139.733586, 35.643212 ] } },
{ "type": "Feature", "properties": { "lat": 35.6616341, "lon": 139.7352446, "title": "studio FORUM" }, "geometry": { "type": "Point", "coordinates": [ 139.735244599999987, 35.6616341 ] } },
{ "type": "Feature", "properties": { "lat": 35.6642349, "lon": 139.7315452, "title": "Bamboo Grass" }, "geometry": { "type": "Point", "coordinates": [ 139.7315452, 35.6642349 ] } },
{ "type": "Feature", "properties": { "lat": 35.6632913, "lon": 139.733461, "title": "spade" }, "geometry": { "type": "Point", "coordinates": [ 139.733461, 35.6632913 ] } },
{ "type": "Feature", "properties": { "lat": 35.6632913, "lon": 139.733461, "title": "spade" }, "geometry": { "type": "Point", "coordinates": [ 139.733461, 35.6632913 ] } },
{ "type": "Feature", "properties": { "lat": 35.6625613, "lon": 139.7341722, "title": "HIVE" }, "geometry": { "type": "Point", "coordinates": [ 139.734172199999989, 35.6625613 ] } },
{ "type": "Feature", "properties": { "lat": 35.6651715, "lon": 139.7128739, "title": "cafe ATLANTIS" }, "geometry": { "type": "Point", "coordinates": [ 139.7128739, 35.6651715 ] } },
{ "type": "Feature", "properties": { "lat": 35.6647207, "lon": 139.7335553, "title": "Paradis TOKYO" }, "geometry": { "type": "Point", "coordinates": [ 139.7335553, 35.6647207 ] } },
{ "type": "Feature", "properties": { "lat": 35.673049, "lon": 139.7362794, "title": "P.C.A. PUB CARDINAL AKASAKA" }, "geometry": { "type": "Point", "coordinates": [ 139.7362794, 35.673049 ] } },
{ "type": "Feature", "properties": { "lat": 35.6623598, "lon": 139.7352481, "title": "MILWAUKEE BAR" }, "geometry": { "type": "Point", "coordinates": [ 139.7352481, 35.6623598 ] } },
{ "type": "Feature", "properties": { "lat": 35.6594725, "lon": 139.7172072, "title": "REDSHOES" }, "geometry": { "type": "Point", "coordinates": [ 139.7172072, 35.6594725 ] } },
{ "type": "Feature", "properties": { "lat": 35.6569619, "lon": 139.7353052, "title": "the fashion cafe" }, "geometry": { "type": "Point", "coordinates": [ 139.7353052, 35.6569619 ] } },
{ "type": "Feature", "properties": { "lat": 35.6623598, "lon": 139.7352481, "title": "jokers Bar" }, "geometry": { "type": "Point", "coordinates": [ 139.7352481, 35.6623598 ] } },
{ "type": "Feature", "properties": { "lat": 35.6649259, "lon": 139.7278073, "title": "DJ LOUNGE SONORA" }, "geometry": { "type": "Point", "coordinates": [ 139.7278073, 35.6649259 ] } },
{ "type": "Feature", "properties": { "lat": 35.6608109, "lon": 139.7261258, "title": "PEARL TOKYO" }, "geometry": { "type": "Point", "coordinates": [ 139.7261258, 35.6608109 ] } },
{ "type": "Feature", "properties": { "lat": 35.6684797, "lon": 139.7164937, "title": "style MINAMIAOYAMA" }, "geometry": { "type": "Point", "coordinates": [ 139.7164937, 35.668479700000013 ] } },
{ "type": "Feature", "properties": { "lat": 35.6649259, "lon": 139.7278073, "title": "Envvy the sonic space" }, "geometry": { "type": "Point", "coordinates": [ 139.7278073, 35.6649259 ] } },
{ "type": "Feature", "properties": { "lat": 35.6443579, "lon": 139.7555848, "title": "Studio Cube326" }, "geometry": { "type": "Point", "coordinates": [ 139.7555848, 35.6443579 ] } },
{ "type": "Feature", "properties": { "lat": 35.6620882, "lon": 139.7332945, "title": "Bar Quest" }, "geometry": { "type": "Point", "coordinates": [ 139.7332945, 35.6620882 ] } },
{ "type": "Feature", "properties": { "lat": 35.6648842, "lon": 139.7297933, "title": "RISTORAZIONE LE G.A" }, "geometry": { "type": "Point", "coordinates": [ 139.729793300000011, 35.6648842 ] } },
{ "type": "Feature", "properties": { "lat": 35.6723179, "lon": 139.7217362, "title": "THE SPACE" }, "geometry": { "type": "Point", "coordinates": [ 139.7217362, 35.6723179 ] } },
{ "type": "Feature", "properties": { "lat": 35.6611138, "lon": 139.7162609, "title": "BLUE NOTE TOKYO" }, "geometry": { "type": "Point", "coordinates": [ 139.7162609, 35.6611138 ] } },
{ "type": "Feature", "properties": { "lat": 35.6605216, "lon": 139.7390373, "title": "CUBE" }, "geometry": { "type": "Point", "coordinates": [ 139.7390373, 35.6605216 ] } },
{ "type": "Feature", "properties": { "lat": 35.6674254, "lon": 139.7151324, "title": "Le Baron de Paris" }, "geometry": { "type": "Point", "coordinates": [ 139.715132399999987, 35.6674254 ] } },
{ "type": "Feature", "properties": { "lat": 35.6607579, "lon": 139.7274714, "title": "SuperDeluxe" }, "geometry": { "type": "Point", "coordinates": [ 139.727471400000013, 35.6607579 ] } },
{ "type": "Feature", "properties": { "lat": 35.6645616, "lon": 139.7394963, "title": "Lounge Opera" }, "geometry": { "type": "Point", "coordinates": [ 139.739496300000013, 35.6645616 ] } },
{ "type": "Feature", "properties": { "lat": 35.6628959, "lon": 139.734048, "title": "THE NEW MATRIX BAR" }, "geometry": { "type": "Point", "coordinates": [ 139.734048, 35.6628959 ] } },
{ "type": "Feature", "properties": { "lat": 35.6612086, "lon": 139.737256, "title": "SOUL SONIC BOOGIE" }, "geometry": { "type": "Point", "coordinates": [ 139.737256, 35.6612086 ] } },
{ "type": "Feature", "properties": { "lat": 35.6620101, "lon": 139.7345733, "title": "Tomodachi Lounge" }, "geometry": { "type": "Point", "coordinates": [ 139.7345733, 35.6620101 ] } },
{ "type": "Feature", "properties": { "lat": 35.6595105, "lon": 139.7238011, "title": "328" }, "geometry": { "type": "Point", "coordinates": [ 139.7238011, 35.6595105 ] } },
{ "type": "Feature", "properties": { "lat": 35.6610452, "lon": 139.7262188, "title": "BULLET’S" }, "geometry": { "type": "Point", "coordinates": [ 139.7262188, 35.6610452 ] } },
{ "type": "Feature", "properties": { "lat": 35.6681585, "lon": 139.7267942, "title": "Club CACTUS" }, "geometry": { "type": "Point", "coordinates": [ 139.7267942, 35.6681585 ] } },
{ "type": "Feature", "properties": { "lat": 35.6624746, "lon": 139.7345153, "title": "GP BAR" }, "geometry": { "type": "Point", "coordinates": [ 139.7345153, 35.6624746 ] } },
{ "type": "Feature", "properties": { "lat": 35.6613725, "lon": 139.7260061, "title": "Vanilla Mood" }, "geometry": { "type": "Point", "coordinates": [ 139.7260061, 35.6613725 ] } },
{ "type": "Feature", "properties": { "lat": 35.6623598, "lon": 139.7352481, "title": "ODEON TOKYO" }, "geometry": { "type": "Point", "coordinates": [ 139.7352481, 35.6623598 ] } },
{ "type": "Feature", "properties": { "lat": 35.663129, "lon": 139.7330944, "title": "IBEX TOKYO" }, "geometry": { "type": "Point", "coordinates": [ 139.7330944, 35.663129 ] } },
{ "type": "Feature", "properties": { "lat": 35.663129, "lon": 139.7330944, "title": "IBEX TOKYO" }, "geometry": { "type": "Point", "coordinates": [ 139.7330944, 35.663129 ] } },
{ "type": "Feature", "properties": { "lat": 35.6625667, "lon": 139.734926, "title": "24/7 TWENTY FOUR SEVEN" }, "geometry": { "type": "Point", "coordinates": [ 139.734926, 35.6625667 ] } },
{ "type": "Feature", "properties": { "lat": 35.6626755, "lon": 139.7354102, "title": "BAR MIST ex. GREEN LAND" }, "geometry": { "type": "Point", "coordinates": [ 139.7354102, 35.6626755 ] } },
{ "type": "Feature", "properties": { "lat": 35.6608612, "lon": 139.7156131, "title": "ever" }, "geometry": { "type": "Point", "coordinates": [ 139.715613100000013, 35.6608612 ] } },
{ "type": "Feature", "properties": { "lat": 35.6509402, "lon": 139.7604646, "title": "JICOO" }, "geometry": { "type": "Point", "coordinates": [ 139.7604646, 35.6509402 ] } },
{ "type": "Feature", "properties": { "lat": 35.6626755, "lon": 139.7354102, "title": "FETTI" }, "geometry": { "type": "Point", "coordinates": [ 139.7354102, 35.6626755 ] } },
{ "type": "Feature", "properties": { "lat": 35.6592102, "lon": 139.7325451, "title": "ColoR. Tokyo Night Cafe" }, "geometry": { "type": "Point", "coordinates": [ 139.73254510000001, 35.6592102 ] } },
{ "type": "Feature", "properties": { "lat": 35.6627563, "lon": 139.7110059, "title": "fai aoyama" }, "geometry": { "type": "Point", "coordinates": [ 139.7110059, 35.6627563 ] } },
{ "type": "Feature", "properties": { "lat": 35.6616997, "lon": 139.735385, "title": "THE FIRST HOUSE" }, "geometry": { "type": "Point", "coordinates": [ 139.735385, 35.6616997 ] } },
{ "type": "Feature", "properties": { "lat": 35.6616997, "lon": 139.735385, "title": "BAR LIGHT" }, "geometry": { "type": "Point", "coordinates": [ 139.735385, 35.6616997 ] } },
{ "type": "Feature", "properties": { "lat": 35.6564722, "lon": 139.7348476, "title": "DIX" }, "geometry": { "type": "Point", "coordinates": [ 139.7348476, 35.6564722 ] } },
{ "type": "Feature", "properties": { "lat": 35.6631951, "lon": 139.7333986, "title": "Wall Street House" }, "geometry": { "type": "Point", "coordinates": [ 139.733398599999987, 35.6631951 ] } },
{ "type": "Feature", "properties": { "lat": 35.6627267, "lon": 139.7322322, "title": "MAHARAJA 六本木" }, "geometry": { "type": "Point", "coordinates": [ 139.7322322, 35.6627267 ] } },
{ "type": "Feature", "properties": { "lat": 35.6627267, "lon": 139.7322322, "title": "New Lex Tokyo (Lex Tokyo)" }, "geometry": { "type": "Point", "coordinates": [ 139.7322322, 35.6627267 ] } },
{ "type": "Feature", "properties": { "lat": 35.6593671, "lon": 139.7232564, "title": "西麻布MUSE" }, "geometry": { "type": "Point", "coordinates": [ 139.7232564, 35.6593671 ] } },
{ "type": "Feature", "properties": { "lat": 35.66104, "lon": 139.7241171, "title": "eleven" }, "geometry": { "type": "Point", "coordinates": [ 139.7241171, 35.66104 ] } },
{ "type": "Feature", "properties": { "lat": 35.6631951, "lon": 139.7333986, "title": "JUMANJI 55" }, "geometry": { "type": "Point", "coordinates": [ 139.733398599999987, 35.6631951 ] } },
{ "type": "Feature", "properties": { "lat": 35.6625018, "lon": 139.7343547, "title": "BLACK HORSE" }, "geometry": { "type": "Point", "coordinates": [ 139.734354700000011, 35.6625018 ] } },
{ "type": "Feature", "properties": { "lat": 35.6626613, "lon": 139.7331468, "title": "ESPRIT TOKYO" }, "geometry": { "type": "Point", "coordinates": [ 139.733146799999986, 35.6626613 ] } },
{ "type": "Feature", "properties": { "lat": 35.6640023, "lon": 139.7305494, "title": "FERIA TOKYO" }, "geometry": { "type": "Point", "coordinates": [ 139.7305494, 35.6640023 ] } },
{ "type": "Feature", "properties": { "lat": 35.6569619, "lon": 139.7353052, "title": "WAREHOUSE702" }, "geometry": { "type": "Point", "coordinates": [ 139.7353052, 35.6569619 ] } },
{ "type": "Feature", "properties": { "lat": 35.6620101, "lon": 139.7345733, "title": "VANITY RESTAURANT TOKYO" }, "geometry": { "type": "Point", "coordinates": [ 139.7345733, 35.6620101 ] } },
{ "type": "Feature", "properties": { "lat": 35.6722448, "lon": 139.7624127, "title": "RAISE" }, "geometry": { "type": "Point", "coordinates": [ 139.7624127, 35.6722448 ] } },
{ "type": "Feature", "properties": { "lat": 35.6685128, "lon": 139.7603962, "title": "CYGNUS" }, "geometry": { "type": "Point", "coordinates": [ 139.7603962, 35.668512799999988 ] } },
{ "type": "Feature", "properties": { "lat": 35.6743274, "lon": 139.7685683, "title": "PLUSTOKYO" }, "geometry": { "type": "Point", "coordinates": [ 139.7685683, 35.6743274 ] } },
{ "type": "Feature", "properties": { "lat": 35.669966, "lon": 139.7631419, "title": "TACT" }, "geometry": { "type": "Point", "coordinates": [ 139.7631419, 35.669966 ] } },
{ "type": "Feature", "properties": { "lat": 35.6723658, "lon": 139.7647762, "title": "POP INN" }, "geometry": { "type": "Point", "coordinates": [ 139.7647762, 35.6723658 ] } },
{ "type": "Feature", "properties": { "lat": 35.6715904, "lon": 139.7613845, "title": "GINZA SUKI BAR" }, "geometry": { "type": "Point", "coordinates": [ 139.7613845, 35.6715904 ] } },
{ "type": "Feature", "properties": { "lat": 35.6747785, "lon": 139.7772364, "title": "SOUND&BAR HOWL" }, "geometry": { "type": "Point", "coordinates": [ 139.7772364, 35.6747785 ] } },
{ "type": "Feature", "properties": { "lat": 35.691571, "lon": 139.781369, "title": "CITAN" }, "geometry": { "type": "Point", "coordinates": [ 139.781369, 35.691571 ] } },
{ "type": "Feature", "properties": { "lat": 35.6729193, "lon": 139.764083, "title": "LAPIS TOKYO" }, "geometry": { "type": "Point", "coordinates": [ 139.764083, 35.6729193 ] } },
{ "type": "Feature", "properties": { "lat": 35.6700551, "lon": 139.7614751, "title": "The Soul Garden" }, "geometry": { "type": "Point", "coordinates": [ 139.761475100000013, 35.6700551 ] } },
{ "type": "Feature", "properties": { "lat": 35.6673558, "lon": 139.7629019, "title": "Las Risas" }, "geometry": { "type": "Point", "coordinates": [ 139.7629019, 35.6673558 ] } },
{ "type": "Feature", "properties": { "lat": 35.6689218, "lon": 139.7619535, "title": "GINZA MUSIC BAR" }, "geometry": { "type": "Point", "coordinates": [ 139.7619535, 35.6689218 ] } },
{ "type": "Feature", "properties": { "lat": 35.6690261, "lon": 139.7591649, "title": "Standing Lounge 333 Ginza" }, "geometry": { "type": "Point", "coordinates": [ 139.7591649, 35.6690261 ] } },
{ "type": "Feature", "properties": { "lat": 35.6674794, "lon": 139.7620777, "title": "DIAMOND LOUNGE" }, "geometry": { "type": "Point", "coordinates": [ 139.7620777, 35.6674794 ] } },
{ "type": "Feature", "properties": { "lat": 35.6697671, "lon": 139.7653151, "title": "moefarre GINZA" }, "geometry": { "type": "Point", "coordinates": [ 139.7653151, 35.6697671 ] } },
{ "type": "Feature", "properties": { "lat": 35.6680617, "lon": 139.7631414, "title": "M’S cafe" }, "geometry": { "type": "Point", "coordinates": [ 139.7631414, 35.6680617 ] } },
{ "type": "Feature", "properties": { "lat": 35.6710943, "lon": 139.7614444, "title": "333" }, "geometry": { "type": "Point", "coordinates": [ 139.761444399999988, 35.6710943 ] } },
{ "type": "Feature", "properties": { "lat": 35.6888151, "lon": 139.7712699, "title": "Extrawelt" }, "geometry": { "type": "Point", "coordinates": [ 139.7712699, 35.6888151 ] } },
{ "type": "Feature", "properties": { "lat": 35.6691674, "lon": 139.7591742, "title": "ThreeHundred Bar GINZA8" }, "geometry": { "type": "Point", "coordinates": [ 139.7591742, 35.6691674 ] } },
{ "type": "Feature", "properties": { "lat": 35.6691093, "lon": 139.7619262, "title": "GINZA MAGIC" }, "geometry": { "type": "Point", "coordinates": [ 139.7619262, 35.6691093 ] } },
{ "type": "Feature", "properties": { "lat": 35.68734, "lon": 139.7739343, "title": "XEX Nihonbashi" }, "geometry": { "type": "Point", "coordinates": [ 139.7739343, 35.68734 ] } },
{ "type": "Feature", "properties": { "lat": 35.6713305, "lon": 139.7616963, "title": "GENIUS TOKYO" }, "geometry": { "type": "Point", "coordinates": [ 139.761696300000011, 35.6713305 ] } },
{ "type": "Feature", "properties": { "lat": 35.6742727, "lon": 139.7666442, "title": "Ginza Roots Tokyo" }, "geometry": { "type": "Point", "coordinates": [ 139.7666442, 35.6742727 ] } },
{ "type": "Feature", "properties": { "lat": 35.6742385, "lon": 139.7660699, "title": "砂漠の薔薇" }, "geometry": { "type": "Point", "coordinates": [ 139.7660699, 35.6742385 ] } },
{ "type": "Feature", "properties": { "lat": 35.6690711, "lon": 139.7585754, "title": "club GHQ" }, "geometry": { "type": "Point", "coordinates": [ 139.758575400000012, 35.6690711 ] } },
{ "type": "Feature", "properties": { "lat": 35.6826212, "lon": 139.7642436, "title": "(marunouchi)HOUSE" }, "geometry": { "type": "Point", "coordinates": [ 139.764243599999986, 35.6826212 ] } },
{ "type": "Feature", "properties": { "lat": 35.6920093, "lon": 139.773375, "title": "ISOLDE" }, "geometry": { "type": "Point", "coordinates": [ 139.773375, 35.6920093 ] } },
{ "type": "Feature", "properties": { "lat": 35.6737436, "lon": 139.7591762, "title": "Billboard cafe & dining" }, "geometry": { "type": "Point", "coordinates": [ 139.759176200000013, 35.6737436 ] } },
{ "type": "Feature", "properties": { "lat": 35.6979155, "lon": 139.7764367, "title": "あるけみすと" }, "geometry": { "type": "Point", "coordinates": [ 139.7764367, 35.6979155 ] } },
{ "type": "Feature", "properties": { "lat": 35.6971316, "lon": 139.7764903, "title": "CLUB GOODMAN" }, "geometry": { "type": "Point", "coordinates": [ 139.7764903, 35.6971316 ] } },
{ "type": "Feature", "properties": { "lat": 35.6978331, "lon": 139.7742137, "title": "Cafe & Music Bar PLAYER" }, "geometry": { "type": "Point", "coordinates": [ 139.7742137, 35.6978331 ] } },
{ "type": "Feature", "properties": { "lat": 35.6724503, "lon": 139.7599469, "title": "300BAR NEXT" }, "geometry": { "type": "Point", "coordinates": [ 139.759946899999989, 35.6724503 ] } },
{ "type": "Feature", "properties": { "lat": 35.7025014, "lon": 139.770739, "title": "moefarre AKIHABARA" }, "geometry": { "type": "Point", "coordinates": [ 139.770739, 35.7025014 ] } },
{ "type": "Feature", "properties": { "lat": 35.6790638, "lon": 139.7649554, "title": "COTTON CLUB" }, "geometry": { "type": "Point", "coordinates": [ 139.7649554, 35.6790638 ] } },
{ "type": "Feature", "properties": { "lat": 35.691357, "lon": 139.7709201, "title": "CROW FOREST" }, "geometry": { "type": "Point", "coordinates": [ 139.770920100000012, 35.691357 ] } },
{ "type": "Feature", "properties": { "lat": 35.6931252, "lon": 139.7778589, "title": "OnEdrop cafe" }, "geometry": { "type": "Point", "coordinates": [ 139.777858900000012, 35.6931252 ] } },
{ "type": "Feature", "properties": { "lat": 35.6790638, "lon": 139.7649554, "title": "P.C.M. PUB CARDINAL MARUNOUCHI" }, "geometry": { "type": "Point", "coordinates": [ 139.7649554, 35.6790638 ] } },
{ "type": "Feature", "properties": { "lat": 35.674214, "lon": 139.76008, "title": "CLUB DIANA" }, "geometry": { "type": "Point", "coordinates": [ 139.76008, 35.674214 ] } },
{ "type": "Feature", "properties": { "lat": 35.6954251, "lon": 139.8265209, "title": "Charlie" }, "geometry": { "type": "Point", "coordinates": [ 139.8265209, 35.6954251 ] } },
{ "type": "Feature", "properties": { "lat": 35.700992, "lon": 139.8256383, "title": "yanagi" }, "geometry": { "type": "Point", "coordinates": [ 139.8256383, 35.700992 ] } },
{ "type": "Feature", "properties": { "lat": 35.6421835, "lon": 139.8253785, "title": "ageHa" }, "geometry": { "type": "Point", "coordinates": [ 139.8253785, 35.6421835 ] } },
{ "type": "Feature", "properties": { "lat": 35.6957513, "lon": 139.7005894, "title": "ZEROTOKYO" }, "geometry": { "type": "Point", "coordinates": [ 139.700589400000013, 35.6957513 ] } },
{ "type": "Feature", "properties": { "lat": 35.6947651, "lon": 139.7029833, "title": "Music Fashion Bar RUN" }, "geometry": { "type": "Point", "coordinates": [ 139.7029833, 35.6947651 ] } },
{ "type": "Feature", "properties": { "lat": 35.6941751, "lon": 139.7018717, "title": "Soul Dining Bar 歌舞伎町 鶴千" }, "geometry": { "type": "Point", "coordinates": [ 139.7018717, 35.6941751 ] } },
{ "type": "Feature", "properties": { "lat": 35.6917447, "lon": 139.707393, "title": "DJ BAR Heart" }, "geometry": { "type": "Point", "coordinates": [ 139.707393, 35.6917447 ] } },
{ "type": "Feature", "properties": { "lat": 35.6945651, "lon": 139.7026151, "title": "MUSIC BAR L.G" }, "geometry": { "type": "Point", "coordinates": [ 139.7026151, 35.6945651 ] } },
{ "type": "Feature", "properties": { "lat": 35.6902909, "lon": 139.7072589, "title": "DRAGON MEN" }, "geometry": { "type": "Point", "coordinates": [ 139.7072589, 35.6902909 ] } },
{ "type": "Feature", "properties": { "lat": 35.6948485, "lon": 139.7041011, "title": "ORIZURU" }, "geometry": { "type": "Point", "coordinates": [ 139.7041011, 35.6948485 ] } },
{ "type": "Feature", "properties": { "lat": 35.690086, "lon": 139.7077713, "title": "EAGLE TOKYO BLUE" }, "geometry": { "type": "Point", "coordinates": [ 139.7077713, 35.690086 ] } },
{ "type": "Feature", "properties": { "lat": 35.6957862, "lon": 139.7032234, "title": "HONEY BEE" }, "geometry": { "type": "Point", "coordinates": [ 139.703223400000013, 35.6957862 ] } },
{ "type": "Feature", "properties": { "lat": 35.6913871, "lon": 139.7063323, "title": "Bar BaoBab" }, "geometry": { "type": "Point", "coordinates": [ 139.706332300000014, 35.6913871 ] } },
{ "type": "Feature", "properties": { "lat": 35.6912999, "lon": 139.7065545, "title": "Soul Stream" }, "geometry": { "type": "Point", "coordinates": [ 139.70655450000001, 35.6912999 ] } },
{ "type": "Feature", "properties": { "lat": 35.6943321, "lon": 139.7026151, "title": "CLUB23 TOKYO" }, "geometry": { "type": "Point", "coordinates": [ 139.7026151, 35.6943321 ] } },
{ "type": "Feature", "properties": { "lat": 35.6908602, "lon": 139.7065196, "title": "CURTIS" }, "geometry": { "type": "Point", "coordinates": [ 139.7065196, 35.6908602 ] } },
{ "type": "Feature", "properties": { "lat": 35.6897693, "lon": 139.7063957, "title": "BAR 3R" }, "geometry": { "type": "Point", "coordinates": [ 139.7063957, 35.6897693 ] } },
{ "type": "Feature", "properties": { "lat": 35.6942082, "lon": 139.702788, "title": "CASABLANCA ex. CROSSOVER" }, "geometry": { "type": "Point", "coordinates": [ 139.702788, 35.6942082 ] } },
{ "type": "Feature", "properties": { "lat": 35.6939874, "lon": 139.7049687, "title": "URACUE" }, "geometry": { "type": "Point", "coordinates": [ 139.7049687, 35.6939874 ] } },
{ "type": "Feature", "properties": { "lat": 35.6925835, "lon": 139.6911889, "title": "バー&ラウンジ ZATTA" }, "geometry": { "type": "Point", "coordinates": [ 139.691188899999986, 35.6925835 ] } },
{ "type": "Feature", "properties": { "lat": 35.6907065, "lon": 139.7095167, "title": "DJ&VJ Bar A-UN" }, "geometry": { "type": "Point", "coordinates": [ 139.7095167, 35.6907065 ] } },
{ "type": "Feature", "properties": { "lat": 35.6909967, "lon": 139.7080306, "title": "NEW SAZAE" }, "geometry": { "type": "Point", "coordinates": [ 139.7080306, 35.6909967 ] } },
{ "type": "Feature", "properties": { "lat": 35.6952253, "lon": 139.701307, "title": "WARP SHINJUKU" }, "geometry": { "type": "Point", "coordinates": [ 139.701307, 35.6952253 ] } },
{ "type": "Feature", "properties": { "lat": 35.7057766, "lon": 139.7228735, "title": "RiNen" }, "geometry": { "type": "Point", "coordinates": [ 139.7228735, 35.7057766 ] } },
{ "type": "Feature", "properties": { "lat": 35.6987648, "lon": 139.6971901, "title": "Rock Inn DICE" }, "geometry": { "type": "Point", "coordinates": [ 139.6971901, 35.6987648 ] } },
{ "type": "Feature", "properties": { "lat": 35.6937411, "lon": 139.7040213, "title": "Zirco Tokyo" }, "geometry": { "type": "Point", "coordinates": [ 139.7040213, 35.6937411 ] } },
{ "type": "Feature", "properties": { "lat": 35.6961133, "lon": 139.7034463, "title": "FATE" }, "geometry": { "type": "Point", "coordinates": [ 139.7034463, 35.6961133 ] } },
{ "type": "Feature", "properties": { "lat": 35.7029809, "lon": 139.7081503, "title": "HEAD POWER" }, "geometry": { "type": "Point", "coordinates": [ 139.7081503, 35.7029809 ] } },
{ "type": "Feature", "properties": { "lat": 35.6917657, "lon": 139.7024838, "title": "333×concept B" }, "geometry": { "type": "Point", "coordinates": [ 139.70248380000001, 35.6917657 ] } },
{ "type": "Feature", "properties": { "lat": 35.6886342, "lon": 139.7036224, "title": "ANTIKNOCK" }, "geometry": { "type": "Point", "coordinates": [ 139.7036224, 35.6886342 ] } },
{ "type": "Feature", "properties": { "lat": 35.6909799, "lon": 139.7081004, "title": "AiiRO CAFE" }, "geometry": { "type": "Point", "coordinates": [ 139.7081004, 35.690979899999988 ] } },
{ "type": "Feature", "properties": { "lat": 35.696549, "lon": 139.700461, "title": "りあにすたぁ" }, "geometry": { "type": "Point", "coordinates": [ 139.700461, 35.696549 ] } },
{ "type": "Feature", "properties": { "lat": 35.6958459, "lon": 139.7023552, "title": "ACB HALL" }, "geometry": { "type": "Point", "coordinates": [ 139.7023552, 35.6958459 ] } },
{ "type": "Feature", "properties": { "lat": 35.7033271, "lon": 139.7361035, "title": "KGR(n) / 神楽音" }, "geometry": { "type": "Point", "coordinates": [ 139.736103500000013, 35.7033271 ] } },
{ "type": "Feature", "properties": { "lat": 35.694334, "lon": 139.7010645, "title": "カブキラウンジ" }, "geometry": { "type": "Point", "coordinates": [ 139.7010645, 35.694334 ] } },
{ "type": "Feature", "properties": { "lat": 35.7065399, "lon": 139.7174579, "title": "Sabaco" }, "geometry": { "type": "Point", "coordinates": [ 139.7174579, 35.7065399 ] } },
{ "type": "Feature", "properties": { "lat": 35.6938349, "lon": 139.7028943, "title": "AL" }, "geometry": { "type": "Point", "coordinates": [ 139.7028943, 35.6938349 ] } },
{ "type": "Feature", "properties": { "lat": 35.6963747, "lon": 139.700451, "title": "Motion" }, "geometry": { "type": "Point", "coordinates": [ 139.700451, 35.6963747 ] } },
{ "type": "Feature", "properties": { "lat": 35.6906152, "lon": 139.7073596, "title": "Live Freak" }, "geometry": { "type": "Point", "coordinates": [ 139.7073596, 35.6906152 ] } },
{ "type": "Feature", "properties": { "lat": 35.7015385, "lon": 139.697564, "title": "HOTSHOT" }, "geometry": { "type": "Point", "coordinates": [ 139.697564, 35.7015385 ] } },
{ "type": "Feature", "properties": { "lat": 35.693874, "lon": 139.7021663, "title": "GOLDEN EGG" }, "geometry": { "type": "Point", "coordinates": [ 139.702166299999988, 35.693874 ] } },
{ "type": "Feature", "properties": { "lat": 35.7003358, "lon": 139.699951, "title": "CLUB Voice" }, "geometry": { "type": "Point", "coordinates": [ 139.699951, 35.7003358 ] } },
{ "type": "Feature", "properties": { "lat": 35.7136662, "lon": 139.7016715, "title": "AREA" }, "geometry": { "type": "Point", "coordinates": [ 139.7016715, 35.7136662 ] } },
{ "type": "Feature", "properties": { "lat": 35.6979124, "lon": 139.7017882, "title": "SAMURAI" }, "geometry": { "type": "Point", "coordinates": [ 139.70178820000001, 35.6979124 ] } },
{ "type": "Feature", "properties": { "lat": 35.6951658, "lon": 139.700692, "title": "Mandarino" }, "geometry": { "type": "Point", "coordinates": [ 139.700692, 35.6951658 ] } },
{ "type": "Feature", "properties": { "lat": 35.6892225, "lon": 139.7072726, "title": "cafe&bar MAW" }, "geometry": { "type": "Point", "coordinates": [ 139.70727260000001, 35.6892225 ] } },
{ "type": "Feature", "properties": { "lat": 35.7014234, "lon": 139.702482, "title": "EARTHDOM" }, "geometry": { "type": "Point", "coordinates": [ 139.702482, 35.7014234 ] } },
{ "type": "Feature", "properties": { "lat": 35.6954779, "lon": 139.7036061, "title": "club SCIENCE" }, "geometry": { "type": "Point", "coordinates": [ 139.7036061, 35.6954779 ] } },
{ "type": "Feature", "properties": { "lat": 35.6963747, "lon": 139.700451, "title": "Marble" }, "geometry": { "type": "Point", "coordinates": [ 139.700451, 35.6963747 ] } },
{ "type": "Feature", "properties": { "lat": 35.6957333, "lon": 139.7036734, "title": "HOLIDAY SHINJUKU" }, "geometry": { "type": "Point", "coordinates": [ 139.703673400000014, 35.6957333 ] } },
{ "type": "Feature", "properties": { "lat": 35.6959973, "lon": 139.7048191, "title": "GATSBY HOUSE" }, "geometry": { "type": "Point", "coordinates": [ 139.7048191, 35.6959973 ] } },
{ "type": "Feature", "properties": { "lat": 35.6978704, "lon": 139.7021788, "title": "Lounge BAR NB" }, "geometry": { "type": "Point", "coordinates": [ 139.702178800000013, 35.6978704 ] } },
{ "type": "Feature", "properties": { "lat": 35.6949995, "lon": 139.7063949, "title": "NINE SPICES" }, "geometry": { "type": "Point", "coordinates": [ 139.7063949, 35.6949995 ] } },
{ "type": "Feature", "properties": { "lat": 35.693132, "lon": 139.693142, "title": "ReNY" }, "geometry": { "type": "Point", "coordinates": [ 139.693142, 35.693132 ] } },
{ "type": "Feature", "properties": { "lat": 35.6912815, "lon": 139.710816, "title": "Wild Side Tokyo" }, "geometry": { "type": "Point", "coordinates": [ 139.710816, 35.6912815 ] } },
{ "type": "Feature", "properties": { "lat": 35.6838148, "lon": 139.6898013, "title": "WALL" }, "geometry": { "type": "Point", "coordinates": [ 139.6898013, 35.6838148 ] } },
{ "type": "Feature", "properties": { "lat": 35.6952501, "lon": 139.7010529, "title": "BLAZE" }, "geometry": { "type": "Point", "coordinates": [ 139.7010529, 35.6952501 ] } },
{ "type": "Feature", "properties": { "lat": 35.6896364, "lon": 139.7081526, "title": "OWL TOKYO" }, "geometry": { "type": "Point", "coordinates": [ 139.7081526, 35.6896364 ] } },
{ "type": "Feature", "properties": { "lat": 35.6900466, "lon": 139.7087886, "title": "Royal Family" }, "geometry": { "type": "Point", "coordinates": [ 139.7087886, 35.6900466 ] } },
{ "type": "Feature", "properties": { "lat": 35.6892225, "lon": 139.7072726, "title": "REGGAE CLUB OPEN" }, "geometry": { "type": "Point", "coordinates": [ 139.70727260000001, 35.6892225 ] } },
{ "type": "Feature", "properties": { "lat": 35.6958769, "lon": 139.7015902, "title": "SHINJUKU FACE" }, "geometry": { "type": "Point", "coordinates": [ 139.7015902, 35.6958769 ] } },
{ "type": "Feature", "properties": { "lat": 35.6900581, "lon": 139.6967227, "title": "LOUVER" }, "geometry": { "type": "Point", "coordinates": [ 139.6967227, 35.6900581 ] } },
{ "type": "Feature", "properties": { "lat": 35.6971076, "lon": 139.7004909, "title": "OSCAR" }, "geometry": { "type": "Point", "coordinates": [ 139.7004909, 35.6971076 ] } },
{ "type": "Feature", "properties": { "lat": 35.690588, "lon": 139.7076931, "title": "BAR GOLDFINGER" }, "geometry": { "type": "Point", "coordinates": [ 139.7076931, 35.690588 ] } },
{ "type": "Feature", "properties": { "lat": 35.6946036, "lon": 139.7021798, "title": "DREAM STORE" }, "geometry": { "type": "Point", "coordinates": [ 139.70217980000001, 35.6946036 ] } },
{ "type": "Feature", "properties": { "lat": 35.6953598, "lon": 139.702645, "title": "LOFT" }, "geometry": { "type": "Point", "coordinates": [ 139.702645, 35.6953598 ] } },
{ "type": "Feature", "properties": { "lat": 35.6941525, "lon": 139.7037613, "title": "BAR 2WAY" }, "geometry": { "type": "Point", "coordinates": [ 139.7037613, 35.6941525 ] } },
{ "type": "Feature", "properties": { "lat": 35.6900466, "lon": 139.7087886, "title": "Rehab Lounge Tokyo" }, "geometry": { "type": "Point", "coordinates": [ 139.7087886, 35.6900466 ] } },
{ "type": "Feature", "properties": { "lat": 35.696055, "lon": 139.701892, "title": "TOKYO LOOSE" }, "geometry": { "type": "Point", "coordinates": [ 139.701892, 35.696055 ] } },
{ "type": "Feature", "properties": { "lat": 35.701516, "lon": 139.7022139, "title": "bto" }, "geometry": { "type": "Point", "coordinates": [ 139.7022139, 35.701516 ] } },
{ "type": "Feature", "properties": { "lat": 35.6917522, "lon": 139.7106208, "title": "FUTURE NATURE VALVE" }, "geometry": { "type": "Point", "coordinates": [ 139.710620799999987, 35.6917522 ] } },
{ "type": "Feature", "properties": { "lat": 35.6979124, "lon": 139.7017882, "title": "URGA" }, "geometry": { "type": "Point", "coordinates": [ 139.70178820000001, 35.6979124 ] } },
{ "type": "Feature", "properties": { "lat": 35.6904265, "lon": 139.7072216, "title": "ARTY FARTY" }, "geometry": { "type": "Point", "coordinates": [ 139.7072216, 35.6904265 ] } },
{ "type": "Feature", "properties": { "lat": 35.6939567, "lon": 139.7018042, "title": "Garam" }, "geometry": { "type": "Point", "coordinates": [ 139.7018042, 35.6939567 ] } },
{ "type": "Feature", "properties": { "lat": 35.687658, "lon": 139.7251983, "title": "OUTBREAK" }, "geometry": { "type": "Point", "coordinates": [ 139.725198299999988, 35.687658 ] } },
{ "type": "Feature", "properties": { "lat": 35.6993549, "lon": 139.7006206, "title": "BAR W" }, "geometry": { "type": "Point", "coordinates": [ 139.7006206, 35.6993549 ] } },
{ "type": "Feature", "properties": { "lat": 35.6958221, "lon": 139.7019258, "title": "FUNK TIME" }, "geometry": { "type": "Point", "coordinates": [ 139.7019258, 35.6958221 ] } },
{ "type": "Feature", "properties": { "lat": 35.6958221, "lon": 139.7019258, "title": "FUNK TIME" }, "geometry": { "type": "Point", "coordinates": [ 139.7019258, 35.6958221 ] } },
{ "type": "Feature", "properties": { "lat": 35.6963763, "lon": 139.7007003, "title": "MARZ" }, "geometry": { "type": "Point", "coordinates": [ 139.7007003, 35.6963763 ] } },
{ "type": "Feature", "properties": { "lat": 35.6901053, "lon": 139.7058564, "title": "Brooklyn Parlor" }, "geometry": { "type": "Point", "coordinates": [ 139.705856399999988, 35.6901053 ] } },
{ "type": "Feature", "properties": { "lat": 35.6947381, "lon": 139.7044206, "title": "CLUB & DJ BAR BUMP" }, "geometry": { "type": "Point", "coordinates": [ 139.7044206, 35.6947381 ] } },
{ "type": "Feature", "properties": { "lat": 35.694168, "lon": 139.702296, "title": "BE-WAVE" }, "geometry": { "type": "Point", "coordinates": [ 139.702296, 35.694168 ] } },
{ "type": "Feature", "properties": { "lat": 35.6948768, "lon": 139.7034369, "title": "DECABAR 超" }, "geometry": { "type": "Point", "coordinates": [ 139.703436900000014, 35.6948768 ] } },
{ "type": "Feature", "properties": { "lat": 35.701516, "lon": 139.7022139, "title": "unique LABORATORY" }, "geometry": { "type": "Point", "coordinates": [ 139.7022139, 35.701516 ] } },
{ "type": "Feature", "properties": { "lat": 35.6957552, "lon": 139.7052332, "title": "ROYAL" }, "geometry": { "type": "Point", "coordinates": [ 139.7052332, 35.6957552 ] } },
{ "type": "Feature", "properties": { "lat": 35.6928326, "lon": 139.7051186, "title": "Christon Cafe" }, "geometry": { "type": "Point", "coordinates": [ 139.7051186, 35.6928326 ] } },
{ "type": "Feature", "properties": { "lat": 35.6898762, "lon": 139.7030071, "title": "新宿ドゥースラー" }, "geometry": { "type": "Point", "coordinates": [ 139.7030071, 35.6898762 ] } },
{ "type": "Feature", "properties": { "lat": 35.6902607, "lon": 139.7079608, "title": "ALAMAS CAFE" }, "geometry": { "type": "Point", "coordinates": [ 139.7079608, 35.6902607 ] } },
{ "type": "Feature", "properties": { "lat": 35.7119504, "lon": 139.7071928, "title": "DJ Bar SIGNAL" }, "geometry": { "type": "Point", "coordinates": [ 139.7071928, 35.7119504 ] } },
{ "type": "Feature", "properties": { "lat": 35.7108616, "lon": 139.6839179, "title": "soup" }, "geometry": { "type": "Point", "coordinates": [ 139.683917900000012, 35.7108616 ] } },
{ "type": "Feature", "properties": { "lat": 35.6915228, "lon": 139.7086085, "title": "NeoMasquerade" }, "geometry": { "type": "Point", "coordinates": [ 139.7086085, 35.6915228 ] } },
{ "type": "Feature", "properties": { "lat": 35.6904666, "lon": 139.707871, "title": "AISOTOPE LOUNGE" }, "geometry": { "type": "Point", "coordinates": [ 139.707871, 35.6904666 ] } },
{ "type": "Feature", "properties": { "lat": 35.6942082, "lon": 139.702788, "title": "CASABLANCA" }, "geometry": { "type": "Point", "coordinates": [ 139.702788, 35.6942082 ] } },
{ "type": "Feature", "properties": { "lat": 35.6942153, "lon": 139.7012987, "title": "OTO" }, "geometry": { "type": "Point", "coordinates": [ 139.7012987, 35.6942153 ] } },
{ "type": "Feature", "properties": { "lat": 35.690086, "lon": 139.7077713, "title": "ArcH" }, "geometry": { "type": "Point", "coordinates": [ 139.7077713, 35.690086 ] } },
{ "type": "Feature", "properties": { "lat": 35.6957333, "lon": 139.7036734, "title": "Club axxcis Shinjuku" }, "geometry": { "type": "Point", "coordinates": [ 139.703673400000014, 35.6957333 ] } },
{ "type": "Feature", "properties": { "lat": 35.6272304, "lon": 139.7256527, "title": "VRAIMENT" }, "geometry": { "type": "Point", "coordinates": [ 139.725652700000012, 35.627230399999988 ] } },
{ "type": "Feature", "properties": { "lat": 35.6601085, "lon": 139.6961331, "title": "BRAND SHIBUYA" }, "geometry": { "type": "Point", "coordinates": [ 139.6961331, 35.6601085 ] } },
{ "type": "Feature", "properties": { "lat": 35.6482274, "lon": 139.7153718, "title": "Oriental Diner IGAO" }, "geometry": { "type": "Point", "coordinates": [ 139.715371800000014, 35.6482274 ] } },
{ "type": "Feature", "properties": { "lat": 35.6608386, "lon": 139.6970804, "title": "LITTS BAR & GRILL SHIBUYA" }, "geometry": { "type": "Point", "coordinates": [ 139.6970804, 35.6608386 ] } },
{ "type": "Feature", "properties": { "lat": 35.6637572, "lon": 139.7024219, "title": "BLACK BOX" }, "geometry": { "type": "Point", "coordinates": [ 139.7024219, 35.6637572 ] } },
{ "type": "Feature", "properties": { "lat": 35.6589959, "lon": 139.6955503, "title": "CLUB NEVERLAND" }, "geometry": { "type": "Point", "coordinates": [ 139.6955503, 35.6589959 ] } },
{ "type": "Feature", "properties": { "lat": 35.6611121, "lon": 139.6985442, "title": "TK NIGHTCLUB" }, "geometry": { "type": "Point", "coordinates": [ 139.698544199999986, 35.6611121 ] } },
{ "type": "Feature", "properties": { "lat": 35.6576933, "lon": 139.7078411, "title": "Violetta" }, "geometry": { "type": "Point", "coordinates": [ 139.7078411, 35.6576933 ] } },
{ "type": "Feature", "properties": { "lat": 35.6632015, "lon": 139.7018707, "title": "or" }, "geometry": { "type": "Point", "coordinates": [ 139.7018707, 35.6632015 ] } },
{ "type": "Feature", "properties": { "lat": 35.6575024, "lon": 139.6986187, "title": "Rockin Cafe Shibuya GABIGABI" }, "geometry": { "type": "Point", "coordinates": [ 139.6986187, 35.6575024 ] } },
{ "type": "Feature", "properties": { "lat": 35.6564064, "lon": 139.7010788, "title": "Woodstock" }, "geometry": { "type": "Point", "coordinates": [ 139.7010788, 35.6564064 ] } },
{ "type": "Feature", "properties": { "lat": 35.6610474, "lon": 139.7060359, "title": "INC COCKTAILS" }, "geometry": { "type": "Point", "coordinates": [ 139.706035899999989, 35.6610474 ] } },
{ "type": "Feature", "properties": { "lat": 35.6620484, "lon": 139.6987767, "title": "QUATTRO LABO" }, "geometry": { "type": "Point", "coordinates": [ 139.6987767, 35.6620484 ] } },
{ "type": "Feature", "properties": { "lat": 35.6718083, "lon": 139.7097062, "title": "Deus Ex Machina" }, "geometry": { "type": "Point", "coordinates": [ 139.7097062, 35.6718083 ] } },
{ "type": "Feature", "properties": { "lat": 35.6575904, "lon": 139.7001518, "title": "CE LA VI TOKYO" }, "geometry": { "type": "Point", "coordinates": [ 139.700151799999986, 35.6575904 ] } },
{ "type": "Feature", "properties": { "lat": 35.6607517, "lon": 139.6973995, "title": "Veats Shibuya" }, "geometry": { "type": "Point", "coordinates": [ 139.697399499999989, 35.6607517 ] } },
{ "type": "Feature", "properties": { "lat": 35.6597574, "lon": 139.7009471, "title": "MAG7 (MAGNET by SHIBUYA109)" }, "geometry": { "type": "Point", "coordinates": [ 139.7009471, 35.6597574 ] } },
{ "type": "Feature", "properties": { "lat": 35.6590828, "lon": 139.6963802, "title": "Good Wood Terrace" }, "geometry": { "type": "Point", "coordinates": [ 139.6963802, 35.6590828 ] } },
{ "type": "Feature", "properties": { "lat": 35.6594225, "lon": 139.6961101, "title": "Mikkeller Tokyo" }, "geometry": { "type": "Point", "coordinates": [ 139.6961101, 35.6594225 ] } },
{ "type": "Feature", "properties": { "lat": 35.6576933, "lon": 139.7078411, "title": "Test Flight" }, "geometry": { "type": "Point", "coordinates": [ 139.7078411, 35.6576933 ] } },
{ "type": "Feature", "properties": { "lat": 35.6595673, "lon": 139.6959064, "title": "RECORD BAR analog" }, "geometry": { "type": "Point", "coordinates": [ 139.695906400000013, 35.6595673 ] } },
{ "type": "Feature", "properties": { "lat": 35.6470631, "lon": 139.7024623, "title": "B1FLAT" }, "geometry": { "type": "Point", "coordinates": [ 139.7024623, 35.6470631 ] } },
{ "type": "Feature", "properties": { "lat": 35.6605392, "lon": 139.7029303, "title": "BLOODY ANGLE" }, "geometry": { "type": "Point", "coordinates": [ 139.7029303, 35.6605392 ] } },
{ "type": "Feature", "properties": { "lat": 35.6595678, "lon": 139.6978583, "title": "Yellow Blank Market (YBM)" }, "geometry": { "type": "Point", "coordinates": [ 139.6978583, 35.6595678 ] } },
{ "type": "Feature", "properties": { "lat": 35.656595, "lon": 139.6957, "title": "翠月" }, "geometry": { "type": "Point", "coordinates": [ 139.6957, 35.656595 ] } },
{ "type": "Feature", "properties": { "lat": 35.6587215, "lon": 139.6956111, "title": "TSUTAYA O-Crest" }, "geometry": { "type": "Point", "coordinates": [ 139.6956111, 35.6587215 ] } },
{ "type": "Feature", "properties": { "lat": 35.6617771, "lon": 139.6980776, "title": "CLUB VIZEL" }, "geometry": { "type": "Point", "coordinates": [ 139.6980776, 35.6617771 ] } },
{ "type": "Feature", "properties": { "lat": 35.6584968, "lon": 139.6952872, "title": "TSUTAYA O-nest" }, "geometry": { "type": "Point", "coordinates": [ 139.6952872, 35.6584968 ] } },
{ "type": "Feature", "properties": { "lat": 35.6587535, "lon": 139.6966605, "title": "THE WU DJ's bar" }, "geometry": { "type": "Point", "coordinates": [ 139.6966605, 35.6587535 ] } },
{ "type": "Feature", "properties": { "lat": 35.6642971, "lon": 139.7040118, "title": "TRUNK (LOUNGE)" }, "geometry": { "type": "Point", "coordinates": [ 139.704011799999989, 35.6642971 ] } },
{ "type": "Feature", "properties": { "lat": 35.6476251, "lon": 139.7079309, "title": "What the Dickens" }, "geometry": { "type": "Point", "coordinates": [ 139.7079309, 35.6476251 ] } },
{ "type": "Feature", "properties": { "lat": 35.6566385, "lon": 139.6974877, "title": "Music Bar Boogie Back" }, "geometry": { "type": "Point", "coordinates": [ 139.697487700000011, 35.6566385 ] } },
{ "type": "Feature", "properties": { "lat": 35.6587215, "lon": 139.6956111, "title": "東間屋 (AZUMAYA)" }, "geometry": { "type": "Point", "coordinates": [ 139.6956111, 35.6587215 ] } },
{ "type": "Feature", "properties": { "lat": 35.6509045, "lon": 139.7037368, "title": "Debris" }, "geometry": { "type": "Point", "coordinates": [ 139.7037368, 35.6509045 ] } },
{ "type": "Feature", "properties": { "lat": 35.6670473, "lon": 139.7038579, "title": "Sankeys PENTHOUSE" }, "geometry": { "type": "Point", "coordinates": [ 139.7038579, 35.6670473 ] } },
{ "type": "Feature", "properties": { "lat": 35.6572303, "lon": 139.7031835, "title": "Bar&Dining TORRENT" }, "geometry": { "type": "Point", "coordinates": [ 139.7031835, 35.6572303 ] } },
{ "type": "Feature", "properties": { "lat": 35.6852642, "lon": 139.6992942, "title": "Spincoaster Music Bar" }, "geometry": { "type": "Point", "coordinates": [ 139.6992942, 35.6852642 ] } },
{ "type": "Feature", "properties": { "lat": 35.6599995, "lon": 139.6959643, "title": "Studio Freedom" }, "geometry": { "type": "Point", "coordinates": [ 139.695964300000014, 35.6599995 ] } },
{ "type": "Feature", "properties": { "lat": 35.6625331, "lon": 139.6989865, "title": "koe space (hotel koe tokyo)" }, "geometry": { "type": "Point", "coordinates": [ 139.6989865, 35.6625331 ] } },
{ "type": "Feature", "properties": { "lat": 35.648076, "lon": 139.702266, "title": "晴れたら空に豆まいて" }, "geometry": { "type": "Point", "coordinates": [ 139.702266, 35.648076 ] } },
{ "type": "Feature", "properties": { "lat": 35.6608944, "lon": 139.6979788, "title": "Club Malcolm" }, "geometry": { "type": "Point", "coordinates": [ 139.697978799999987, 35.6608944 ] } },
{ "type": "Feature", "properties": { "lat": 35.6614552, "lon": 139.6984366, "title": "JUMANJI 33" }, "geometry": { "type": "Point", "coordinates": [ 139.6984366, 35.6614552 ] } },
{ "type": "Feature", "properties": { "lat": 35.6624586, "lon": 139.7121728, "title": "RED BAR" }, "geometry": { "type": "Point", "coordinates": [ 139.7121728, 35.6624586 ] } },
{ "type": "Feature", "properties": { "lat": 35.6649231, "lon": 139.701558, "title": "Bar SUBTERRANEANS" }, "geometry": { "type": "Point", "coordinates": [ 139.701558, 35.6649231 ] } },
{ "type": "Feature", "properties": { "lat": 35.6610383, "lon": 139.7044648, "title": "THE GUINGUETTE by MOJA" }, "geometry": { "type": "Point", "coordinates": [ 139.704464800000011, 35.6610383 ] } },
{ "type": "Feature", "properties": { "lat": 35.658306, "lon": 139.6952739, "title": "A BAR" }, "geometry": { "type": "Point", "coordinates": [ 139.695273899999989, 35.658306 ] } },
{ "type": "Feature", "properties": { "lat": 35.6533025, "lon": 139.7045199, "title": "SPACE ODD" }, "geometry": { "type": "Point", "coordinates": [ 139.7045199, 35.6533025 ] } },
{ "type": "Feature", "properties": { "lat": 35.6574758, "lon": 139.6969209, "title": "SHIBUYA REX" }, "geometry": { "type": "Point", "coordinates": [ 139.6969209, 35.6574758 ] } },
{ "type": "Feature", "properties": { "lat": 35.681463, "lon": 139.7023319, "title": "LIVE labo YOYOGI" }, "geometry": { "type": "Point", "coordinates": [ 139.7023319, 35.681463 ] } },
{ "type": "Feature", "properties": { "lat": 35.6610485, "lon": 139.6973796, "title": "TAKE OFF 7" }, "geometry": { "type": "Point", "coordinates": [ 139.6973796, 35.6610485 ] } },
{ "type": "Feature", "properties": { "lat": 35.6626422, "lon": 139.6972857, "title": "rhythmcafe" }, "geometry": { "type": "Point", "coordinates": [ 139.6972857, 35.6626422 ] } },
{ "type": "Feature", "properties": { "lat": 35.6625076, "lon": 139.6987316, "title": "gee-ge." }, "geometry": { "type": "Point", "coordinates": [ 139.6987316, 35.6625076 ] } },
{ "type": "Feature", "properties": { "lat": 35.6586404, "lon": 139.7080054, "title": "Last Waltz by shiosai" }, "geometry": { "type": "Point", "coordinates": [ 139.7080054, 35.6586404 ] } },
{ "type": "Feature", "properties": { "lat": 35.6822311, "lon": 139.7017614, "title": "Zher the ZOO YOYOGI" }, "geometry": { "type": "Point", "coordinates": [ 139.7017614, 35.6822311 ] } },
{ "type": "Feature", "properties": { "lat": 35.6595678, "lon": 139.6978583, "title": "BPM MUSIC BAR" }, "geometry": { "type": "Point", "coordinates": [ 139.6978583, 35.6595678 ] } },
{ "type": "Feature", "properties": { "lat": 35.6615117, "lon": 139.6987557, "title": "WWW X" }, "geometry": { "type": "Point", "coordinates": [ 139.6987557, 35.6615117 ] } },
{ "type": "Feature", "properties": { "lat": 35.6517036, "lon": 139.7087893, "title": "Suree" }, "geometry": { "type": "Point", "coordinates": [ 139.7087893, 35.6517036 ] } },
{ "type": "Feature", "properties": { "lat": 35.6595958, "lon": 139.6953996, "title": "nob" }, "geometry": { "type": "Point", "coordinates": [ 139.6953996, 35.6595958 ] } },
{ "type": "Feature", "properties": { "lat": 35.6577384, "lon": 139.6991058, "title": "Bar Music" }, "geometry": { "type": "Point", "coordinates": [ 139.699105800000012, 35.6577384 ] } },
{ "type": "Feature", "properties": { "lat": 35.659687, "lon": 139.7014882, "title": "DJ Bar&Lounge WREP" }, "geometry": { "type": "Point", "coordinates": [ 139.7014882, 35.659687 ] } },
{ "type": "Feature", "properties": { "lat": 35.6570256, "lon": 139.6970046, "title": "LAUREL TOKYO" }, "geometry": { "type": "Point", "coordinates": [ 139.697004600000014, 35.6570256 ] } },
{ "type": "Feature", "properties": { "lat": 35.6611121, "lon": 139.6985442, "title": "TK SHIBUYA" }, "geometry": { "type": "Point", "coordinates": [ 139.698544199999986, 35.6611121 ] } },
{ "type": "Feature", "properties": { "lat": 35.6562392, "lon": 139.7011096, "title": "Bar star star" }, "geometry": { "type": "Point", "coordinates": [ 139.7011096, 35.6562392 ] } },
{ "type": "Feature", "properties": { "lat": 35.6577479, "lon": 139.6991906, "title": "Night Club TRUMP TOKYO" }, "geometry": { "type": "Point", "coordinates": [ 139.6991906, 35.6577479 ] } },
{ "type": "Feature", "properties": { "lat": 35.6583624, "lon": 139.6957216, "title": "beat cafe" }, "geometry": { "type": "Point", "coordinates": [ 139.695721600000013, 35.6583624 ] } },
{ "type": "Feature", "properties": { "lat": 35.6610613, "lon": 139.696831, "title": "MILLIBAR" }, "geometry": { "type": "Point", "coordinates": [ 139.696831, 35.6610613 ] } },
{ "type": "Feature", "properties": { "lat": 35.6822804, "lon": 139.6982461, "title": "ANCE" }, "geometry": { "type": "Point", "coordinates": [ 139.6982461, 35.6822804 ] } },
{ "type": "Feature", "properties": { "lat": 35.6599995, "lon": 139.6959643, "title": "DAIA" }, "geometry": { "type": "Point", "coordinates": [ 139.695964300000014, 35.6599995 ] } },
{ "type": "Feature", "properties": { "lat": 35.6533025, "lon": 139.7045199, "title": "Sankeys TYO" }, "geometry": { "type": "Point", "coordinates": [ 139.7045199, 35.6533025 ] } },
{ "type": "Feature", "properties": { "lat": 35.658535, "lon": 139.6976154, "title": "Contact" }, "geometry": { "type": "Point", "coordinates": [ 139.697615399999989, 35.658535 ] } },
{ "type": "Feature", "properties": { "lat": 35.6559095, "lon": 139.7055103, "title": "POINT･66" }, "geometry": { "type": "Point", "coordinates": [ 139.705510299999986, 35.6559095 ] } },
{ "type": "Feature", "properties": { "lat": 35.6513468, "lon": 139.7094943, "title": "自由空間 CreAto" }, "geometry": { "type": "Point", "coordinates": [ 139.709494299999989, 35.6513468 ] } },
{ "type": "Feature", "properties": { "lat": 35.6566385, "lon": 139.6974877, "title": "はすとばら" }, "geometry": { "type": "Point", "coordinates": [ 139.697487700000011, 35.6566385 ] } },
{ "type": "Feature", "properties": { "lat": 35.663727, "lon": 139.6993046, "title": "nagomix" }, "geometry": { "type": "Point", "coordinates": [ 139.6993046, 35.663727 ] } },
{ "type": "Feature", "properties": { "lat": 35.6541654, "lon": 139.7055971, "title": "CIRCUS TOKYO" }, "geometry": { "type": "Point", "coordinates": [ 139.7055971, 35.6541654 ] } },
{ "type": "Feature", "properties": { "lat": 35.6511157, "lon": 139.6967467, "title": "LIVE HOUSE LOOP 代官山" }, "geometry": { "type": "Point", "coordinates": [ 139.6967467, 35.6511157 ] } },
{ "type": "Feature", "properties": { "lat": 35.6594915, "lon": 139.6983876, "title": "eplus LIVING ROOM CAFE&DINING" }, "geometry": { "type": "Point", "coordinates": [ 139.6983876, 35.6594915 ] } },
{ "type": "Feature", "properties": { "lat": 35.6572957, "lon": 139.6977395, "title": "La.mama" }, "geometry": { "type": "Point", "coordinates": [ 139.697739500000012, 35.6572957 ] } },
{ "type": "Feature", "properties": { "lat": 35.6695001, "lon": 139.706556, "title": "ASTRO HALL" }, "geometry": { "type": "Point", "coordinates": [ 139.706556, 35.6695001 ] } },
{ "type": "Feature", "properties": { "lat": 35.6625497, "lon": 139.6969471, "title": "DOOR" }, "geometry": { "type": "Point", "coordinates": [ 139.696947099999988, 35.6625497 ] } },
{ "type": "Feature", "properties": { "lat": 35.6570355, "lon": 139.6955348, "title": "Dimension" }, "geometry": { "type": "Point", "coordinates": [ 139.6955348, 35.6570355 ] } },
{ "type": "Feature", "properties": { "lat": 35.6599995, "lon": 139.6959643, "title": "agePa shibuya" }, "geometry": { "type": "Point", "coordinates": [ 139.695964300000014, 35.6599995 ] } },
{ "type": "Feature", "properties": { "lat": 35.6702036, "lon": 139.7064731, "title": "Social Lounge AJITO" }, "geometry": { "type": "Point", "coordinates": [ 139.706473100000011, 35.6702036 ] } },
{ "type": "Feature", "properties": { "lat": 35.6458647, "lon": 139.706829, "title": "Cafe&Dining nurikabe" }, "geometry": { "type": "Point", "coordinates": [ 139.706829, 35.6458647 ] } },
{ "type": "Feature", "properties": { "lat": 35.6587646, "lon": 139.6949367, "title": "White Space Lab" }, "geometry": { "type": "Point", "coordinates": [ 139.6949367, 35.6587646 ] } },
{ "type": "Feature", "properties": { "lat": 35.6822511, "lon": 139.6984834, "title": "shirokuma" }, "geometry": { "type": "Point", "coordinates": [ 139.698483399999986, 35.682251099999988 ] } },
{ "type": "Feature", "properties": { "lat": 35.6641642, "lon": 139.6993341, "title": "Green Lounge" }, "geometry": { "type": "Point", "coordinates": [ 139.699334099999987, 35.6641642 ] } },
{ "type": "Feature", "properties": { "lat": 35.6576933, "lon": 139.7078411, "title": "HOT BUTTERED CLUB" }, "geometry": { "type": "Point", "coordinates": [ 139.7078411, 35.6576933 ] } },
{ "type": "Feature", "properties": { "lat": 35.6602951, "lon": 139.7081112, "title": "Social Club Tokyo" }, "geometry": { "type": "Point", "coordinates": [ 139.7081112, 35.6602951 ] } },
{ "type": "Feature", "properties": { "lat": 35.659687, "lon": 139.7014882, "title": "DJ BAR Bridge" }, "geometry": { "type": "Point", "coordinates": [ 139.7014882, 35.659687 ] } },
{ "type": "Feature", "properties": { "lat": 35.6450525, "lon": 139.7147572, "title": "club aim" }, "geometry": { "type": "Point", "coordinates": [ 139.7147572, 35.6450525 ] } },
{ "type": "Feature", "properties": { "lat": 35.660543, "lon": 139.7049588, "title": "Shibuya HOME" }, "geometry": { "type": "Point", "coordinates": [ 139.704958800000014, 35.660543 ] } },
{ "type": "Feature", "properties": { "lat": 35.6614846, "lon": 139.6985382, "title": "GARRET udagawa" }, "geometry": { "type": "Point", "coordinates": [ 139.6985382, 35.6614846 ] } },
{ "type": "Feature", "properties": { "lat": 35.6611121, "lon": 139.6985442, "title": "I2 SHIBUYA" }, "geometry": { "type": "Point", "coordinates": [ 139.698544199999986, 35.6611121 ] } },
{ "type": "Feature", "properties": { "lat": 35.6571532, "lon": 139.7038157, "title": "OTO" }, "geometry": { "type": "Point", "coordinates": [ 139.7038157, 35.6571532 ] } },
{ "type": "Feature", "properties": { "lat": 35.6627335, "lon": 139.6971643, "title": "FLAMINGO" }, "geometry": { "type": "Point", "coordinates": [ 139.6971643, 35.6627335 ] } },
{ "type": "Feature", "properties": { "lat": 35.6696224, "lon": 139.7066044, "title": "NGORO NGORO HARAJUKU" }, "geometry": { "type": "Point", "coordinates": [ 139.7066044, 35.6696224 ] } },
{ "type": "Feature", "properties": { "lat": 35.658306, "lon": 139.6952739, "title": "FLAME TOKYO" }, "geometry": { "type": "Point", "coordinates": [ 139.695273899999989, 35.658306 ] } },
{ "type": "Feature", "properties": { "lat": 35.6568647, "lon": 139.6971402, "title": "GUILTY" }, "geometry": { "type": "Point", "coordinates": [ 139.6971402, 35.6568647 ] } },
{ "type": "Feature", "properties": { "lat": 35.6587638, "lon": 139.6949346, "title": "DJ BAR SPACE" }, "geometry": { "type": "Point", "coordinates": [ 139.694934600000011, 35.6587638 ] } },
{ "type": "Feature", "properties": { "lat": 35.6776147, "lon": 139.6789455, "title": "SCUBA" }, "geometry": { "type": "Point", "coordinates": [ 139.6789455, 35.6776147 ] } },
{ "type": "Feature", "properties": { "lat": 35.6453677, "lon": 139.707889, "title": "LIFE IS BEAUTIFUL" }, "geometry": { "type": "Point", "coordinates": [ 139.707889, 35.6453677 ] } },
{ "type": "Feature", "properties": { "lat": 35.6578015, "lon": 139.6968052, "title": "ZUBAR" }, "geometry": { "type": "Point", "coordinates": [ 139.6968052, 35.6578015 ] } },
{ "type": "Feature", "properties": { "lat": 35.6477533, "lon": 139.70825, "title": "INDUSTRIAL LOUNGE" }, "geometry": { "type": "Point", "coordinates": [ 139.70825, 35.6477533 ] } },
{ "type": "Feature", "properties": { "lat": 35.6619731, "lon": 139.6973941, "title": "CAFE&DINNER スタジオ" }, "geometry": { "type": "Point", "coordinates": [ 139.6973941, 35.6619731 ] } },
{ "type": "Feature", "properties": { "lat": 35.6576933, "lon": 139.7078411, "title": "SOFT" }, "geometry": { "type": "Point", "coordinates": [ 139.7078411, 35.6576933 ] } },
{ "type": "Feature", "properties": { "lat": 35.6626422, "lon": 139.6972857, "title": "GALLERY&BAR COCOON" }, "geometry": { "type": "Point", "coordinates": [ 139.6972857, 35.6626422 ] } },
{ "type": "Feature", "properties": { "lat": 35.6625731, "lon": 139.6971993, "title": "喫茶SMiLE" }, "geometry": { "type": "Point", "coordinates": [ 139.6971993, 35.6625731 ] } },
{ "type": "Feature", "properties": { "lat": 35.6780195, "lon": 139.6770801, "title": "FORESTLIMIT" }, "geometry": { "type": "Point", "coordinates": [ 139.677080100000012, 35.6780195 ] } },
{ "type": "Feature", "properties": { "lat": 35.6608944, "lon": 139.6979788, "title": "東京354CLUB" }, "geometry": { "type": "Point", "coordinates": [ 139.697978799999987, 35.6608944 ] } },
{ "type": "Feature", "properties": { "lat": 35.6621203, "lon": 139.6972624, "title": "Coins Bar" }, "geometry": { "type": "Point", "coordinates": [ 139.6972624, 35.6621203 ] } },
{ "type": "Feature", "properties": { "lat": 35.6626422, "lon": 139.6972857, "title": "ROCKAHOLIC" }, "geometry": { "type": "Point", "coordinates": [ 139.6972857, 35.6626422 ] } },
{ "type": "Feature", "properties": { "lat": 35.6584968, "lon": 139.6952872, "title": "7th FLOOR" }, "geometry": { "type": "Point", "coordinates": [ 139.6952872, 35.6584968 ] } },
{ "type": "Feature", "properties": { "lat": 35.6584968, "lon": 139.6952872, "title": "TSUTAYA O-WEST" }, "geometry": { "type": "Point", "coordinates": [ 139.6952872, 35.6584968 ] } },
{ "type": "Feature", "properties": { "lat": 35.6577479, "lon": 139.6991906, "title": "TRUMPLOUNGE/HOUSE" }, "geometry": { "type": "Point", "coordinates": [ 139.6991906, 35.6577479 ] } },
{ "type": "Feature", "properties": { "lat": 35.657393, "lon": 139.7018567, "title": "RUIDO K2" }, "geometry": { "type": "Point", "coordinates": [ 139.7018567, 35.657393 ] } },
{ "type": "Feature", "properties": { "lat": 35.6609861, "lon": 139.697567, "title": "CLUB QUATTRO" }, "geometry": { "type": "Point", "coordinates": [ 139.697567, 35.6609861 ] } },
{ "type": "Feature", "properties": { "lat": 35.6625497, "lon": 139.6969471, "title": "虎子食堂" }, "geometry": { "type": "Point", "coordinates": [ 139.696947099999988, 35.6625497 ] } },
{ "type": "Feature", "properties": { "lat": 35.6608631, "lon": 139.7076366, "title": "0 Zero" }, "geometry": { "type": "Point", "coordinates": [ 139.7076366, 35.6608631 ] } },
{ "type": "Feature", "properties": { "lat": 35.6604773, "lon": 139.7012688, "title": "Cafe & Bar SCRAMBLE" }, "geometry": { "type": "Point", "coordinates": [ 139.7012688, 35.6604773 ] } },
{ "type": "Feature", "properties": { "lat": 35.656598, "lon": 139.7022922, "title": "club乙 kinoto" }, "geometry": { "type": "Point", "coordinates": [ 139.702292199999988, 35.656598 ] } },
{ "type": "Feature", "properties": { "lat": 35.6490979, "lon": 139.7106403, "title": "KATA" }, "geometry": { "type": "Point", "coordinates": [ 139.7106403, 35.6490979 ] } },
{ "type": "Feature", "properties": { "lat": 35.6605611, "lon": 139.6992968, "title": "dMz" }, "geometry": { "type": "Point", "coordinates": [ 139.699296800000013, 35.6605611 ] } },
{ "type": "Feature", "properties": { "lat": 35.677198, "lon": 139.7118923, "title": "ディクショナリー倶楽部" }, "geometry": { "type": "Point", "coordinates": [ 139.711892299999988, 35.677198 ] } },
{ "type": "Feature", "properties": { "lat": 35.6575953, "lon": 139.6993465, "title": "Lamafa" }, "geometry": { "type": "Point", "coordinates": [ 139.6993465, 35.6575953 ] } },
{ "type": "Feature", "properties": { "lat": 35.6619053, "lon": 139.6983967, "title": "kinobar" }, "geometry": { "type": "Point", "coordinates": [ 139.698396699999989, 35.6619053 ] } },
{ "type": "Feature", "properties": { "lat": 35.6624798, "lon": 139.697888, "title": "STAR LOUNGE" }, "geometry": { "type": "Point", "coordinates": [ 139.697888, 35.6624798 ] } },
{ "type": "Feature", "properties": { "lat": 35.6570355, "lon": 139.6955348, "title": "BAR SAZANAMI" }, "geometry": { "type": "Point", "coordinates": [ 139.6955348, 35.6570355 ] } },
{ "type": "Feature", "properties": { "lat": 35.6608833, "lon": 139.7057167, "title": "COZMO’S" }, "geometry": { "type": "Point", "coordinates": [ 139.705716700000011, 35.6608833 ] } },
{ "type": "Feature", "properties": { "lat": 35.652071, "lon": 139.7042789, "title": "NOMAD" }, "geometry": { "type": "Point", "coordinates": [ 139.7042789, 35.652071 ] } },
{ "type": "Feature", "properties": { "lat": 35.6613426, "lon": 139.6978405, "title": "WASTED TIME" }, "geometry": { "type": "Point", "coordinates": [ 139.697840500000012, 35.6613426 ] } },
{ "type": "Feature", "properties": { "lat": 35.6455931, "lon": 139.7075818, "title": "NOS EBISU" }, "geometry": { "type": "Point", "coordinates": [ 139.707581800000014, 35.6455931 ] } },
{ "type": "Feature", "properties": { "lat": 35.66257, "lon": 139.6983586, "title": "NOS ORG" }, "geometry": { "type": "Point", "coordinates": [ 139.6983586, 35.66257 ] } },
{ "type": "Feature", "properties": { "lat": 35.6599995, "lon": 139.6959643, "title": "DROP Shibuya" }, "geometry": { "type": "Point", "coordinates": [ 139.695964300000014, 35.6599995 ] } },
{ "type": "Feature", "properties": { "lat": 35.6614083, "lon": 139.6984171, "title": "CYCLONE" }, "geometry": { "type": "Point", "coordinates": [ 139.6984171, 35.6614083 ] } },
{ "type": "Feature", "properties": { "lat": 35.6615211, "lon": 139.6974871, "title": "J-POP CAFE" }, "geometry": { "type": "Point", "coordinates": [ 139.697487099999989, 35.6615211 ] } },
{ "type": "Feature", "properties": { "lat": 35.6624798, "lon": 139.697888, "title": "Milkyway" }, "geometry": { "type": "Point", "coordinates": [ 139.697888, 35.6624798 ] } },
{ "type": "Feature", "properties": { "lat": 35.6638344, "lon": 139.7079309, "title": "Tokyo Salon" }, "geometry": { "type": "Point", "coordinates": [ 139.7079309, 35.6638344 ] } },
{ "type": "Feature", "properties": { "lat": 35.6819199, "lon": 139.7011166, "title": "Village Music Bar" }, "geometry": { "type": "Point", "coordinates": [ 139.7011166, 35.6819199 ] } },
{ "type": "Feature", "properties": { "lat": 35.6595673, "lon": 139.6959064, "title": "Bar Come On Rock" }, "geometry": { "type": "Point", "coordinates": [ 139.695906400000013, 35.6595673 ] } },
{ "type": "Feature", "properties": { "lat": 35.6625497, "lon": 139.6969471, "title": "Rock no Cocoro" }, "geometry": { "type": "Point", "coordinates": [ 139.696947099999988, 35.6625497 ] } },
{ "type": "Feature", "properties": { "lat": 35.6615117, "lon": 139.6987557, "title": "WWW" }, "geometry": { "type": "Point", "coordinates": [ 139.6987557, 35.6615117 ] } },
{ "type": "Feature", "properties": { "lat": 35.6594915, "lon": 139.6983876, "title": "SHOWER LOUNGE PLUS" }, "geometry": { "type": "Point", "coordinates": [ 139.6983876, 35.6594915 ] } },
{ "type": "Feature", "properties": { "lat": 35.6643809, "lon": 139.7026453, "title": "CROCODILE" }, "geometry": { "type": "Point", "coordinates": [ 139.7026453, 35.6643809 ] } },
{ "type": "Feature", "properties": { "lat": 35.6625497, "lon": 139.6969471, "title": "Liaison" }, "geometry": { "type": "Point", "coordinates": [ 139.696947099999988, 35.6625497 ] } },
{ "type": "Feature", "properties": { "lat": 35.6643992, "lon": 139.6993843, "title": "eggman" }, "geometry": { "type": "Point", "coordinates": [ 139.6993843, 35.6643992 ] } },
{ "type": "Feature", "properties": { "lat": 35.6595453, "lon": 139.6955556, "title": "guest" }, "geometry": { "type": "Point", "coordinates": [ 139.6955556, 35.6595453 ] } },
{ "type": "Feature", "properties": { "lat": 35.6611705, "lon": 139.7002213, "title": "GRANDE" }, "geometry": { "type": "Point", "coordinates": [ 139.70022130000001, 35.6611705 ] } },
{ "type": "Feature", "properties": { "lat": 35.6583039, "lon": 139.6950279, "title": "WOMB LOUNGE" }, "geometry": { "type": "Point", "coordinates": [ 139.695027900000014, 35.6583039 ] } },
{ "type": "Feature", "properties": { "lat": 35.6648579, "lon": 139.7034496, "title": "Galaxy Gingakei" }, "geometry": { "type": "Point", "coordinates": [ 139.7034496, 35.6648579 ] } },
{ "type": "Feature", "properties": { "lat": 35.6490979, "lon": 139.7106403, "title": "TimeOut Café & Diner" }, "geometry": { "type": "Point", "coordinates": [ 139.7106403, 35.6490979 ] } },
{ "type": "Feature", "properties": { "lat": 35.6594643, "lon": 139.6999478, "title": "CAFE&BAR LX" }, "geometry": { "type": "Point", "coordinates": [ 139.6999478, 35.6594643 ] } },
{ "type": "Feature", "properties": { "lat": 35.6533815, "lon": 139.7090479, "title": "dining&bar KITSUNE" }, "geometry": { "type": "Point", "coordinates": [ 139.7090479, 35.6533815 ] } },
{ "type": "Feature", "properties": { "lat": 35.6586841, "lon": 139.6956445, "title": "TSUTAYA O-EAST" }, "geometry": { "type": "Point", "coordinates": [ 139.695644499999986, 35.658684099999988 ] } },
{ "type": "Feature", "properties": { "lat": 35.6583598, "lon": 139.6956313, "title": "SHIBUYA DESEO" }, "geometry": { "type": "Point", "coordinates": [ 139.6956313, 35.6583598 ] } },
{ "type": "Feature", "properties": { "lat": 35.6629798, "lon": 139.7000961, "title": "UNDER DEER LOUNGE" }, "geometry": { "type": "Point", "coordinates": [ 139.7000961, 35.6629798 ] } },
{ "type": "Feature", "properties": { "lat": 35.6599995, "lon": 139.6959643, "title": "Icon" }, "geometry": { "type": "Point", "coordinates": [ 139.695964300000014, 35.6599995 ] } },
{ "type": "Feature", "properties": { "lat": 35.6624798, "lon": 139.697888, "title": "CHELSEA HOTEL" }, "geometry": { "type": "Point", "coordinates": [ 139.697888, 35.6624798 ] } },
{ "type": "Feature", "properties": { "lat": 35.6570355, "lon": 139.6955348, "title": "ACID PANDA CAFE" }, "geometry": { "type": "Point", "coordinates": [ 139.6955348, 35.6570355 ] } },
{ "type": "Feature", "properties": { "lat": 35.6551275, "lon": 139.6939618, "title": "CLUB HAZARD" }, "geometry": { "type": "Point", "coordinates": [ 139.693961800000011, 35.6551275 ] } },
{ "type": "Feature", "properties": { "lat": 35.660543, "lon": 139.7049588, "title": "LUSH" }, "geometry": { "type": "Point", "coordinates": [ 139.704958800000014, 35.660543 ] } },
{ "type": "Feature", "properties": { "lat": 35.674978, "lon": 139.7105852, "title": "FICTION UG" }, "geometry": { "type": "Point", "coordinates": [ 139.7105852, 35.674978 ] } },
{ "type": "Feature", "properties": { "lat": 35.6755639, "lon": 139.7068831, "title": "GOOD LIFE LOUNGE" }, "geometry": { "type": "Point", "coordinates": [ 139.7068831, 35.6755639 ] } },
{ "type": "Feature", "properties": { "lat": 35.659715, "lon": 139.6955557, "title": "しぶや花魁" }, "geometry": { "type": "Point", "coordinates": [ 139.6955557, 35.659715 ] } },
{ "type": "Feature", "properties": { "lat": 35.654636, "lon": 139.7084726, "title": "CLUB CRAWL" }, "geometry": { "type": "Point", "coordinates": [ 139.7084726, 35.654636 ] } },
{ "type": "Feature", "properties": { "lat": 35.6628481, "lon": 139.700682, "title": "TRUMPROOM" }, "geometry": { "type": "Point", "coordinates": [ 139.700682, 35.662848100000012 ] } },
{ "type": "Feature", "properties": { "lat": 35.6610553, "lon": 139.6972224, "title": "SOUL SMOOTH cafe" }, "geometry": { "type": "Point", "coordinates": [ 139.697222399999987, 35.6610553 ] } },
{ "type": "Feature", "properties": { "lat": 35.6625497, "lon": 139.6969471, "title": "JUMP" }, "geometry": { "type": "Point", "coordinates": [ 139.696947099999988, 35.6625497 ] } },
{ "type": "Feature", "properties": { "lat": 35.6649231, "lon": 139.701558, "title": "Cafe Apres-midi" }, "geometry": { "type": "Point", "coordinates": [ 139.701558, 35.6649231 ] } },
{ "type": "Feature", "properties": { "lat": 35.6564093, "lon": 139.6993541, "title": "JZ Brat SOUND OF TOKYO" }, "geometry": { "type": "Point", "coordinates": [ 139.6993541, 35.6564093 ] } },
{ "type": "Feature", "properties": { "lat": 35.6465397, "lon": 139.7076616, "title": "Bar audio!" }, "geometry": { "type": "Point", "coordinates": [ 139.7076616, 35.6465397 ] } },
{ "type": "Feature", "properties": { "lat": 35.6629471, "lon": 139.7098957, "title": "JAM Renaissance" }, "geometry": { "type": "Point", "coordinates": [ 139.7098957, 35.6629471 ] } },
{ "type": "Feature", "properties": { "lat": 35.6564064, "lon": 139.7010788, "title": "Shibuya Aurra" }, "geometry": { "type": "Point", "coordinates": [ 139.7010788, 35.6564064 ] } },
{ "type": "Feature", "properties": { "lat": 35.659715, "lon": 139.6955557, "title": "O FLOOR" }, "geometry": { "type": "Point", "coordinates": [ 139.6955557, 35.659715 ] } },
{ "type": "Feature", "properties": { "lat": 35.6555373, "lon": 139.7059795, "title": "bar SHIFTY" }, "geometry": { "type": "Point", "coordinates": [ 139.705979500000012, 35.6555373 ] } },
{ "type": "Feature", "properties": { "lat": 35.659583, "lon": 139.6976588, "title": "RUBY ROOM" }, "geometry": { "type": "Point", "coordinates": [ 139.6976588, 35.659583 ] } },
{ "type": "Feature", "properties": { "lat": 35.6601085, "lon": 139.6961331, "title": "EN SOF TOKYO" }, "geometry": { "type": "Point", "coordinates": [ 139.6961331, 35.6601085 ] } },
{ "type": "Feature", "properties": { "lat": 35.6570256, "lon": 139.6970046, "title": "Lounge KARASU" }, "geometry": { "type": "Point", "coordinates": [ 139.697004600000014, 35.6570256 ] } },
{ "type": "Feature", "properties": { "lat": 35.6752279, "lon": 139.6783653, "title": "CLUB HEAVY SICK" }, "geometry": { "type": "Point", "coordinates": [ 139.6783653, 35.6752279 ] } },
{ "type": "Feature", "properties": { "lat": 35.6587215, "lon": 139.6956111, "title": "duo MUSIC EXCHANGE" }, "geometry": { "type": "Point", "coordinates": [ 139.6956111, 35.6587215 ] } },
{ "type": "Feature", "properties": { "lat": 35.6477754, "lon": 139.7082899, "title": "Bar Jam" }, "geometry": { "type": "Point", "coordinates": [ 139.708289900000011, 35.6477754 ] } },
{ "type": "Feature", "properties": { "lat": 35.6505465, "lon": 139.7042207, "title": "enjoy!house" }, "geometry": { "type": "Point", "coordinates": [ 139.7042207, 35.6505465 ] } },
{ "type": "Feature", "properties": { "lat": 35.6636029, "lon": 139.6993685, "title": "UNDERBAR" }, "geometry": { "type": "Point", "coordinates": [ 139.6993685, 35.6636029 ] } },
{ "type": "Feature", "properties": { "lat": 35.6624866, "lon": 139.6977012, "title": "Organ Bar" }, "geometry": { "type": "Point", "coordinates": [ 139.697701200000012, 35.6624866 ] } },
{ "type": "Feature", "properties": { "lat": 35.6575691, "lon": 139.6985768, "title": "NOSTYLE" }, "geometry": { "type": "Point", "coordinates": [ 139.698576800000012, 35.6575691 ] } },
{ "type": "Feature", "properties": { "lat": 35.674846, "lon": 139.7124577, "title": "NEON" }, "geometry": { "type": "Point", "coordinates": [ 139.712457699999987, 35.674846 ] } },
{ "type": "Feature", "properties": { "lat": 35.6572087, "lon": 139.6969676, "title": "Edge End" }, "geometry": { "type": "Point", "coordinates": [ 139.6969676, 35.6572087 ] } },
{ "type": "Feature", "properties": { "lat": 35.6606844, "lon": 139.7050691, "title": "club bar FAMILY" }, "geometry": { "type": "Point", "coordinates": [ 139.7050691, 35.6606844 ] } },
{ "type": "Feature", "properties": { "lat": 35.6623409, "lon": 139.6974617, "title": "ROOTS" }, "geometry": { "type": "Point", "coordinates": [ 139.6974617, 35.6623409 ] } },
{ "type": "Feature", "properties": { "lat": 35.6601536, "lon": 139.7010017, "title": "PLUG IN STUDIO" }, "geometry": { "type": "Point", "coordinates": [ 139.7010017, 35.6601536 ] } },
{ "type": "Feature", "properties": { "lat": 35.656595, "lon": 139.6957, "title": "ATLAS" }, "geometry": { "type": "Point", "coordinates": [ 139.6957, 35.656595 ] } },
{ "type": "Feature", "properties": { "lat": 35.6584876, "lon": 139.6972554, "title": "SOUND MUSEUM VISION" }, "geometry": { "type": "Point", "coordinates": [ 139.697255399999989, 35.6584876 ] } },
{ "type": "Feature", "properties": { "lat": 35.6610321, "lon": 139.70448, "title": "SECO" }, "geometry": { "type": "Point", "coordinates": [ 139.70448, 35.6610321 ] } },
{ "type": "Feature", "properties": { "lat": 35.658306, "lon": 139.6952739, "title": "27destiny" }, "geometry": { "type": "Point", "coordinates": [ 139.695273899999989, 35.658306 ] } },
{ "type": "Feature", "properties": { "lat": 35.6624798, "lon": 139.697888, "title": "shibuya THE GAME" }, "geometry": { "type": "Point", "coordinates": [ 139.697888, 35.6624798 ] } },
{ "type": "Feature", "properties": { "lat": 35.6602951, "lon": 139.7081112, "title": "Club ELF" }, "geometry": { "type": "Point", "coordinates": [ 139.7081112, 35.6602951 ] } },
{ "type": "Feature", "properties": { "lat": 35.6639874, "lon": 139.7004111, "title": "KOARA" }, "geometry": { "type": "Point", "coordinates": [ 139.7004111, 35.6639874 ] } },
{ "type": "Feature", "properties": { "lat": 35.6600164, "lon": 139.7000983, "title": "GASPANIC Center-Gai" }, "geometry": { "type": "Point", "coordinates": [ 139.7000983, 35.6600164 ] } },
{ "type": "Feature", "properties": { "lat": 35.6596913, "lon": 139.6989133, "title": "MICROCOSMOS" }, "geometry": { "type": "Point", "coordinates": [ 139.698913299999987, 35.6596913 ] } },
{ "type": "Feature", "properties": { "lat": 35.6589959, "lon": 139.6955503, "title": "VUENOS" }, "geometry": { "type": "Point", "coordinates": [ 139.6955503, 35.6589959 ] } },
{ "type": "Feature", "properties": { "lat": 35.6589959, "lon": 139.6955503, "title": "LOUNGE NEO" }, "geometry": { "type": "Point", "coordinates": [ 139.6955503, 35.6589959 ] } },
{ "type": "Feature", "properties": { "lat": 35.6696224, "lon": 139.7066044, "title": "UCESS THE LOUNGE" }, "geometry": { "type": "Point", "coordinates": [ 139.7066044, 35.6696224 ] } },
{ "type": "Feature", "properties": { "lat": 35.6624586, "lon": 139.7121728, "title": "Aoyama Tunnel" }, "geometry": { "type": "Point", "coordinates": [ 139.7121728, 35.6624586 ] } },
{ "type": "Feature", "properties": { "lat": 35.6577479, "lon": 139.6991906, "title": "OATH" }, "geometry": { "type": "Point", "coordinates": [ 139.6991906, 35.6577479 ] } },
{ "type": "Feature", "properties": { "lat": 35.6490979, "lon": 139.7106403, "title": "LIQUIDROOM" }, "geometry": { "type": "Point", "coordinates": [ 139.7106403, 35.6490979 ] } },
{ "type": "Feature", "properties": { "lat": 35.6470877, "lon": 139.7023197, "title": "SALOON" }, "geometry": { "type": "Point", "coordinates": [ 139.7023197, 35.6470877 ] } },
{ "type": "Feature", "properties": { "lat": 35.6470877, "lon": 139.7023197, "title": "UNIT" }, "geometry": { "type": "Point", "coordinates": [ 139.7023197, 35.6470877 ] } },
{ "type": "Feature", "properties": { "lat": 35.6612574, "lon": 139.6963824, "title": "module" }, "geometry": { "type": "Point", "coordinates": [ 139.6963824, 35.6612574 ] } },
{ "type": "Feature", "properties": { "lat": 35.6610578, "lon": 139.7079111, "title": "LOOP" }, "geometry": { "type": "Point", "coordinates": [ 139.7079111, 35.6610578 ] } },
{ "type": "Feature", "properties": { "lat": 35.658306, "lon": 139.6952739, "title": "HARLEM" }, "geometry": { "type": "Point", "coordinates": [ 139.695273899999989, 35.658306 ] } },
{ "type": "Feature", "properties": { "lat": 35.6564569, "lon": 139.7016045, "title": "THE ROOM" }, "geometry": { "type": "Point", "coordinates": [ 139.7016045, 35.656456899999988 ] } },
{ "type": "Feature", "properties": { "lat": 35.6624866, "lon": 139.6977012, "title": "Club BALL" }, "geometry": { "type": "Point", "coordinates": [ 139.697701200000012, 35.6624866 ] } },
{ "type": "Feature", "properties": { "lat": 35.6624798, "lon": 139.697888, "title": "R Lounge" }, "geometry": { "type": "Point", "coordinates": [ 139.697888, 35.6624798 ] } },
{ "type": "Feature", "properties": { "lat": 35.6583039, "lon": 139.6950279, "title": "WOMB" }, "geometry": { "type": "Point", "coordinates": [ 139.695027900000014, 35.6583039 ] } },
{ "type": "Feature", "properties": { "lat": 35.6590178, "lon": 139.6953307, "title": "club asia" }, "geometry": { "type": "Point", "coordinates": [ 139.6953307, 35.6590178 ] } },
{ "type": "Feature", "properties": { "lat": 35.6541654, "lon": 139.7055971, "title": "amate-raxi" }, "geometry": { "type": "Point", "coordinates": [ 139.7055971, 35.6541654 ] } },
{ "type": "Feature", "properties": { "lat": 35.6533025, "lon": 139.7045199, "title": "AIR" }, "geometry": { "type": "Point", "coordinates": [ 139.7045199, 35.6533025 ] } },
{ "type": "Feature", "properties": { "lat": 35.6586497, "lon": 139.709214, "title": "AOYAMA HACHI" }, "geometry": { "type": "Point", "coordinates": [ 139.709214, 35.6586497 ] } },
{ "type": "Feature", "properties": { "lat": 35.658306, "lon": 139.6952739, "title": "ATOM TOKYO" }, "geometry": { "type": "Point", "coordinates": [ 139.695273899999989, 35.658306 ] } },
{ "type": "Feature", "properties": { "lat": 35.6628751, "lon": 139.7001055, "title": "Club Camelot" }, "geometry": { "type": "Point", "coordinates": [ 139.7001055, 35.6628751 ] } },
{ "type": "Feature", "properties": { "lat": 35.6552298, "lon": 139.7048989, "title": "Club axxcis Shibuya" }, "geometry": { "type": "Point", "coordinates": [ 139.704898899999989, 35.6552298 ] } }
]
}
