{
"type": "FeatureCollection",
"name": "nurseries2025",
"crs": { "type": "name", "properties": { "name": "urn:ogc:def:crs:OGC:1.3:CRS84" } },
"features": [
{ "type": "Feature", "properties": { "lat": 35.6492191, "lon": 139.8034767, "name": "しののめYMCAこども園" }, "geometry": { "type": "Point", "coordinates": [ 139.8034767, 35.6492191 ] } },
{ "type": "Feature", "properties": { "lat": 35.6475987, "lon": 139.793773, "name": "豊洲めぐみこども園" }, "geometry": { "type": "Point", "coordinates": [ 139.793773, 35.6475987 ] } },
{ "type": "Feature", "properties": { "lat": 35.6384818, "lon": 139.7955655, "name": "武蔵野大学附属有明こども園" }, "geometry": { "type": "Point", "coordinates": [ 139.7955655, 35.6384818 ] } },
{ "type": "Feature", "properties": { "lat": 35.6637078, "lon": 139.7008247, "name": "渋谷本町こども園" }, "geometry": { "type": "Point", "coordinates": [ 139.7008247, 35.6637078 ] } },
{ "type": "Feature", "properties": { "lat": 35.6866887, "lon": 139.7248575, "name": "新宿区立四谷子ども園" }, "geometry": { "type": "Point", "coordinates": [ 139.724857500000013, 35.6866887 ] } },
{ "type": "Feature", "properties": { "lat": 35.6993061, "lon": 139.7344566, "name": "新宿区立あいじつ子ども園" }, "geometry": { "type": "Point", "coordinates": [ 139.734456599999987, 35.6993061 ] } },
{ "type": "Feature", "properties": { "lat": 35.6884291, "lon": 139.6857434, "name": "新宿区立西新宿子ども園" }, "geometry": { "type": "Point", "coordinates": [ 139.6857434, 35.6884291 ] } },
{ "type": "Feature", "properties": { "lat": 35.6795213, "lon": 139.7766301, "name": "阪本こども園" }, "geometry": { "type": "Point", "coordinates": [ 139.7766301, 35.6795213 ] } },
{ "type": "Feature", "properties": { "lat": 35.651338, "lon": 139.7798737, "name": "渋谷教育学園晴海西こども園" }, "geometry": { "type": "Point", "coordinates": [ 139.7798737, 35.651338 ] } },
{ "type": "Feature", "properties": { "lat": 35.6906608, "lon": 139.8165136, "name": "江東区毛利保育園" }, "geometry": { "type": "Point", "coordinates": [ 139.8165136, 35.6906608 ] } },
{ "type": "Feature", "properties": { "lat": 35.6879757, "lon": 139.8112693, "name": "グローバルキッズ住吉園" }, "geometry": { "type": "Point", "coordinates": [ 139.8112693, 35.6879757 ] } },
{ "type": "Feature", "properties": { "lat": 35.68768, "lon": 139.8162465, "name": "めばえ保育園" }, "geometry": { "type": "Point", "coordinates": [ 139.8162465, 35.68768 ] } },
{ "type": "Feature", "properties": { "lat": 35.6869441, "lon": 139.8143698, "name": "キッズスマイル江東猿江" }, "geometry": { "type": "Point", "coordinates": [ 139.8143698, 35.6869441 ] } },
{ "type": "Feature", "properties": { "lat": 35.6854255, "lon": 139.8135743, "name": "江東区猿江保育園" }, "geometry": { "type": "Point", "coordinates": [ 139.8135743, 35.6854255 ] } },
{ "type": "Feature", "properties": { "lat": 35.6865685, "lon": 139.7966498, "name": "ゆめの森保育園" }, "geometry": { "type": "Point", "coordinates": [ 139.796649800000012, 35.6865685 ] } },
{ "type": "Feature", "properties": { "lat": 35.6859518, "lon": 139.8030451, "name": "江東区森下保育園" }, "geometry": { "type": "Point", "coordinates": [ 139.8030451, 35.6859518 ] } },
{ "type": "Feature", "properties": { "lat": 35.6871609, "lon": 139.8033353, "name": "あゆみ保育園" }, "geometry": { "type": "Point", "coordinates": [ 139.803335299999986, 35.687160899999903 ] } },
{ "type": "Feature", "properties": { "lat": 35.6867889, "lon": 139.8016381, "name": "太陽の子　森下三丁目保育園" }, "geometry": { "type": "Point", "coordinates": [ 139.8016381, 35.6867889 ] } },
{ "type": "Feature", "properties": { "lat": 35.6850683, "lon": 139.8088915, "name": "グローバルキッズ森下五丁目園" }, "geometry": { "type": "Point", "coordinates": [ 139.808891499999987, 35.6850683 ] } },
{ "type": "Feature", "properties": { "lat": 35.6865479, "lon": 139.8015373, "name": "神愛保育園" }, "geometry": { "type": "Point", "coordinates": [ 139.8015373, 35.6865479 ] } },
{ "type": "Feature", "properties": { "lat": 35.6859679, "lon": 139.8060741, "name": "グローバルキッズ深川森下園" }, "geometry": { "type": "Point", "coordinates": [ 139.806074099999989, 35.6859679 ] } },
{ "type": "Feature", "properties": { "lat": 35.6900462, "lon": 139.7948065, "name": "ワーカーズコープ　新大橋のびっこ保育園" }, "geometry": { "type": "Point", "coordinates": [ 139.7948065, 35.6900462 ] } },
{ "type": "Feature", "properties": { "lat": 35.6829817, "lon": 139.8108434, "name": "保育園ミルキーウェイ清澄白河園" }, "geometry": { "type": "Point", "coordinates": [ 139.81084340000001, 35.6829817 ] } },
{ "type": "Feature", "properties": { "lat": 35.6839233, "lon": 139.8125872, "name": "マミー保育園扇橋" }, "geometry": { "type": "Point", "coordinates": [ 139.8125872, 35.6839233 ] } },
{ "type": "Feature", "properties": { "lat": 35.683274, "lon": 139.8175441, "name": "アソシエ住吉扇橋保育園" }, "geometry": { "type": "Point", "coordinates": [ 139.8175441, 35.683274 ] } },
{ "type": "Feature", "properties": { "lat": 35.6822986, "lon": 139.8172189, "name": "AIAI NURSERY 千田" }, "geometry": { "type": "Point", "coordinates": [ 139.8172189, 35.6822986 ] } },
{ "type": "Feature", "properties": { "lat": 35.6805966, "lon": 139.816561, "name": "江東区千田保育園" }, "geometry": { "type": "Point", "coordinates": [ 139.816561, 35.6805966 ] } },
{ "type": "Feature", "properties": { "lat": 35.6771061, "lon": 139.811428, "name": "チェリッシュナーサリースクール木場" }, "geometry": { "type": "Point", "coordinates": [ 139.811428, 35.6771061 ] } },
{ "type": "Feature", "properties": { "lat": 35.6784487, "lon": 139.8171444, "name": "キッズスマイル江東千石" }, "geometry": { "type": "Point", "coordinates": [ 139.817144399999989, 35.6784487 ] } },
{ "type": "Feature", "properties": { "lat": 35.6665623, "lon": 139.815052, "name": "マミー保育園東陽町" }, "geometry": { "type": "Point", "coordinates": [ 139.815052, 35.6665623 ] } },
{ "type": "Feature", "properties": { "lat": 35.6690734, "lon": 139.8181941, "name": "さくらさくみらい新東陽" }, "geometry": { "type": "Point", "coordinates": [ 139.8181941, 35.669073399999903 ] } },
{ "type": "Feature", "properties": { "lat": 35.6684142, "lon": 139.8192426, "name": "さくらさくみらい東陽二丁目" }, "geometry": { "type": "Point", "coordinates": [ 139.8192426, 35.6684142 ] } },
{ "type": "Feature", "properties": { "lat": 35.6691595, "lon": 139.8137208, "name": "江東区東陽保育園" }, "geometry": { "type": "Point", "coordinates": [ 139.8137208, 35.6691595 ] } },
{ "type": "Feature", "properties": { "lat": 35.669687, "lon": 139.815082, "name": "スターチス保育園" }, "geometry": { "type": "Point", "coordinates": [ 139.815082, 35.669687 ] } },
{ "type": "Feature", "properties": { "lat": 35.6719319, "lon": 139.814668, "name": "さくらさくみらい東陽町" }, "geometry": { "type": "Point", "coordinates": [ 139.814668, 35.6719319 ] } },
{ "type": "Feature", "properties": { "lat": 35.6698046, "lon": 139.8144666, "name": "テンダーラビング保育園東陽" }, "geometry": { "type": "Point", "coordinates": [ 139.8144666, 35.6698046 ] } },
{ "type": "Feature", "properties": { "lat": 35.668441, "lon": 139.8167022, "name": "ほっぺるランド東陽町" }, "geometry": { "type": "Point", "coordinates": [ 139.8167022, 35.668441 ] } },
{ "type": "Feature", "properties": { "lat": 35.6831731, "lon": 139.7996598, "name": "江東区白河保育園" }, "geometry": { "type": "Point", "coordinates": [ 139.7996598, 35.6831731 ] } },
{ "type": "Feature", "properties": { "lat": 35.6820812, "lon": 139.8000403, "name": "グローバルキッズ白河一丁目園" }, "geometry": { "type": "Point", "coordinates": [ 139.8000403, 35.6820812 ] } },
{ "type": "Feature", "properties": { "lat": 35.683489, "lon": 139.8062308, "name": "小鳩保育園　清澄白河" }, "geometry": { "type": "Point", "coordinates": [ 139.8062308, 35.683489 ] } },
{ "type": "Feature", "properties": { "lat": 35.6815779, "lon": 139.8043983, "name": "グローバルキッズ清澄白河園" }, "geometry": { "type": "Point", "coordinates": [ 139.8043983, 35.6815779 ] } },
{ "type": "Feature", "properties": { "lat": 35.6838479, "lon": 139.8085318, "name": "まなびの森保育園白河" }, "geometry": { "type": "Point", "coordinates": [ 139.8085318, 35.6838479 ] } },
{ "type": "Feature", "properties": { "lat": 35.6835595, "lon": 139.8001435, "name": "江東区白河かもめ保育園" }, "geometry": { "type": "Point", "coordinates": [ 139.8001435, 35.6835595 ] } },
{ "type": "Feature", "properties": { "lat": 35.6818273, "lon": 139.8058537, "name": "子供の村保育園" }, "geometry": { "type": "Point", "coordinates": [ 139.8058537, 35.6818273 ] } },
{ "type": "Feature", "properties": { "lat": 35.6819797, "lon": 139.8009294, "name": "さんいく保育園清澄白河" }, "geometry": { "type": "Point", "coordinates": [ 139.8009294, 35.6819797 ] } },
{ "type": "Feature", "properties": { "lat": 35.6795349, "lon": 139.803441, "name": "さくらさくみらい三好" }, "geometry": { "type": "Point", "coordinates": [ 139.803441, 35.6795349 ] } },
{ "type": "Feature", "properties": { "lat": 35.6800154, "lon": 139.8053736, "name": "アンジェリカ白河保育園" }, "geometry": { "type": "Point", "coordinates": [ 139.8053736, 35.680015399999903 ] } },
{ "type": "Feature", "properties": { "lat": 35.6773645, "lon": 139.8005086, "name": "グローバルキッズ平野園" }, "geometry": { "type": "Point", "coordinates": [ 139.8005086, 35.6773645 ] } },
{ "type": "Feature", "properties": { "lat": 35.68277, "lon": 139.7942527, "name": "おはよう保育園　清澄白河" }, "geometry": { "type": "Point", "coordinates": [ 139.794252699999987, 35.68277 ] } },
{ "type": "Feature", "properties": { "lat": 35.6830417, "lon": 139.7974446, "name": "うぃず清澄白河駅前保育園" }, "geometry": { "type": "Point", "coordinates": [ 139.7974446, 35.6830417 ] } },
{ "type": "Feature", "properties": { "lat": 35.6773593, "lon": 139.7964029, "name": "江東区深川一丁目保育園" }, "geometry": { "type": "Point", "coordinates": [ 139.7964029, 35.6773593 ] } },
{ "type": "Feature", "properties": { "lat": 35.6743691, "lon": 139.7899521, "name": "小鳩保育園　永代" }, "geometry": { "type": "Point", "coordinates": [ 139.7899521, 35.6743691 ] } },
{ "type": "Feature", "properties": { "lat": 35.6735731, "lon": 139.8001202, "name": "もんなかほうゆう保育園" }, "geometry": { "type": "Point", "coordinates": [ 139.8001202, 35.6735731 ] } },
{ "type": "Feature", "properties": { "lat": 35.6731545, "lon": 139.8002401, "name": "ナーサリールームベリーベアー深川冬木" }, "geometry": { "type": "Point", "coordinates": [ 139.8002401, 35.6731545 ] } },
{ "type": "Feature", "properties": { "lat": 35.6749407, "lon": 139.8012706, "name": "まこと保育園" }, "geometry": { "type": "Point", "coordinates": [ 139.8012706, 35.6749407 ] } },
{ "type": "Feature", "properties": { "lat": 35.6686151, "lon": 139.8047561, "name": "スマイルクラブナーサリー木場" }, "geometry": { "type": "Point", "coordinates": [ 139.8047561, 35.6686151 ] } },
{ "type": "Feature", "properties": { "lat": 35.6686255, "lon": 139.804291, "name": "さくらさくみらい木場" }, "geometry": { "type": "Point", "coordinates": [ 139.804291, 35.6686255 ] } },
{ "type": "Feature", "properties": { "lat": 35.6715445, "lon": 139.8046578, "name": "タムスわんぱく保育園木場" }, "geometry": { "type": "Point", "coordinates": [ 139.8046578, 35.6715445 ] } },
{ "type": "Feature", "properties": { "lat": 35.6727634, "lon": 139.809333, "name": "ＭＩＷＡ木場公園保育園" }, "geometry": { "type": "Point", "coordinates": [ 139.809333, 35.6727634 ] } },
{ "type": "Feature", "properties": { "lat": 35.6707335, "lon": 139.8078997, "name": "グレース保育園" }, "geometry": { "type": "Point", "coordinates": [ 139.8078997, 35.6707335 ] } },
{ "type": "Feature", "properties": { "lat": 35.6684089, "lon": 139.802552, "name": "アゼリヤ保育園" }, "geometry": { "type": "Point", "coordinates": [ 139.802552, 35.6684089 ] } },
{ "type": "Feature", "properties": { "lat": 35.6637822, "lon": 139.802198, "name": "聖華しおかぜ保育園" }, "geometry": { "type": "Point", "coordinates": [ 139.802198, 35.6637822 ] } },
{ "type": "Feature", "properties": { "lat": 35.6629705, "lon": 139.8091413, "name": "キッズスマイル江東塩浜" }, "geometry": { "type": "Point", "coordinates": [ 139.8091413, 35.6629705 ] } },
{ "type": "Feature", "properties": { "lat": 35.6608822, "lon": 139.8082875, "name": "ＬＩＦＥ　ＳＣＨＯＯＬ　塩浜　こどものいえ" }, "geometry": { "type": "Point", "coordinates": [ 139.8082875, 35.6608822 ] } },
{ "type": "Feature", "properties": { "lat": 35.6609264, "lon": 139.8086421, "name": "江東区塩崎保育園" }, "geometry": { "type": "Point", "coordinates": [ 139.808642099999986, 35.6609264 ] } },
{ "type": "Feature", "properties": { "lat": 35.6634808, "lon": 139.8007629, "name": "江東区塩浜保育園" }, "geometry": { "type": "Point", "coordinates": [ 139.8007629, 35.663480799999903 ] } },
{ "type": "Feature", "properties": { "lat": 35.6651915, "lon": 139.7950287, "name": "太陽の子越中島保育園" }, "geometry": { "type": "Point", "coordinates": [ 139.795028699999989, 35.6651915 ] } },
{ "type": "Feature", "properties": { "lat": 35.6648892, "lon": 139.7955399, "name": "ポピンズナーサリースクール越中島" }, "geometry": { "type": "Point", "coordinates": [ 139.7955399, 35.6648892 ] } },
{ "type": "Feature", "properties": { "lat": 35.6671342, "lon": 139.8000956, "name": "江東区古石場保育園" }, "geometry": { "type": "Point", "coordinates": [ 139.8000956, 35.6671342 ] } },
{ "type": "Feature", "properties": { "lat": 35.6704782, "lon": 139.8016335, "name": "さくらさくみらい富岡" }, "geometry": { "type": "Point", "coordinates": [ 139.8016335, 35.6704782 ] } },
{ "type": "Feature", "properties": { "lat": 35.6723252, "lon": 139.8019783, "name": "コスモス江東富岡保育園" }, "geometry": { "type": "Point", "coordinates": [ 139.8019783, 35.6723252 ] } },
{ "type": "Feature", "properties": { "lat": 35.6707038, "lon": 139.7972334, "name": "ひろがり保育園・門前仲町" }, "geometry": { "type": "Point", "coordinates": [ 139.79723340000001, 35.6707038 ] } },
{ "type": "Feature", "properties": { "lat": 35.672755, "lon": 139.7968263, "name": "アスクもんなか保育園" }, "geometry": { "type": "Point", "coordinates": [ 139.7968263, 35.672755 ] } },
{ "type": "Feature", "properties": { "lat": 35.6708452, "lon": 139.8014584, "name": "木下の保育園　富岡" }, "geometry": { "type": "Point", "coordinates": [ 139.8014584, 35.6708452 ] } },
{ "type": "Feature", "properties": { "lat": 35.6587893, "lon": 139.8022605, "name": "豊洲枝川さくらんぼ保育園" }, "geometry": { "type": "Point", "coordinates": [ 139.802260499999988, 35.6587893 ] } },
{ "type": "Feature", "properties": { "lat": 35.6583576, "lon": 139.8104037, "name": "愛隣シャローム保育園" }, "geometry": { "type": "Point", "coordinates": [ 139.8104037, 35.6583576 ] } },
{ "type": "Feature", "properties": { "lat": 35.6573144, "lon": 139.8081906, "name": "深川愛隣保育園" }, "geometry": { "type": "Point", "coordinates": [ 139.808190599999989, 35.6573144 ] } },
{ "type": "Feature", "properties": { "lat": 35.657047, "lon": 139.815146, "name": "太陽の子　潮見保育園" }, "geometry": { "type": "Point", "coordinates": [ 139.815146, 35.657047 ] } },
{ "type": "Feature", "properties": { "lat": 35.655969, "lon": 139.815987, "name": "江東区潮見保育園" }, "geometry": { "type": "Point", "coordinates": [ 139.815987, 35.655969 ] } },
{ "type": "Feature", "properties": { "lat": 35.6481828, "lon": 139.8113886, "name": "江東区辰巳第三保育園" }, "geometry": { "type": "Point", "coordinates": [ 139.811388599999987, 35.6481828 ] } },
{ "type": "Feature", "properties": { "lat": 35.6495405, "lon": 139.8079579, "name": "江東区辰巳第二保育園" }, "geometry": { "type": "Point", "coordinates": [ 139.8079579, 35.6495405 ] } },
{ "type": "Feature", "properties": { "lat": 35.6568969, "lon": 139.7958903, "name": "ミアヘルサ保育園ゆらりん豊洲フロント" }, "geometry": { "type": "Point", "coordinates": [ 139.7958903, 35.6568969 ] } },
{ "type": "Feature", "properties": { "lat": 35.6573714, "lon": 139.7995199, "name": "ＴＫチルドレンズファーム豊洲校" }, "geometry": { "type": "Point", "coordinates": [ 139.7995199, 35.6573714 ] } },
{ "type": "Feature", "properties": { "lat": 35.6573714, "lon": 139.7995199, "name": "ＴＫチルドレンズファーム豊洲第二校" }, "geometry": { "type": "Point", "coordinates": [ 139.7995199, 35.6573714 ] } },
{ "type": "Feature", "properties": { "lat": 35.657649, "lon": 139.797675, "name": "アスクバイリンガル保育園豊洲" }, "geometry": { "type": "Point", "coordinates": [ 139.797675, 35.657649 ] } },
{ "type": "Feature", "properties": { "lat": 35.6547687, "lon": 139.797647, "name": "さくらさくみらい豊洲" }, "geometry": { "type": "Point", "coordinates": [ 139.797647, 35.6547687 ] } },
{ "type": "Feature", "properties": { "lat": 35.6519635, "lon": 139.7949355, "name": "グローバルキッズ豊洲園" }, "geometry": { "type": "Point", "coordinates": [ 139.7949355, 35.6519635 ] } },
{ "type": "Feature", "properties": { "lat": 35.6525204, "lon": 139.7971886, "name": "スマイスセレソン豊洲保育園" }, "geometry": { "type": "Point", "coordinates": [ 139.7971886, 35.6525204 ] } },
{ "type": "Feature", "properties": { "lat": 35.6516185, "lon": 139.7970543, "name": "グローバルキッズ豊洲五丁目保育園" }, "geometry": { "type": "Point", "coordinates": [ 139.797054300000013, 35.6516185 ] } },
{ "type": "Feature", "properties": { "lat": 35.6497722, "lon": 139.7983731, "name": "アイグラン保育園豊洲" }, "geometry": { "type": "Point", "coordinates": [ 139.7983731, 35.6497722 ] } },
{ "type": "Feature", "properties": { "lat": 35.6478445, "lon": 139.7926887, "name": "小学館アカデミーしんとよす保育園" }, "geometry": { "type": "Point", "coordinates": [ 139.792688700000014, 35.6478445 ] } },
{ "type": "Feature", "properties": { "lat": 35.6584153, "lon": 139.7958929, "name": "蓮美幼児学園とよすナーサリー" }, "geometry": { "type": "Point", "coordinates": [ 139.795892900000013, 35.6584153 ] } },
{ "type": "Feature", "properties": { "lat": 35.6591263, "lon": 139.7954282, "name": "蓮美幼児学園第２とよすナーサリー" }, "geometry": { "type": "Point", "coordinates": [ 139.7954282, 35.6591263 ] } },
{ "type": "Feature", "properties": { "lat": 35.653762, "lon": 139.8015295, "name": "ミアヘルサ保育園ゆらりん豊四" }, "geometry": { "type": "Point", "coordinates": [ 139.801529499999987, 35.653762 ] } },
{ "type": "Feature", "properties": { "lat": 35.6535176, "lon": 139.8000701, "name": "ひまわりキッズガーデン豊洲" }, "geometry": { "type": "Point", "coordinates": [ 139.8000701, 35.6535176 ] } },
{ "type": "Feature", "properties": { "lat": 35.654473, "lon": 139.797164, "name": "ミアヘルサ保育園ひびき豊洲" }, "geometry": { "type": "Point", "coordinates": [ 139.797164, 35.654473 ] } },
{ "type": "Feature", "properties": { "lat": 35.6544333, "lon": 139.7995162, "name": "江東区豊洲保育園" }, "geometry": { "type": "Point", "coordinates": [ 139.7995162, 35.6544333 ] } },
{ "type": "Feature", "properties": { "lat": 35.6583609, "lon": 139.7922006, "name": "ＭＩＷＡシンフォニア保育園" }, "geometry": { "type": "Point", "coordinates": [ 139.7922006, 35.6583609 ] } },
{ "type": "Feature", "properties": { "lat": 35.6502364, "lon": 139.8028194, "name": "グローバルキッズしののめ園" }, "geometry": { "type": "Point", "coordinates": [ 139.8028194, 35.6502364 ] } },
{ "type": "Feature", "properties": { "lat": 35.644945, "lon": 139.8002229, "name": "江東区東雲保育園" }, "geometry": { "type": "Point", "coordinates": [ 139.8002229, 35.644945 ] } },
{ "type": "Feature", "properties": { "lat": 35.6439767, "lon": 139.8014849, "name": "みんなのみらいをつくる保育園東雲" }, "geometry": { "type": "Point", "coordinates": [ 139.8014849, 35.6439767 ] } },
{ "type": "Feature", "properties": { "lat": 35.6433595, "lon": 139.7991888, "name": "江東区東雲第二保育園" }, "geometry": { "type": "Point", "coordinates": [ 139.7991888, 35.6433595 ] } },
{ "type": "Feature", "properties": { "lat": 35.6448158, "lon": 139.8009102, "name": "ＹＭＣＡオリーブ保育園" }, "geometry": { "type": "Point", "coordinates": [ 139.8009102, 35.6448158 ] } },
{ "type": "Feature", "properties": { "lat": 35.6464768, "lon": 139.8044212, "name": "ＹＭＣＡキャナルコート保育園" }, "geometry": { "type": "Point", "coordinates": [ 139.8044212, 35.646476799999903 ] } },
{ "type": "Feature", "properties": { "lat": 35.6476645, "lon": 139.8042291, "name": "ひまわりキッズガーデン東雲" }, "geometry": { "type": "Point", "coordinates": [ 139.804229099999986, 35.6476645 ] } },
{ "type": "Feature", "properties": { "lat": 35.649169, "lon": 139.804525, "name": "東雲キャナルコートナーサリースクール" }, "geometry": { "type": "Point", "coordinates": [ 139.804525, 35.649169 ] } },
{ "type": "Feature", "properties": { "lat": 35.6396214, "lon": 139.802278, "name": "ナーサリールームベリーベアー東雲" }, "geometry": { "type": "Point", "coordinates": [ 139.802278, 35.6396214 ] } },
{ "type": "Feature", "properties": { "lat": 35.641838, "lon": 139.7945875, "name": "みらいく有明園" }, "geometry": { "type": "Point", "coordinates": [ 139.7945875, 35.641838 ] } },
{ "type": "Feature", "properties": { "lat": 35.6398438, "lon": 139.7910232, "name": "キッズスマイル江東有明" }, "geometry": { "type": "Point", "coordinates": [ 139.791023200000012, 35.6398438 ] } },
{ "type": "Feature", "properties": { "lat": 35.6375806, "lon": 139.7814749, "name": "さんいく保育園有明" }, "geometry": { "type": "Point", "coordinates": [ 139.7814749, 35.6375806 ] } },
{ "type": "Feature", "properties": { "lat": 35.6375806, "lon": 139.7814749, "name": "江東湾岸サテライトスマートナーサリースクール" }, "geometry": { "type": "Point", "coordinates": [ 139.7814749, 35.6375806 ] } },
{ "type": "Feature", "properties": { "lat": 35.6344087, "lon": 139.7830797, "name": "おはよう保育園有明" }, "geometry": { "type": "Point", "coordinates": [ 139.7830797, 35.6344087 ] } },
{ "type": "Feature", "properties": { "lat": 35.6311548, "lon": 139.7904514, "name": "ニチイキッズありあけ保育園" }, "geometry": { "type": "Point", "coordinates": [ 139.7904514, 35.6311548 ] } },
{ "type": "Feature", "properties": { "lat": 35.6374093, "lon": 139.7870005, "name": "ひまわりキッズガーデン有明" }, "geometry": { "type": "Point", "coordinates": [ 139.7870005, 35.6374093 ] } },
{ "type": "Feature", "properties": { "lat": 35.6361622, "lon": 139.7865397, "name": "ひまわりキッズガーデン有明の森" }, "geometry": { "type": "Point", "coordinates": [ 139.7865397, 35.6361622 ] } },
{ "type": "Feature", "properties": { "lat": 35.6329119, "lon": 139.7926887, "name": "江東湾岸サテライトナーサリースクール" }, "geometry": { "type": "Point", "coordinates": [ 139.792688700000014, 35.6329119 ] } },
{ "type": "Feature", "properties": { "lat": 35.6946499, "lon": 139.8240444, "name": "江東区亀戸第三保育園" }, "geometry": { "type": "Point", "coordinates": [ 139.8240444, 35.6946499 ] } },
{ "type": "Feature", "properties": { "lat": 35.6965966, "lon": 139.8209887, "name": "おはよう保育園　亀戸" }, "geometry": { "type": "Point", "coordinates": [ 139.820988699999987, 35.6965966 ] } },
{ "type": "Feature", "properties": { "lat": 35.7014127, "lon": 139.8223405, "name": "マミーズエンジェル亀戸保育園" }, "geometry": { "type": "Point", "coordinates": [ 139.8223405, 35.7014127 ] } },
{ "type": "Feature", "properties": { "lat": 35.7003583, "lon": 139.8230937, "name": "クオリスキッズ亀戸保育園" }, "geometry": { "type": "Point", "coordinates": [ 139.823093699999987, 35.7003583 ] } },
{ "type": "Feature", "properties": { "lat": 35.7037287, "lon": 139.8220042, "name": "にじいろ保育園亀戸" }, "geometry": { "type": "Point", "coordinates": [ 139.8220042, 35.7037287 ] } },
{ "type": "Feature", "properties": { "lat": 35.6978943, "lon": 139.832299, "name": "グローバルキッズ亀戸園" }, "geometry": { "type": "Point", "coordinates": [ 139.832299, 35.6978943 ] } },
{ "type": "Feature", "properties": { "lat": 35.6959468, "lon": 139.8284989, "name": "ポピンズナーサリースクール亀戸" }, "geometry": { "type": "Point", "coordinates": [ 139.8284989, 35.6959468 ] } },
{ "type": "Feature", "properties": { "lat": 35.6963423, "lon": 139.8320402, "name": "ソラストこうとう保育園" }, "geometry": { "type": "Point", "coordinates": [ 139.8320402, 35.6963423 ] } },
{ "type": "Feature", "properties": { "lat": 35.6965195, "lon": 139.8324595, "name": "江東区亀戸保育園" }, "geometry": { "type": "Point", "coordinates": [ 139.8324595, 35.6965195 ] } },
{ "type": "Feature", "properties": { "lat": 35.6973555, "lon": 139.8345332, "name": "まなびの森保育園亀戸" }, "geometry": { "type": "Point", "coordinates": [ 139.83453320000001, 35.6973555 ] } },
{ "type": "Feature", "properties": { "lat": 35.6975438, "lon": 139.839491, "name": "保育園ミルキーウェイ亀戸園" }, "geometry": { "type": "Point", "coordinates": [ 139.839491, 35.6975438 ] } },
{ "type": "Feature", "properties": { "lat": 35.6966532, "lon": 139.8394068, "name": "江東亀戸サテライトグローバルキッズ竪川園" }, "geometry": { "type": "Point", "coordinates": [ 139.8394068, 35.6966532 ] } },
{ "type": "Feature", "properties": { "lat": 35.6968751, "lon": 139.8366522, "name": "江東区亀戸第二保育園" }, "geometry": { "type": "Point", "coordinates": [ 139.8366522, 35.6968751 ] } },
{ "type": "Feature", "properties": { "lat": 35.7003117, "lon": 139.8406681, "name": "亀戸こころ保育園" }, "geometry": { "type": "Point", "coordinates": [ 139.840668099999988, 35.7003117 ] } },
{ "type": "Feature", "properties": { "lat": 35.6984385, "lon": 139.8389471, "name": "亀戸浅間保育園" }, "geometry": { "type": "Point", "coordinates": [ 139.838947100000013, 35.6984385 ] } },
{ "type": "Feature", "properties": { "lat": 35.7009231, "lon": 139.8281567, "name": "アンジェリカ亀戸保育園" }, "geometry": { "type": "Point", "coordinates": [ 139.8281567, 35.7009231 ] } },
{ "type": "Feature", "properties": { "lat": 35.7026195, "lon": 139.8265943, "name": "江東区亀戸第四保育園" }, "geometry": { "type": "Point", "coordinates": [ 139.826594300000011, 35.7026195 ] } },
{ "type": "Feature", "properties": { "lat": 35.700163, "lon": 139.8225373, "name": "陽だまり保育園" }, "geometry": { "type": "Point", "coordinates": [ 139.8225373, 35.700163 ] } },
{ "type": "Feature", "properties": { "lat": 35.6960993, "lon": 139.8325143, "name": "コビープリスクールかめいど" }, "geometry": { "type": "Point", "coordinates": [ 139.832514300000014, 35.6960993 ] } },
{ "type": "Feature", "properties": { "lat": 35.6887108, "lon": 139.8233708, "name": "グローバルキッズ西大島園" }, "geometry": { "type": "Point", "coordinates": [ 139.8233708, 35.6887108 ] } },
{ "type": "Feature", "properties": { "lat": 35.6898168, "lon": 139.8283366, "name": "まなびの森プチ・ナーサリー西大島" }, "geometry": { "type": "Point", "coordinates": [ 139.8283366, 35.6898168 ] } },
{ "type": "Feature", "properties": { "lat": 35.6906187, "lon": 139.8288317, "name": "大島なかよし保育園" }, "geometry": { "type": "Point", "coordinates": [ 139.8288317, 35.6906187 ] } },
{ "type": "Feature", "properties": { "lat": 35.6872024, "lon": 139.8290212, "name": "江東区大島第二保育園" }, "geometry": { "type": "Point", "coordinates": [ 139.8290212, 35.6872024 ] } },
{ "type": "Feature", "properties": { "lat": 35.6864842, "lon": 139.8318345, "name": "江東区大島第五保育園" }, "geometry": { "type": "Point", "coordinates": [ 139.831834500000014, 35.6864842 ] } },
{ "type": "Feature", "properties": { "lat": 35.6867785, "lon": 139.8353406, "name": "太陽の子　大島五丁目保育園" }, "geometry": { "type": "Point", "coordinates": [ 139.8353406, 35.6867785 ] } },
{ "type": "Feature", "properties": { "lat": 35.6877368, "lon": 139.835003, "name": "ＨＯＰＰＡおおじまタウン" }, "geometry": { "type": "Point", "coordinates": [ 139.835003, 35.6877368 ] } },
{ "type": "Feature", "properties": { "lat": 35.6865354, "lon": 139.837092, "name": "江東区大島保育園" }, "geometry": { "type": "Point", "coordinates": [ 139.837092, 35.6865354 ] } },
{ "type": "Feature", "properties": { "lat": 35.68982, "lon": 139.8335, "name": "江東区大島第三保育園" }, "geometry": { "type": "Point", "coordinates": [ 139.8335, 35.68982 ] } },
{ "type": "Feature", "properties": { "lat": 35.6929278, "lon": 139.8372692, "name": "ココロラボインターナショナル大島" }, "geometry": { "type": "Point", "coordinates": [ 139.8372692, 35.6929278 ] } },
{ "type": "Feature", "properties": { "lat": 35.6910884, "lon": 139.8370053, "name": "キッズスマイル江東大島" }, "geometry": { "type": "Point", "coordinates": [ 139.837005299999987, 35.6910884 ] } },
{ "type": "Feature", "properties": { "lat": 35.6919577, "lon": 139.8415635, "name": "かがやき保育園" }, "geometry": { "type": "Point", "coordinates": [ 139.8415635, 35.6919577 ] } },
{ "type": "Feature", "properties": { "lat": 35.687263, "lon": 139.838935, "name": "江東区大島第四保育園" }, "geometry": { "type": "Point", "coordinates": [ 139.838935, 35.687263 ] } },
{ "type": "Feature", "properties": { "lat": 35.6889904, "lon": 139.84211, "name": "アスク東大島保育園" }, "geometry": { "type": "Point", "coordinates": [ 139.84211, 35.6889904 ] } },
{ "type": "Feature", "properties": { "lat": 35.6940393, "lon": 139.8442076, "name": "江東区わかば保育園" }, "geometry": { "type": "Point", "coordinates": [ 139.8442076, 35.6940393 ] } },
{ "type": "Feature", "properties": { "lat": 35.6926792, "lon": 139.827777, "name": "花と鳥保育園" }, "geometry": { "type": "Point", "coordinates": [ 139.827777, 35.6926792 ] } },
{ "type": "Feature", "properties": { "lat": 35.691579, "lon": 139.8253643, "name": "マミー保育園西大島" }, "geometry": { "type": "Point", "coordinates": [ 139.8253643, 35.691579 ] } },
{ "type": "Feature", "properties": { "lat": 35.6816961, "lon": 139.821715, "name": "江東区北砂保育園" }, "geometry": { "type": "Point", "coordinates": [ 139.821715, 35.6816961 ] } },
{ "type": "Feature", "properties": { "lat": 35.6841363, "lon": 139.8236968, "name": "江東区小名木川保育園" }, "geometry": { "type": "Point", "coordinates": [ 139.8236968, 35.6841363 ] } },
{ "type": "Feature", "properties": { "lat": 35.6807431, "lon": 139.8243272, "name": "スクルドエンジェル北砂園" }, "geometry": { "type": "Point", "coordinates": [ 139.8243272, 35.6807431 ] } },
{ "type": "Feature", "properties": { "lat": 35.6852305, "lon": 139.8272861, "name": "つくし保育園" }, "geometry": { "type": "Point", "coordinates": [ 139.8272861, 35.6852305 ] } },
{ "type": "Feature", "properties": { "lat": 35.6802245, "lon": 139.832817, "name": "キッズスマイル江東北砂" }, "geometry": { "type": "Point", "coordinates": [ 139.832817, 35.6802245 ] } },
{ "type": "Feature", "properties": { "lat": 35.6799596, "lon": 139.8324194, "name": "Ｍｉｌｋｙ　Ｗａｙ　Ｉｎｔｅｒｎａｔｉｏｎａｌ　Ｎｕｒｓｅｒｙ　Ｓｃｈｏｏｌ　北砂校" }, "geometry": { "type": "Point", "coordinates": [ 139.8324194, 35.6799596 ] } },
{ "type": "Feature", "properties": { "lat": 35.6820683, "lon": 139.8343133, "name": "にじいろ保育園北砂" }, "geometry": { "type": "Point", "coordinates": [ 139.8343133, 35.6820683 ] } },
{ "type": "Feature", "properties": { "lat": 35.6854802, "lon": 139.8336748, "name": "江東区亀高第二保育園" }, "geometry": { "type": "Point", "coordinates": [ 139.833674800000011, 35.6854802 ] } },
{ "type": "Feature", "properties": { "lat": 35.6822231, "lon": 139.8320547, "name": "江東区小名木川第二保育園" }, "geometry": { "type": "Point", "coordinates": [ 139.832054699999986, 35.6822231 ] } },
{ "type": "Feature", "properties": { "lat": 35.6851741, "lon": 139.8331572, "name": "江東区亀高保育園" }, "geometry": { "type": "Point", "coordinates": [ 139.833157199999988, 35.6851741 ] } },
{ "type": "Feature", "properties": { "lat": 35.6805318, "lon": 139.8383645, "name": "みらいく北砂園" }, "geometry": { "type": "Point", "coordinates": [ 139.838364500000012, 35.6805318 ] } },
{ "type": "Feature", "properties": { "lat": 35.6807028, "lon": 139.8345203, "name": "砂町友愛園" }, "geometry": { "type": "Point", "coordinates": [ 139.8345203, 35.6807028 ] } },
{ "type": "Feature", "properties": { "lat": 35.678534, "lon": 139.8309609, "name": "砂町保育園" }, "geometry": { "type": "Point", "coordinates": [ 139.8309609, 35.678534 ] } },
{ "type": "Feature", "properties": { "lat": 35.6821553, "lon": 139.8408609, "name": "江東区東砂第三保育園" }, "geometry": { "type": "Point", "coordinates": [ 139.8408609, 35.6821553 ] } },
{ "type": "Feature", "properties": { "lat": 35.6849869, "lon": 139.8419292, "name": "江東区東砂保育園" }, "geometry": { "type": "Point", "coordinates": [ 139.84192920000001, 35.6849869 ] } },
{ "type": "Feature", "properties": { "lat": 35.6844357, "lon": 139.8429801, "name": "江東区東砂第二保育園" }, "geometry": { "type": "Point", "coordinates": [ 139.8429801, 35.6844357 ] } },
{ "type": "Feature", "properties": { "lat": 35.6795686, "lon": 139.8443518, "name": "マミー保育園東砂" }, "geometry": { "type": "Point", "coordinates": [ 139.8443518, 35.6795686 ] } },
{ "type": "Feature", "properties": { "lat": 35.6809741, "lon": 139.8444627, "name": "みらいく東砂園" }, "geometry": { "type": "Point", "coordinates": [ 139.8444627, 35.6809741 ] } },
{ "type": "Feature", "properties": { "lat": 35.6719681, "lon": 139.8390092, "name": "メリーポピンズ南砂ルーム" }, "geometry": { "type": "Point", "coordinates": [ 139.8390092, 35.6719681 ] } },
{ "type": "Feature", "properties": { "lat": 35.6740125, "lon": 139.8388931, "name": "江東区東砂第四保育園" }, "geometry": { "type": "Point", "coordinates": [ 139.8388931, 35.6740125 ] } },
{ "type": "Feature", "properties": { "lat": 35.6752819, "lon": 139.8377302, "name": "にじいろ保育園東砂" }, "geometry": { "type": "Point", "coordinates": [ 139.83773020000001, 35.6752819 ] } },
{ "type": "Feature", "properties": { "lat": 35.6676131, "lon": 139.8410335, "name": "キッズスマイル江東東砂" }, "geometry": { "type": "Point", "coordinates": [ 139.8410335, 35.6676131 ] } },
{ "type": "Feature", "properties": { "lat": 35.6698431, "lon": 139.8416155, "name": "ともしび保育園" }, "geometry": { "type": "Point", "coordinates": [ 139.841615499999989, 35.6698431 ] } },
{ "type": "Feature", "properties": { "lat": 35.6666778, "lon": 139.8329189, "name": "江東区新砂保育園" }, "geometry": { "type": "Point", "coordinates": [ 139.83291890000001, 35.6666778 ] } },
{ "type": "Feature", "properties": { "lat": 35.6696137, "lon": 139.8234997, "name": "南砂あら川保育園" }, "geometry": { "type": "Point", "coordinates": [ 139.823499700000013, 35.6696137 ] } },
{ "type": "Feature", "properties": { "lat": 35.6754045, "lon": 139.8216617, "name": "ドリームキッズランド保育園" }, "geometry": { "type": "Point", "coordinates": [ 139.8216617, 35.6754045 ] } },
{ "type": "Feature", "properties": { "lat": 35.6728013, "lon": 139.8226399, "name": "江東区南砂第三保育園" }, "geometry": { "type": "Point", "coordinates": [ 139.822639900000013, 35.6728013 ] } },
{ "type": "Feature", "properties": { "lat": 35.6717826, "lon": 139.8231834, "name": "江東区南砂第四保育園" }, "geometry": { "type": "Point", "coordinates": [ 139.8231834, 35.6717826 ] } },
{ "type": "Feature", "properties": { "lat": 35.6727145, "lon": 139.8257782, "name": "太陽の子　南砂２丁目保育園" }, "geometry": { "type": "Point", "coordinates": [ 139.8257782, 35.6727145 ] } },
{ "type": "Feature", "properties": { "lat": 35.6706241, "lon": 139.8236055, "name": "江東区南砂第五保育園" }, "geometry": { "type": "Point", "coordinates": [ 139.823605500000014, 35.6706241 ] } },
{ "type": "Feature", "properties": { "lat": 35.670226, "lon": 139.832496, "name": "グローバルキッズ南砂園" }, "geometry": { "type": "Point", "coordinates": [ 139.832496, 35.670226 ] } },
{ "type": "Feature", "properties": { "lat": 35.6727123, "lon": 139.8324143, "name": "ルーチェ保育園　南砂" }, "geometry": { "type": "Point", "coordinates": [ 139.832414300000011, 35.6727123 ] } },
{ "type": "Feature", "properties": { "lat": 35.6746343, "lon": 139.8285389, "name": "江東区南砂第一保育園" }, "geometry": { "type": "Point", "coordinates": [ 139.828538900000012, 35.6746343 ] } },
{ "type": "Feature", "properties": { "lat": 35.670636, "lon": 139.8355771, "name": "おはよう保育園　南砂町" }, "geometry": { "type": "Point", "coordinates": [ 139.8355771, 35.670636 ] } },
{ "type": "Feature", "properties": { "lat": 35.6685903, "lon": 139.8352129, "name": "ひまわり保育園" }, "geometry": { "type": "Point", "coordinates": [ 139.835212899999988, 35.6685903 ] } },
{ "type": "Feature", "properties": { "lat": 35.6698277, "lon": 139.8352152, "name": "江東区城東保育園" }, "geometry": { "type": "Point", "coordinates": [ 139.8352152, 35.6698277 ] } },
{ "type": "Feature", "properties": { "lat": 35.6700537, "lon": 139.830473, "name": "南砂町保育園" }, "geometry": { "type": "Point", "coordinates": [ 139.830473, 35.6700537 ] } },
{ "type": "Feature", "properties": { "lat": 35.6689007, "lon": 139.8377932, "name": "八幡保育園" }, "geometry": { "type": "Point", "coordinates": [ 139.8377932, 35.6689007 ] } },
{ "type": "Feature", "properties": { "lat": 35.6702882, "lon": 139.8220063, "name": "江東区南砂第二保育園" }, "geometry": { "type": "Point", "coordinates": [ 139.8220063, 35.6702882 ] } },
{ "type": "Feature", "properties": { "lat": 35.6712106, "lon": 139.8348531, "name": "江東区南砂さくら保育園" }, "geometry": { "type": "Point", "coordinates": [ 139.8348531, 35.671210599999903 ] } },
{ "type": "Feature", "properties": { "lat": 35.6615363, "lon": 139.8073919, "name": "株式会社ごきげんナビ" }, "geometry": { "type": "Point", "coordinates": [ 139.8073919, 35.6615363 ] } },
{ "type": "Feature", "properties": { "lat": 35.6326728, "lon": 139.7921469, "name": "JAPANTORY合同会社" }, "geometry": { "type": "Point", "coordinates": [ 139.7921469, 35.6326728 ] } },
{ "type": "Feature", "properties": { "lat": 35.6374093, "lon": 139.7870005, "name": "パパとママのくろこサービス" }, "geometry": { "type": "Point", "coordinates": [ 139.7870005, 35.6374093 ] } },
{ "type": "Feature", "properties": { "lat": 35.6693872, "lon": 139.8269728, "name": "株式会社  Amani Nest" }, "geometry": { "type": "Point", "coordinates": [ 139.8269728, 35.6693872 ] } },
{ "type": "Feature", "properties": { "lat": 35.6723183, "lon": 139.8199422, "name": "ドリームキッズハウス" }, "geometry": { "type": "Point", "coordinates": [ 139.819942200000014, 35.6723183 ] } },
{ "type": "Feature", "properties": { "lat": 35.6927556, "lon": 139.8135076, "name": "mama's smile錦糸町店" }, "geometry": { "type": "Point", "coordinates": [ 139.8135076, 35.6927556 ] } },
{ "type": "Feature", "properties": { "lat": 35.6502286, "lon": 139.8094392, "name": "ちあきっず" }, "geometry": { "type": "Point", "coordinates": [ 139.809439200000014, 35.6502286 ] } },
{ "type": "Feature", "properties": { "lat": 35.6898269, "lon": 139.8123084, "name": "あそか病院内保育室" }, "geometry": { "type": "Point", "coordinates": [ 139.8123084, 35.6898269 ] } },
{ "type": "Feature", "properties": { "lat": 35.6937792, "lon": 139.8332593, "name": "江東病院保育所すくすくナーサリー" }, "geometry": { "type": "Point", "coordinates": [ 139.8332593, 35.6937792 ] } },
{ "type": "Feature", "properties": { "lat": 35.6889174, "lon": 139.8362724, "name": "JOYPORT大島保育園" }, "geometry": { "type": "Point", "coordinates": [ 139.836272400000013, 35.6889174 ] } },
{ "type": "Feature", "properties": { "lat": 35.6858143, "lon": 139.7981624, "name": "ケイ・インターナショナルプリスクール" }, "geometry": { "type": "Point", "coordinates": [ 139.7981624, 35.6858143 ] } },
{ "type": "Feature", "properties": { "lat": 35.6803602, "lon": 139.7992791, "name": "カメリアキッズ清澄白河園" }, "geometry": { "type": "Point", "coordinates": [ 139.7992791, 35.6803602 ] } },
{ "type": "Feature", "properties": { "lat": 35.6682093, "lon": 139.8253926, "name": "SGH Kids Garden" }, "geometry": { "type": "Point", "coordinates": [ 139.825392599999986, 35.6682093 ] } },
{ "type": "Feature", "properties": { "lat": 35.6967008, "lon": 139.8216911, "name": "わくわくbase亀戸" }, "geometry": { "type": "Point", "coordinates": [ 139.82169110000001, 35.6967008 ] } },
{ "type": "Feature", "properties": { "lat": 35.6948964, "lon": 139.8269831, "name": "ten kids 亀戸南園" }, "geometry": { "type": "Point", "coordinates": [ 139.8269831, 35.6948964 ] } },
{ "type": "Feature", "properties": { "lat": 35.678783, "lon": 139.8175483, "name": "カメリアキッズ千石園" }, "geometry": { "type": "Point", "coordinates": [ 139.8175483, 35.678783 ] } },
{ "type": "Feature", "properties": { "lat": 35.6655561, "lon": 139.7994374, "name": "福山みどり保育園" }, "geometry": { "type": "Point", "coordinates": [ 139.799437399999988, 35.6655561 ] } },
{ "type": "Feature", "properties": { "lat": 35.6734862, "lon": 139.8429696, "name": "もりのなかま保育園　東砂ひよこ園" }, "geometry": { "type": "Point", "coordinates": [ 139.8429696, 35.6734862 ] } },
{ "type": "Feature", "properties": { "lat": 35.7013845, "lon": 139.8238395, "name": "カメリアキッズ亀戸園" }, "geometry": { "type": "Point", "coordinates": [ 139.8238395, 35.7013845 ] } },
{ "type": "Feature", "properties": { "lat": 35.6320785, "lon": 139.7936667, "name": "キッズルームひかり　有明園" }, "geometry": { "type": "Point", "coordinates": [ 139.793666699999989, 35.6320785 ] } },
{ "type": "Feature", "properties": { "lat": 35.7019954, "lon": 139.8229001, "name": "なないろ保育園" }, "geometry": { "type": "Point", "coordinates": [ 139.8229001, 35.7019954 ] } },
{ "type": "Feature", "properties": { "lat": 35.6672862, "lon": 139.8125028, "name": "らいおんハート保育園　東陽町" }, "geometry": { "type": "Point", "coordinates": [ 139.8125028, 35.6672862 ] } },
{ "type": "Feature", "properties": { "lat": 35.6854474, "lon": 139.8031383, "name": "ルンルンルーム" }, "geometry": { "type": "Point", "coordinates": [ 139.8031383, 35.6854474 ] } },
{ "type": "Feature", "properties": { "lat": 35.6582723, "lon": 139.7941341, "name": "ａｉｕｅｏだいいち保育園豊洲" }, "geometry": { "type": "Point", "coordinates": [ 139.7941341, 35.6582723 ] } },
{ "type": "Feature", "properties": { "lat": 35.694315, "lon": 139.8261938, "name": "そらまめ保育園亀戸園" }, "geometry": { "type": "Point", "coordinates": [ 139.8261938, 35.694315 ] } },
{ "type": "Feature", "properties": { "lat": 35.6641524, "lon": 139.8161097, "name": "めといろ保育園　東陽町園" }, "geometry": { "type": "Point", "coordinates": [ 139.8161097, 35.6641524 ] } },
{ "type": "Feature", "properties": { "lat": 35.6664123, "lon": 139.8249801, "name": "バディスポーツ幼児園　江東" }, "geometry": { "type": "Point", "coordinates": [ 139.8249801, 35.6664123 ] } },
{ "type": "Feature", "properties": { "lat": 35.6852133, "lon": 139.8163531, "name": "Smile Club International School" }, "geometry": { "type": "Point", "coordinates": [ 139.816353099999986, 35.6852133 ] } },
{ "type": "Feature", "properties": { "lat": 35.6522891, "lon": 139.8078376, "name": "Kids Academy Noah" }, "geometry": { "type": "Point", "coordinates": [ 139.8078376, 35.6522891 ] } },
{ "type": "Feature", "properties": { "lat": 35.6872024, "lon": 139.8290212, "name": "Raindrops" }, "geometry": { "type": "Point", "coordinates": [ 139.8290212, 35.6872024 ] } },
{ "type": "Feature", "properties": { "lat": 35.6375806, "lon": 139.7814749, "name": "バディスポーツ幼児園　有明園" }, "geometry": { "type": "Point", "coordinates": [ 139.7814749, 35.6375806 ] } },
{ "type": "Feature", "properties": { "lat": 35.6665566, "lon": 139.8160339, "name": "東京YMCA　インターナショナルキッズガーデン" }, "geometry": { "type": "Point", "coordinates": [ 139.8160339, 35.6665566 ] } },
{ "type": "Feature", "properties": { "lat": 35.6422695, "lon": 139.8001618, "name": "しののめモンテッソーリ子どもの家" }, "geometry": { "type": "Point", "coordinates": [ 139.800161800000012, 35.6422695 ] } },
{ "type": "Feature", "properties": { "lat": 35.671191, "lon": 139.8071141, "name": "ラーニングトゥリーインターナショナルスクール木場キャンパス" }, "geometry": { "type": "Point", "coordinates": [ 139.8071141, 35.671191 ] } },
{ "type": "Feature", "properties": { "lat": 35.6766625, "lon": 139.7905697, "name": "東京インターナショナルプリスクール門前仲町校" }, "geometry": { "type": "Point", "coordinates": [ 139.7905697, 35.6766625 ] } },
{ "type": "Feature", "properties": { "lat": 35.6945548, "lon": 139.8237196, "name": "東京ベイインターナショナルスクール（TBIS）" }, "geometry": { "type": "Point", "coordinates": [ 139.8237196, 35.6945548 ] } },
{ "type": "Feature", "properties": { "lat": 35.6755963, "lon": 139.8049952, "name": "UIA International School of Tokyo" }, "geometry": { "type": "Point", "coordinates": [ 139.8049952, 35.6755963 ] } },
{ "type": "Feature", "properties": { "lat": 35.6344087, "lon": 139.7830797, "name": "ウィズダムアカデミーPRIME有明豊洲校" }, "geometry": { "type": "Point", "coordinates": [ 139.7830797, 35.6344087 ] } },
{ "type": "Feature", "properties": { "lat": 35.6833577, "lon": 139.7978645, "name": "アウルインターナショナルスクール　清澄白河校" }, "geometry": { "type": "Point", "coordinates": [ 139.7978645, 35.683357699999902 ] } },
{ "type": "Feature", "properties": { "lat": 35.672628, "lon": 139.8106698, "name": "Bright Up English Immersion Preschool（プレイグループ木場校内）" }, "geometry": { "type": "Point", "coordinates": [ 139.8106698, 35.672628 ] } },
{ "type": "Feature", "properties": { "lat": 35.654768, "lon": 139.7941929, "name": "キッズスクウェア　豊洲ベイサイドクロス" }, "geometry": { "type": "Point", "coordinates": [ 139.794192900000013, 35.654768 ] } },
{ "type": "Feature", "properties": { "lat": 35.6314666, "lon": 139.7896914, "name": "ALEXインターナショナルスクール" }, "geometry": { "type": "Point", "coordinates": [ 139.7896914, 35.6314666 ] } },
{ "type": "Feature", "properties": { "lat": 35.6824025, "lon": 139.8019062, "name": "一時預かり専門託児ルーム「ろばの子」" }, "geometry": { "type": "Point", "coordinates": [ 139.8019062, 35.682402499999903 ] } },
{ "type": "Feature", "properties": { "lat": 35.6722606, "lon": 139.7965124, "name": "ＭａｍａＨｕｇ" }, "geometry": { "type": "Point", "coordinates": [ 139.796512400000012, 35.6722606 ] } },
{ "type": "Feature", "properties": { "lat": 35.6476768, "lon": 139.8005198, "name": "Kids Duo International 東雲" }, "geometry": { "type": "Point", "coordinates": [ 139.800519799999989, 35.6476768 ] } },
{ "type": "Feature", "properties": { "lat": 35.6747645, "lon": 139.8010822, "name": "まこと地域センター　聖救主教会キッドスクール" }, "geometry": { "type": "Point", "coordinates": [ 139.8010822, 35.6747645 ] } },
{ "type": "Feature", "properties": { "lat": 35.6383115, "lon": 139.7916499, "name": "一時預かり専門託児所mamma-room" }, "geometry": { "type": "Point", "coordinates": [ 139.79164990000001, 35.6383115 ] } },
{ "type": "Feature", "properties": { "lat": 35.6528513, "lon": 139.7976328, "name": "アウルインターナショナル豊洲校" }, "geometry": { "type": "Point", "coordinates": [ 139.7976328, 35.6528513 ] } },
{ "type": "Feature", "properties": { "lat": 35.683671, "lon": 139.8033807, "name": "東京インターナショナルプリスクール清澄白河校" }, "geometry": { "type": "Point", "coordinates": [ 139.8033807, 35.683671 ] } },
{ "type": "Feature", "properties": { "lat": 35.6882888, "lon": 139.8313473, "name": "ビッキーズ保育園" }, "geometry": { "type": "Point", "coordinates": [ 139.8313473, 35.6882888 ] } },
{ "type": "Feature", "properties": { "lat": 35.6949777, "lon": 139.8280725, "name": "まなびの森　保育園亀戸プチ・クレイシュ" }, "geometry": { "type": "Point", "coordinates": [ 139.8280725, 35.6949777 ] } },
{ "type": "Feature", "properties": { "lat": 35.697131, "lon": 139.8297509, "name": "アスクバイリンガル保育園亀戸" }, "geometry": { "type": "Point", "coordinates": [ 139.8297509, 35.697131 ] } },
{ "type": "Feature", "properties": { "lat": 35.6669694, "lon": 139.8345057, "name": "まなびの森　保育園南砂プチ・クレイシュ" }, "geometry": { "type": "Point", "coordinates": [ 139.8345057, 35.6669694 ] } },
{ "type": "Feature", "properties": { "lat": 35.6710385, "lon": 139.8346293, "name": "どんぐり保育園南砂" }, "geometry": { "type": "Point", "coordinates": [ 139.834629299999989, 35.6710385 ] } },
{ "type": "Feature", "properties": { "lat": 35.6485619, "lon": 139.8021524, "name": "東雲ルミナス保育園" }, "geometry": { "type": "Point", "coordinates": [ 139.802152400000011, 35.6485619 ] } },
{ "type": "Feature", "properties": { "lat": 35.6985934, "lon": 139.8315602, "name": "ワーカーズコープ亀戸のびっこ保育園" }, "geometry": { "type": "Point", "coordinates": [ 139.831560200000013, 35.6985934 ] } },
{ "type": "Feature", "properties": { "lat": 35.6699216, "lon": 139.8152439, "name": "HybridMom Nursery Preschool-Toyocho " }, "geometry": { "type": "Point", "coordinates": [ 139.815243900000013, 35.6699216 ] } },
{ "type": "Feature", "properties": { "lat": 35.6617098, "lon": 139.7945284, "name": "メリーポピンズ豊洲ルーム" }, "geometry": { "type": "Point", "coordinates": [ 139.7945284, 35.6617098 ] } },
{ "type": "Feature", "properties": { "lat": 35.6804137, "lon": 139.812695, "name": "文化教養学園" }, "geometry": { "type": "Point", "coordinates": [ 139.812695, 35.6804137 ] } },
{ "type": "Feature", "properties": { "lat": 35.6749538, "lon": 139.7937037, "name": "HybridMom Nursery School-Fukuzumi" }, "geometry": { "type": "Point", "coordinates": [ 139.7937037, 35.6749538 ] } },
{ "type": "Feature", "properties": { "lat": 35.6699367, "lon": 139.8191029, "name": "Dream　Kids　Little" }, "geometry": { "type": "Point", "coordinates": [ 139.8191029, 35.6699367 ] } },
{ "type": "Feature", "properties": { "lat": 35.651566, "lon": 139.8001097, "name": "ぽけっとランドパークタワー豊洲" }, "geometry": { "type": "Point", "coordinates": [ 139.8001097, 35.651566 ] } },
{ "type": "Feature", "properties": { "lat": 35.6453542, "lon": 139.8025931, "name": "ナーサリールームベリーベアー東雲Ａｎｎｅｘ" }, "geometry": { "type": "Point", "coordinates": [ 139.8025931, 35.6453542 ] } },
{ "type": "Feature", "properties": { "lat": 35.69588, "lon": 139.8305753, "name": "キッズナーサリー亀戸園" }, "geometry": { "type": "Point", "coordinates": [ 139.8305753, 35.69588 ] } },
{ "type": "Feature", "properties": { "lat": 35.6886472, "lon": 139.8166955, "name": "はなかご保育園" }, "geometry": { "type": "Point", "coordinates": [ 139.8166955, 35.6886472 ] } },
{ "type": "Feature", "properties": { "lat": 35.68982, "lon": 139.8335, "name": "ひよっこ保育室" }, "geometry": { "type": "Point", "coordinates": [ 139.8335, 35.68982 ] } },
{ "type": "Feature", "properties": { "lat": 35.6804137, "lon": 139.812695, "name": "認定こども園(幼・保・地方裁量型)こども園文化教養学園" }, "geometry": { "type": "Point", "coordinates": [ 139.812695, 35.6804137 ] } },
{ "type": "Feature", "properties": { "lat": 35.6630664, "lon": 139.7466895, "name": "グローバルキッズ虎ノ門保育園" }, "geometry": { "type": "Point", "coordinates": [ 139.7466895, 35.6630664 ] } },
{ "type": "Feature", "properties": { "lat": 35.6615662, "lon": 139.7547463, "name": "にじいろ保育園新橋" }, "geometry": { "type": "Point", "coordinates": [ 139.7547463, 35.6615662 ] } },
{ "type": "Feature", "properties": { "lat": 35.6621966, "lon": 139.7541645, "name": "こころ新橋保育園" }, "geometry": { "type": "Point", "coordinates": [ 139.7541645, 35.6621966 ] } },
{ "type": "Feature", "properties": { "lat": 35.6541827, "lon": 139.7506108, "name": "芝公園保育園" }, "geometry": { "type": "Point", "coordinates": [ 139.7506108, 35.6541827 ] } },
{ "type": "Feature", "properties": { "lat": 35.6599893, "lon": 139.7555745, "name": "汐留サーノ保育園" }, "geometry": { "type": "Point", "coordinates": [ 139.7555745, 35.6599893 ] } },
{ "type": "Feature", "properties": { "lat": 35.6598775, "lon": 139.7569928, "name": "小鳩ナーサリースクール浜離宮" }, "geometry": { "type": "Point", "coordinates": [ 139.7569928, 35.6598775 ] } },
{ "type": "Feature", "properties": { "lat": 35.6587585, "lon": 139.7575762, "name": "神明保育園" }, "geometry": { "type": "Point", "coordinates": [ 139.757576199999988, 35.6587585 ] } },
{ "type": "Feature", "properties": { "lat": 35.6515791, "lon": 139.752595, "name": "アスク芝公園保育園" }, "geometry": { "type": "Point", "coordinates": [ 139.752595, 35.6515791 ] } },
{ "type": "Feature", "properties": { "lat": 35.6533517, "lon": 139.7511894, "name": "ニチイキッズ芝公園保育園" }, "geometry": { "type": "Point", "coordinates": [ 139.751189399999987, 35.6533517 ] } },
{ "type": "Feature", "properties": { "lat": 35.6543627, "lon": 139.7616592, "name": "にじいろ保育園竹芝" }, "geometry": { "type": "Point", "coordinates": [ 139.7616592, 35.6543627 ] } },
{ "type": "Feature", "properties": { "lat": 35.6498627, "lon": 139.7563879, "name": "太陽の子シーバンス保育園" }, "geometry": { "type": "Point", "coordinates": [ 139.7563879, 35.6498627 ] } },
{ "type": "Feature", "properties": { "lat": 35.6476237, "lon": 139.7549564, "name": "アンジェリカ田町保育園" }, "geometry": { "type": "Point", "coordinates": [ 139.7549564, 35.6476237 ] } },
{ "type": "Feature", "properties": { "lat": 35.6481294, "lon": 139.7535119, "name": "太陽の子芝浦一丁目保育園" }, "geometry": { "type": "Point", "coordinates": [ 139.7535119, 35.648129399999902 ] } },
{ "type": "Feature", "properties": { "lat": 35.6608667, "lon": 139.7227592, "name": "西麻布保育園" }, "geometry": { "type": "Point", "coordinates": [ 139.722759200000013, 35.6608667 ] } },
{ "type": "Feature", "properties": { "lat": 35.6637603, "lon": 139.7203395, "name": "コスモス西麻布保育園" }, "geometry": { "type": "Point", "coordinates": [ 139.7203395, 35.6637603 ] } },
{ "type": "Feature", "properties": { "lat": 35.6647683, "lon": 139.732433, "name": "ｓａｋｕｒａ保育園六本木" }, "geometry": { "type": "Point", "coordinates": [ 139.732433, 35.6647683 ] } },
{ "type": "Feature", "properties": { "lat": 35.6609953, "lon": 139.7312516, "name": "リトルパルズ保育園六本木" }, "geometry": { "type": "Point", "coordinates": [ 139.7312516, 35.6609953 ] } },
{ "type": "Feature", "properties": { "lat": 35.6634093, "lon": 139.741803, "name": "まちの保育園六本木" }, "geometry": { "type": "Point", "coordinates": [ 139.741803, 35.6634093 ] } },
{ "type": "Feature", "properties": { "lat": 35.6610768, "lon": 139.7355076, "name": "麻布保育園" }, "geometry": { "type": "Point", "coordinates": [ 139.7355076, 35.6610768 ] } },
{ "type": "Feature", "properties": { "lat": 35.6558587, "lon": 139.7435738, "name": "飯倉保育園" }, "geometry": { "type": "Point", "coordinates": [ 139.7435738, 35.6558587 ] } },
{ "type": "Feature", "properties": { "lat": 35.6578945, "lon": 139.7432036, "name": "ふたばクラブ東麻布保育園" }, "geometry": { "type": "Point", "coordinates": [ 139.743203599999987, 35.6578945 ] } },
{ "type": "Feature", "properties": { "lat": 35.6584751, "lon": 139.7427323, "name": "東麻布保育園" }, "geometry": { "type": "Point", "coordinates": [ 139.7427323, 35.6584751 ] } },
{ "type": "Feature", "properties": { "lat": 35.6558823, "lon": 139.7402148, "name": "ＡＩＡＩ　ＮＵＲＳＥＲＹ麻布十番" }, "geometry": { "type": "Point", "coordinates": [ 139.7402148, 35.6558823 ] } },
{ "type": "Feature", "properties": { "lat": 35.6569965, "lon": 139.7358507, "name": "麻布十番ちとせ保育園" }, "geometry": { "type": "Point", "coordinates": [ 139.735850699999986, 35.6569965 ] } },
{ "type": "Feature", "properties": { "lat": 35.6573429, "lon": 139.727762, "name": "アイグラン保育園元麻布" }, "geometry": { "type": "Point", "coordinates": [ 139.727762, 35.6573429 ] } },
{ "type": "Feature", "properties": { "lat": 35.6529682, "lon": 139.7303804, "name": "元麻布保育園" }, "geometry": { "type": "Point", "coordinates": [ 139.7303804, 35.6529682 ] } },
{ "type": "Feature", "properties": { "lat": 35.6511572, "lon": 139.7341222, "name": "まなびの森保育園麻布十番" }, "geometry": { "type": "Point", "coordinates": [ 139.7341222, 35.6511572 ] } },
{ "type": "Feature", "properties": { "lat": 35.6508706, "lon": 139.7358331, "name": "まなびの森保育園麻布" }, "geometry": { "type": "Point", "coordinates": [ 139.7358331, 35.6508706 ] } },
{ "type": "Feature", "properties": { "lat": 35.6469287, "lon": 139.727155, "name": "太陽の子南麻布保育園" }, "geometry": { "type": "Point", "coordinates": [ 139.727155, 35.6469287 ] } },
{ "type": "Feature", "properties": { "lat": 35.6485588, "lon": 139.7232127, "name": "南麻布保育園" }, "geometry": { "type": "Point", "coordinates": [ 139.7232127, 35.6485588 ] } },
{ "type": "Feature", "properties": { "lat": 35.6510107, "lon": 139.7273033, "name": "本村保育園" }, "geometry": { "type": "Point", "coordinates": [ 139.727303299999988, 35.6510107 ] } },
{ "type": "Feature", "properties": { "lat": 35.6476166, "lon": 139.7360636, "name": "アイグラン保育園南麻布" }, "geometry": { "type": "Point", "coordinates": [ 139.7360636, 35.6476166 ] } },
{ "type": "Feature", "properties": { "lat": 35.6710716, "lon": 139.7340183, "name": "赤坂保育園" }, "geometry": { "type": "Point", "coordinates": [ 139.7340183, 35.6710716 ] } },
{ "type": "Feature", "properties": { "lat": 35.676412, "lon": 139.7347065, "name": "赤坂山王保育園" }, "geometry": { "type": "Point", "coordinates": [ 139.734706499999987, 35.676412 ] } },
{ "type": "Feature", "properties": { "lat": 35.6755784, "lon": 139.7339386, "name": "赤坂ちとせ保育園" }, "geometry": { "type": "Point", "coordinates": [ 139.733938599999988, 35.6755784 ] } },
{ "type": "Feature", "properties": { "lat": 35.6754739, "lon": 139.7329955, "name": "赤坂クレア保育園" }, "geometry": { "type": "Point", "coordinates": [ 139.732995499999987, 35.6754739 ] } },
{ "type": "Feature", "properties": { "lat": 35.6701192, "lon": 139.7297705, "name": "太陽の子赤坂保育園" }, "geometry": { "type": "Point", "coordinates": [ 139.7297705, 35.670119199999903 ] } },
{ "type": "Feature", "properties": { "lat": 35.6669279, "lon": 139.7128725, "name": "青山保育園" }, "geometry": { "type": "Point", "coordinates": [ 139.7128725, 35.6669279 ] } },
{ "type": "Feature", "properties": { "lat": 35.6677254, "lon": 139.7133584, "name": "おはよう保育園　ののあおやま" }, "geometry": { "type": "Point", "coordinates": [ 139.7133584, 35.6677254 ] } },
{ "type": "Feature", "properties": { "lat": 35.6710876, "lon": 139.7254598, "name": "南青山保育園" }, "geometry": { "type": "Point", "coordinates": [ 139.72545980000001, 35.6710876 ] } },
{ "type": "Feature", "properties": { "lat": 35.67156, "lon": 139.7229829, "name": "まちの保育園南青山" }, "geometry": { "type": "Point", "coordinates": [ 139.7229829, 35.67156 ] } },
{ "type": "Feature", "properties": { "lat": 35.671746, "lon": 139.725554, "name": "アイグラン保育園青山一丁目" }, "geometry": { "type": "Point", "coordinates": [ 139.725554, 35.671746 ] } },
{ "type": "Feature", "properties": { "lat": 35.6649616, "lon": 139.7182845, "name": "小学館アカデミー南青山保育園" }, "geometry": { "type": "Point", "coordinates": [ 139.71828450000001, 35.6649616 ] } },
{ "type": "Feature", "properties": { "lat": 35.6673141, "lon": 139.7191437, "name": "太陽の子南青山保育園" }, "geometry": { "type": "Point", "coordinates": [ 139.719143699999989, 35.6673141 ] } },
{ "type": "Feature", "properties": { "lat": 35.6482899, "lon": 139.7478457, "name": "芝保育園" }, "geometry": { "type": "Point", "coordinates": [ 139.7478457, 35.6482899 ] } },
{ "type": "Feature", "properties": { "lat": 35.6468688, "lon": 139.748741, "name": "にじいろ保育園三田" }, "geometry": { "type": "Point", "coordinates": [ 139.748741, 35.6468688 ] } },
{ "type": "Feature", "properties": { "lat": 35.6422702, "lon": 139.7559599, "name": "にじいろ保育園海岸三丁目" }, "geometry": { "type": "Point", "coordinates": [ 139.7559599, 35.6422702 ] } },
{ "type": "Feature", "properties": { "lat": 35.6422069, "lon": 139.7465026, "name": "太陽の子芝浦三丁目保育園" }, "geometry": { "type": "Point", "coordinates": [ 139.746502600000014, 35.6422069 ] } },
{ "type": "Feature", "properties": { "lat": 35.6395616, "lon": 139.7490058, "name": "アスク芝浦４丁目保育園" }, "geometry": { "type": "Point", "coordinates": [ 139.7490058, 35.6395616 ] } },
{ "type": "Feature", "properties": { "lat": 35.6389139, "lon": 139.7477979, "name": "ポピンズナーサリースクール芝浦ベイ" }, "geometry": { "type": "Point", "coordinates": [ 139.7477979, 35.6389139 ] } },
{ "type": "Feature", "properties": { "lat": 35.637048, "lon": 139.7471475, "name": "デイジー保育園芝浦" }, "geometry": { "type": "Point", "coordinates": [ 139.747147500000011, 35.637048 ] } },
{ "type": "Feature", "properties": { "lat": 35.6441091, "lon": 139.7545344, "name": "にじのいるか保育園芝浦" }, "geometry": { "type": "Point", "coordinates": [ 139.754534400000011, 35.6441091 ] } },
{ "type": "Feature", "properties": { "lat": 35.6434102, "lon": 139.7530185, "name": "太陽の子芝浦二丁目保育園" }, "geometry": { "type": "Point", "coordinates": [ 139.7530185, 35.6434102 ] } },
{ "type": "Feature", "properties": { "lat": 35.6331967, "lon": 139.7307116, "name": "えほんのもり白金台保育園" }, "geometry": { "type": "Point", "coordinates": [ 139.7307116, 35.6331967 ] } },
{ "type": "Feature", "properties": { "lat": 35.6317853, "lon": 139.729957, "name": "ニチイキッズ白金台保育園" }, "geometry": { "type": "Point", "coordinates": [ 139.729957, 35.6317853 ] } },
{ "type": "Feature", "properties": { "lat": 35.6438894, "lon": 139.7335126, "name": "ミアヘルサ保育園ゆらりん白金" }, "geometry": { "type": "Point", "coordinates": [ 139.733512600000012, 35.6438894 ] } },
{ "type": "Feature", "properties": { "lat": 35.6462307, "lon": 139.7350731, "name": "スターチャイルド白金高輪ナーサリー" }, "geometry": { "type": "Point", "coordinates": [ 139.7350731, 35.6462307 ] } },
{ "type": "Feature", "properties": { "lat": 35.6448862, "lon": 139.7311041, "name": "白金保育園" }, "geometry": { "type": "Point", "coordinates": [ 139.73110410000001, 35.644886199999902 ] } },
{ "type": "Feature", "properties": { "lat": 35.6466208, "lon": 139.7312948, "name": "ミアヘルサ保育園ひびき白金高輪" }, "geometry": { "type": "Point", "coordinates": [ 139.7312948, 35.6466208 ] } },
{ "type": "Feature", "properties": { "lat": 35.6427102, "lon": 139.7271214, "name": "みつばち保育園" }, "geometry": { "type": "Point", "coordinates": [ 139.727121399999987, 35.6427102 ] } },
{ "type": "Feature", "properties": { "lat": 35.6550611, "lon": 139.740135, "name": "太陽の子三田保育園" }, "geometry": { "type": "Point", "coordinates": [ 139.740135, 35.6550611 ] } },
{ "type": "Feature", "properties": { "lat": 35.6544956, "lon": 139.7429682, "name": "アイグラン保育園赤羽橋" }, "geometry": { "type": "Point", "coordinates": [ 139.7429682, 35.6544956 ] } },
{ "type": "Feature", "properties": { "lat": 35.6451737, "lon": 139.7369532, "name": "うれしい保育園白金高輪" }, "geometry": { "type": "Point", "coordinates": [ 139.736953199999988, 35.6451737 ] } },
{ "type": "Feature", "properties": { "lat": 35.6476746, "lon": 139.7389306, "name": "太陽の子三田五丁目保育園" }, "geometry": { "type": "Point", "coordinates": [ 139.7389306, 35.647674599999903 ] } },
{ "type": "Feature", "properties": { "lat": 35.6403302, "lon": 139.7387379, "name": "伊皿子坂保育園" }, "geometry": { "type": "Point", "coordinates": [ 139.7387379, 35.6403302 ] } },
{ "type": "Feature", "properties": { "lat": 35.6300068, "lon": 139.7771218, "name": "台場保育園" }, "geometry": { "type": "Point", "coordinates": [ 139.7771218, 35.6300068 ] } },
{ "type": "Feature", "properties": { "lat": 35.6409278, "lon": 139.7335016, "name": "高輪さつき保育園" }, "geometry": { "type": "Point", "coordinates": [ 139.733501600000011, 35.6409278 ] } },
{ "type": "Feature", "properties": { "lat": 35.6367093, "lon": 139.7320516, "name": "愛星保育園" }, "geometry": { "type": "Point", "coordinates": [ 139.7320516, 35.6367093 ] } },
{ "type": "Feature", "properties": { "lat": 35.6420135, "lon": 139.7369417, "name": "ミアヘルサ保育園ゆらりん高輪" }, "geometry": { "type": "Point", "coordinates": [ 139.736941699999988, 35.6420135 ] } },
{ "type": "Feature", "properties": { "lat": 35.6423054, "lon": 139.7353494, "name": "みなと保育園" }, "geometry": { "type": "Point", "coordinates": [ 139.7353494, 35.6423054 ] } },
{ "type": "Feature", "properties": { "lat": 35.633171, "lon": 139.7356956, "name": "高輪保育園" }, "geometry": { "type": "Point", "coordinates": [ 139.735695600000014, 35.633171 ] } },
{ "type": "Feature", "properties": { "lat": 35.6347981, "lon": 139.7318328, "name": "高輪夢保育園" }, "geometry": { "type": "Point", "coordinates": [ 139.7318328, 35.6347981 ] } },
{ "type": "Feature", "properties": { "lat": 35.6379131, "lon": 139.7391969, "name": "ほっぺるランド高輪二丁目" }, "geometry": { "type": "Point", "coordinates": [ 139.7391969, 35.6379131 ] } },
{ "type": "Feature", "properties": { "lat": 35.636166, "lon": 139.7333254, "name": "さくらさくみらい高輪" }, "geometry": { "type": "Point", "coordinates": [ 139.733325400000012, 35.636166 ] } },
{ "type": "Feature", "properties": { "lat": 35.6345862, "lon": 139.739177, "name": "ポピンズナーサリースクールそら　高輪ゲートウェイ駅前" }, "geometry": { "type": "Point", "coordinates": [ 139.739177, 35.6345862 ] } },
{ "type": "Feature", "properties": { "lat": 35.6299117, "lon": 139.744442, "name": "ミアヘルサ保育園ゆらりんはぁと" }, "geometry": { "type": "Point", "coordinates": [ 139.744442, 35.6299117 ] } },
{ "type": "Feature", "properties": { "lat": 35.6323707, "lon": 139.7471541, "name": "太陽の子　港南三丁目保育園" }, "geometry": { "type": "Point", "coordinates": [ 139.747154099999989, 35.6323707 ] } },
{ "type": "Feature", "properties": { "lat": 35.6300851, "lon": 139.7476398, "name": "こうなん保育園" }, "geometry": { "type": "Point", "coordinates": [ 139.7476398, 35.6300851 ] } },
{ "type": "Feature", "properties": { "lat": 35.6309571, "lon": 139.7496359, "name": "たかはま保育園" }, "geometry": { "type": "Point", "coordinates": [ 139.749635899999987, 35.6309571 ] } },
{ "type": "Feature", "properties": { "lat": 35.6272428, "lon": 139.7504868, "name": "ベネッセ港南保育園" }, "geometry": { "type": "Point", "coordinates": [ 139.7504868, 35.6272428 ] } },
{ "type": "Feature", "properties": { "lat": 35.6286301, "lon": 139.7513278, "name": "ミアヘルサ保育園ゆらりん港南緑水" }, "geometry": { "type": "Point", "coordinates": [ 139.751327800000013, 35.6286301 ] } },
{ "type": "Feature", "properties": { "lat": 35.6264661, "lon": 139.7414323, "name": "ふたばクラブ港南保育園" }, "geometry": { "type": "Point", "coordinates": [ 139.741432300000014, 35.6264661 ] } },
{ "type": "Feature", "properties": { "lat": 35.6436311, "lon": 139.7246094, "name": "神応保育園" }, "geometry": { "type": "Point", "coordinates": [ 139.7246094, 35.6436311 ] } },
{ "type": "Feature", "properties": { "lat": 35.6304161, "lon": 139.7467888, "name": "グローバルキッズ港南保育園" }, "geometry": { "type": "Point", "coordinates": [ 139.7467888, 35.6304161 ] } },
{ "type": "Feature", "properties": { "lat": 35.6313619, "lon": 139.7456408, "name": "ミアヘルサ保育園ゆらりん港南" }, "geometry": { "type": "Point", "coordinates": [ 139.7456408, 35.6313619 ] } },
{ "type": "Feature", "properties": { "lat": 35.6451172, "lon": 139.7501861, "name": "しばうら保育園" }, "geometry": { "type": "Point", "coordinates": [ 139.7501861, 35.6451172 ] } },
{ "type": "Feature", "properties": { "lat": 35.6358355, "lon": 139.7246934, "name": "アイグラン保育園白金台" }, "geometry": { "type": "Point", "coordinates": [ 139.7246934, 35.6358355 ] } },
{ "type": "Feature", "properties": { "lat": 35.646313, "lon": 139.7446657, "name": "まなびの森　保育園三田プチ･クレイシュ" }, "geometry": { "type": "Point", "coordinates": [ 139.744665700000013, 35.646313 ] } },
{ "type": "Feature", "properties": { "lat": 35.6297279, "lon": 139.7800683, "name": "アスクお台場保育園" }, "geometry": { "type": "Point", "coordinates": [ 139.780068300000011, 35.6297279 ] } },
{ "type": "Feature", "properties": { "lat": 35.6365695, "lon": 139.7243101, "name": "コンビプラザ白金台保育園" }, "geometry": { "type": "Point", "coordinates": [ 139.7243101, 35.6365695 ] } },
{ "type": "Feature", "properties": { "lat": 35.6474197, "lon": 139.7501549, "name": "まなびの森　プチ・ナーサリー田町" }, "geometry": { "type": "Point", "coordinates": [ 139.750154900000013, 35.6474197 ] } },
{ "type": "Feature", "properties": { "lat": 35.6413802, "lon": 139.7379223, "name": "ポピンズナーサリースクール高輪" }, "geometry": { "type": "Point", "coordinates": [ 139.7379223, 35.6413802 ] } },
{ "type": "Feature", "properties": { "lat": 35.6410037, "lon": 139.7461427, "name": "ポピンズナーサリースクール芝浦" }, "geometry": { "type": "Point", "coordinates": [ 139.7461427, 35.6410037 ] } },
{ "type": "Feature", "properties": { "lat": 35.6375165, "lon": 139.7243684, "name": "ポピンズナーサリースクール白金台" }, "geometry": { "type": "Point", "coordinates": [ 139.7243684, 35.6375165 ] } },
{ "type": "Feature", "properties": { "lat": 35.6526744, "lon": 139.7220055, "name": "ポピンズナーサリースクール広尾" }, "geometry": { "type": "Point", "coordinates": [ 139.7220055, 35.6526744 ] } },
{ "type": "Feature", "properties": { "lat": 35.65346, "lon": 139.7271181, "name": "ナーサリールーム" }, "geometry": { "type": "Point", "coordinates": [ 139.727118100000013, 35.65346 ] } },
{ "type": "Feature", "properties": { "lat": 35.6700999, "lon": 139.7425464, "name": "ポピンズナーサリースクール赤坂" }, "geometry": { "type": "Point", "coordinates": [ 139.7425464, 35.6700999 ] } },
{ "type": "Feature", "properties": { "lat": 35.630966, "lon": 139.7480452, "name": "ニチイキッズさわやか港南保育園" }, "geometry": { "type": "Point", "coordinates": [ 139.7480452, 35.630966 ] } },
{ "type": "Feature", "properties": { "lat": 35.6552086, "lon": 139.7446642, "name": "ミアヘルサ保育園ゆらりん東麻布" }, "geometry": { "type": "Point", "coordinates": [ 139.744664199999988, 35.6552086 ] } },
{ "type": "Feature", "properties": { "lat": 35.6410173, "lon": 139.7527905, "name": "アンジェリカ保育園芝浦園" }, "geometry": { "type": "Point", "coordinates": [ 139.7527905, 35.6410173 ] } },
{ "type": "Feature", "properties": { "lat": 35.6289798, "lon": 139.7436662, "name": "アンジェリカ保育園品川園" }, "geometry": { "type": "Point", "coordinates": [ 139.7436662, 35.6289798 ] } },
{ "type": "Feature", "properties": { "lat": 35.6621464, "lon": 139.7260439, "name": "ホームデイケア六本木" }, "geometry": { "type": "Point", "coordinates": [ 139.7260439, 35.6621464 ] } },
{ "type": "Feature", "properties": { "lat": 35.6404403, "lon": 139.7525551, "name": "芝浦アイランドこども園" }, "geometry": { "type": "Point", "coordinates": [ 139.7525551, 35.6404403 ] } },
{ "type": "Feature", "properties": { "lat": 35.6709958, "lon": 139.7096878, "name": "渋谷保育園" }, "geometry": { "type": "Point", "coordinates": [ 139.709687800000012, 35.6709958 ] } },
{ "type": "Feature", "properties": { "lat": 35.6536448, "lon": 139.7091655, "name": "氷川保育園" }, "geometry": { "type": "Point", "coordinates": [ 139.709165500000012, 35.6536448 ] } },
{ "type": "Feature", "properties": { "lat": 35.6492825, "lon": 139.7223347, "name": "広尾保育園" }, "geometry": { "type": "Point", "coordinates": [ 139.7223347, 35.6492825 ] } },
{ "type": "Feature", "properties": { "lat": 35.6475863, "lon": 139.7164067, "name": "新橋保育園" }, "geometry": { "type": "Point", "coordinates": [ 139.7164067, 35.6475863 ] } },
{ "type": "Feature", "properties": { "lat": 35.6499543, "lon": 139.7072255, "name": "恵比寿保育園" }, "geometry": { "type": "Point", "coordinates": [ 139.7072255, 35.6499543 ] } },
{ "type": "Feature", "properties": { "lat": 35.6540512, "lon": 139.7044708, "name": "ほっぺるランド渋谷" }, "geometry": { "type": "Point", "coordinates": [ 139.7044708, 35.6540512 ] } },
{ "type": "Feature", "properties": { "lat": 35.6507018, "lon": 139.7050472, "name": "代官山保育園" }, "geometry": { "type": "Point", "coordinates": [ 139.7050472, 35.6507018 ] } },
{ "type": "Feature", "properties": { "lat": 35.6620369, "lon": 139.6960453, "name": "まなびの森　渋谷もりのこ保育園神南" }, "geometry": { "type": "Point", "coordinates": [ 139.6960453, 35.6620369 ] } },
{ "type": "Feature", "properties": { "lat": 35.6589939, "lon": 139.6930743, "name": "大向保育園" }, "geometry": { "type": "Point", "coordinates": [ 139.6930743, 35.6589939 ] } },
{ "type": "Feature", "properties": { "lat": 35.6771038, "lon": 139.7088388, "name": "美希保育園北参道" }, "geometry": { "type": "Point", "coordinates": [ 139.7088388, 35.6771038 ] } },
{ "type": "Feature", "properties": { "lat": 35.6775455, "lon": 139.7070052, "name": "千駄ケ谷保育園" }, "geometry": { "type": "Point", "coordinates": [ 139.7070052, 35.6775455 ] } },
{ "type": "Feature", "properties": { "lat": 35.6819802, "lon": 139.6959844, "name": "代々木保育園" }, "geometry": { "type": "Point", "coordinates": [ 139.695984399999986, 35.6819802 ] } },
{ "type": "Feature", "properties": { "lat": 35.6747032, "lon": 139.6886949, "name": "聖ヨゼフ保育園" }, "geometry": { "type": "Point", "coordinates": [ 139.6886949, 35.6747032 ] } },
{ "type": "Feature", "properties": { "lat": 35.6842854, "lon": 139.6979661, "name": "キッズハーモニー・よよぎの杜" }, "geometry": { "type": "Point", "coordinates": [ 139.6979661, 35.6842854 ] } },
{ "type": "Feature", "properties": { "lat": 35.6774814, "lon": 139.6846979, "name": "初台保育園" }, "geometry": { "type": "Point", "coordinates": [ 139.6846979, 35.6774814 ] } },
{ "type": "Feature", "properties": { "lat": 35.6733083, "lon": 139.6866926, "name": "元代々木保育園" }, "geometry": { "type": "Point", "coordinates": [ 139.686692599999986, 35.6733083 ] } },
{ "type": "Feature", "properties": { "lat": 35.6649396, "lon": 139.6852212, "name": "富ヶ谷保育園" }, "geometry": { "type": "Point", "coordinates": [ 139.6852212, 35.6649396 ] } },
{ "type": "Feature", "properties": { "lat": 35.674567, "lon": 139.6765142, "name": "さくらさくみらい西原" }, "geometry": { "type": "Point", "coordinates": [ 139.676514200000014, 35.674567 ] } },
{ "type": "Feature", "properties": { "lat": 35.6762516, "lon": 139.6784794, "name": "西原保育園ゆめ" }, "geometry": { "type": "Point", "coordinates": [ 139.678479399999986, 35.6762516 ] } },
{ "type": "Feature", "properties": { "lat": 35.6812342, "lon": 139.6843177, "name": "本町第三保育園" }, "geometry": { "type": "Point", "coordinates": [ 139.6843177, 35.6812342 ] } },
{ "type": "Feature", "properties": { "lat": 35.6832121, "lon": 139.676092, "name": "幡ヶ谷保育園" }, "geometry": { "type": "Point", "coordinates": [ 139.676092, 35.6832121 ] } },
{ "type": "Feature", "properties": { "lat": 35.6778834, "lon": 139.6716526, "name": "幡ヶ谷第三保育園" }, "geometry": { "type": "Point", "coordinates": [ 139.671652599999987, 35.6778834 ] } },
{ "type": "Feature", "properties": { "lat": 35.6797872, "lon": 139.6759563, "name": "幡ヶ谷第二保育園" }, "geometry": { "type": "Point", "coordinates": [ 139.6759563, 35.6797872 ] } },
{ "type": "Feature", "properties": { "lat": 35.6722212, "lon": 139.6672519, "name": "笹塚第二保育園" }, "geometry": { "type": "Point", "coordinates": [ 139.6672519, 35.6722212 ] } },
{ "type": "Feature", "properties": { "lat": 35.6744695, "lon": 139.6638109, "name": "保育園うさぎとかめ" }, "geometry": { "type": "Point", "coordinates": [ 139.663810899999987, 35.6744695 ] } },
{ "type": "Feature", "properties": { "lat": 35.6771672, "lon": 139.6659253, "name": "笹塚保育園" }, "geometry": { "type": "Point", "coordinates": [ 139.6659253, 35.6771672 ] } },
{ "type": "Feature", "properties": { "lat": 35.6675629, "lon": 139.702435, "name": "未来のカプセル原宿保育園" }, "geometry": { "type": "Point", "coordinates": [ 139.702435, 35.6675629 ] } },
{ "type": "Feature", "properties": { "lat": 35.6617952, "lon": 139.7045812, "name": "ベネッセ美竹の丘保育園" }, "geometry": { "type": "Point", "coordinates": [ 139.7045812, 35.6617952 ] } },
{ "type": "Feature", "properties": { "lat": 35.6558055, "lon": 139.7131059, "name": "渋谷東ちとせ保育園" }, "geometry": { "type": "Point", "coordinates": [ 139.713105899999988, 35.6558055 ] } },
{ "type": "Feature", "properties": { "lat": 35.6488225, "lon": 139.7133212, "name": "遍照広尾保育園" }, "geometry": { "type": "Point", "coordinates": [ 139.7133212, 35.6488225 ] } },
{ "type": "Feature", "properties": { "lat": 35.6528858, "lon": 139.7191682, "name": "広尾上宮保育園" }, "geometry": { "type": "Point", "coordinates": [ 139.719168200000013, 35.6528858 ] } },
{ "type": "Feature", "properties": { "lat": 35.6510892, "lon": 139.7059766, "name": "ＣｈａＣｈａ　Ｃｈｉｌｄｒｅｎ　Ｄａｉｋａｎｙａｍａ" }, "geometry": { "type": "Point", "coordinates": [ 139.705976600000014, 35.6510892 ] } },
{ "type": "Feature", "properties": { "lat": 35.6450215, "lon": 139.707143, "name": "ポピンズナーサリースクール恵比寿南" }, "geometry": { "type": "Point", "coordinates": [ 139.707143, 35.6450215 ] } },
{ "type": "Feature", "properties": { "lat": 35.6558594, "lon": 139.7001207, "name": "さくら上宮保育園" }, "geometry": { "type": "Point", "coordinates": [ 139.700120700000014, 35.6558594 ] } },
{ "type": "Feature", "properties": { "lat": 35.6809144, "lon": 139.70342, "name": "鳩の森保育園" }, "geometry": { "type": "Point", "coordinates": [ 139.70342, 35.6809144 ] } },
{ "type": "Feature", "properties": { "lat": 35.6803629, "lon": 139.7053128, "name": "アソシエ神宮北参道保育園" }, "geometry": { "type": "Point", "coordinates": [ 139.7053128, 35.6803629 ] } },
{ "type": "Feature", "properties": { "lat": 35.6865275, "lon": 139.7028382, "name": "千駄ヶ谷りとるぱんぷきんず" }, "geometry": { "type": "Point", "coordinates": [ 139.7028382, 35.6865275 ] } },
{ "type": "Feature", "properties": { "lat": 35.6885953, "lon": 139.7009834, "name": "キッズハーモニー・ＮＥＷｏＭａｎ" }, "geometry": { "type": "Point", "coordinates": [ 139.700983400000013, 35.6885953 ] } },
{ "type": "Feature", "properties": { "lat": 35.6827257, "lon": 139.6914166, "name": "太陽の子代々木西参道保育園" }, "geometry": { "type": "Point", "coordinates": [ 139.6914166, 35.6827257 ] } },
{ "type": "Feature", "properties": { "lat": 35.6808315, "lon": 139.6892293, "name": "みんなのみらいをつくる保育園初台" }, "geometry": { "type": "Point", "coordinates": [ 139.6892293, 35.6808315 ] } },
{ "type": "Feature", "properties": { "lat": 35.6784651, "lon": 139.6915057, "name": "参宮橋ちとせ保育園" }, "geometry": { "type": "Point", "coordinates": [ 139.6915057, 35.6784651 ] } },
{ "type": "Feature", "properties": { "lat": 35.6788636, "lon": 139.6898019, "name": "はるの小川ちとせ保育園" }, "geometry": { "type": "Point", "coordinates": [ 139.6898019, 35.6788636 ] } },
{ "type": "Feature", "properties": { "lat": 35.6698426, "lon": 139.6886107, "name": "グローバルキッズ代々木八幡園" }, "geometry": { "type": "Point", "coordinates": [ 139.6886107, 35.6698426 ] } },
{ "type": "Feature", "properties": { "lat": 35.6764946, "lon": 139.6833875, "name": "ゆめの樹保育園はつだい" }, "geometry": { "type": "Point", "coordinates": [ 139.6833875, 35.6764946 ] } },
{ "type": "Feature", "properties": { "lat": 35.6778134, "lon": 139.6864808, "name": "さくらさくみらい　初台" }, "geometry": { "type": "Point", "coordinates": [ 139.6864808, 35.6778134 ] } },
{ "type": "Feature", "properties": { "lat": 35.6660558, "lon": 139.6883679, "name": "富ヶ谷ちとせ保育園" }, "geometry": { "type": "Point", "coordinates": [ 139.6883679, 35.6660558 ] } },
{ "type": "Feature", "properties": { "lat": 35.6664282, "lon": 139.6815518, "name": "ポピンズナーサリースクール代々木上原" }, "geometry": { "type": "Point", "coordinates": [ 139.6815518, 35.6664282 ] } },
{ "type": "Feature", "properties": { "lat": 35.6662038, "lon": 139.6762793, "name": "さくらさくみらい上原" }, "geometry": { "type": "Point", "coordinates": [ 139.6762793, 35.6662038 ] } },
{ "type": "Feature", "properties": { "lat": 35.6746774, "lon": 139.682498, "name": "西原ほほえみ保育園" }, "geometry": { "type": "Point", "coordinates": [ 139.682498, 35.6746774 ] } },
{ "type": "Feature", "properties": { "lat": 35.6738572, "lon": 139.6847364, "name": "聖ヨゼフ保育園西原" }, "geometry": { "type": "Point", "coordinates": [ 139.6847364, 35.6738572 ] } },
{ "type": "Feature", "properties": { "lat": 35.6700398, "lon": 139.6796994, "name": "グローバルキッズ代々木上原園" }, "geometry": { "type": "Point", "coordinates": [ 139.6796994, 35.6700398 ] } },
{ "type": "Feature", "properties": { "lat": 35.6790678, "lon": 139.6797318, "name": "グローバルキッズ幡ヶ谷園" }, "geometry": { "type": "Point", "coordinates": [ 139.679731800000013, 35.6790678 ] } },
{ "type": "Feature", "properties": { "lat": 35.683269, "lon": 139.6830688, "name": "ＡＩＡＩ　ＮＵＲＳＥＲＹ　初台本町" }, "geometry": { "type": "Point", "coordinates": [ 139.6830688, 35.683269 ] } },
{ "type": "Feature", "properties": { "lat": 35.6804256, "lon": 139.6778626, "name": "ベネッセ幡ヶ谷保育園" }, "geometry": { "type": "Point", "coordinates": [ 139.6778626, 35.6804256 ] } },
{ "type": "Feature", "properties": { "lat": 35.677889, "lon": 139.6741038, "name": "まなびの森保育園幡ヶ谷" }, "geometry": { "type": "Point", "coordinates": [ 139.674103800000012, 35.677889 ] } },
{ "type": "Feature", "properties": { "lat": 35.6725035, "lon": 139.6670104, "name": "さくらさくみらい　笹塚" }, "geometry": { "type": "Point", "coordinates": [ 139.6670104, 35.6725035 ] } },
{ "type": "Feature", "properties": { "lat": 35.6751322, "lon": 139.6645999, "name": "笹幡保育園" }, "geometry": { "type": "Point", "coordinates": [ 139.664599900000013, 35.6751322 ] } },
{ "type": "Feature", "properties": { "lat": 35.6756374, "lon": 139.7055372, "name": "株式会社ジャパンベビーシッターサービス" }, "geometry": { "type": "Point", "coordinates": [ 139.7055372, 35.6756374 ] } },
{ "type": "Feature", "properties": { "lat": 35.6570429, "lon": 139.6976863, "name": "株式会社タカミサプライ" }, "geometry": { "type": "Point", "coordinates": [ 139.697686299999987, 35.6570429 ] } },
{ "type": "Feature", "properties": { "lat": 35.6557834, "lon": 139.697007, "name": "ル・アンジェ株式会社" }, "geometry": { "type": "Point", "coordinates": [ 139.697007, 35.6557834 ] } },
{ "type": "Feature", "properties": { "lat": 35.6614323, "lon": 139.6883855, "name": "有限会社ライフリトル" }, "geometry": { "type": "Point", "coordinates": [ 139.68838550000001, 35.6614323 ] } },
{ "type": "Feature", "properties": { "lat": 35.6503747, "lon": 139.7218086, "name": "株式会社ポピンズファミリーケア" }, "geometry": { "type": "Point", "coordinates": [ 139.7218086, 35.6503747 ] } },
{ "type": "Feature", "properties": { "lat": 35.6638252, "lon": 139.7083099, "name": "株式会社ファーストウォーク" }, "geometry": { "type": "Point", "coordinates": [ 139.708309899999989, 35.6638252 ] } },
{ "type": "Feature", "properties": { "lat": 35.6680546, "lon": 139.6862419, "name": "ベビー&キッズシッターのmormor" }, "geometry": { "type": "Point", "coordinates": [ 139.6862419, 35.6680546 ] } },
{ "type": "Feature", "properties": { "lat": 35.6575209, "lon": 139.7077912, "name": "ユメタマベビーシッターサービス" }, "geometry": { "type": "Point", "coordinates": [ 139.7077912, 35.6575209 ] } },
{ "type": "Feature", "properties": { "lat": 35.6635687, "lon": 139.7004717, "name": "株式会社キンダーネットワーク" }, "geometry": { "type": "Point", "coordinates": [ 139.7004717, 35.6635687 ] } },
{ "type": "Feature", "properties": { "lat": 35.6686439, "lon": 139.7110228, "name": "Aisha" }, "geometry": { "type": "Point", "coordinates": [ 139.7110228, 35.6686439 ] } },
{ "type": "Feature", "properties": { "lat": 35.6503747, "lon": 139.7218086, "name": "ポピンズシッター" }, "geometry": { "type": "Point", "coordinates": [ 139.7218086, 35.6503747 ] } },
{ "type": "Feature", "properties": { "lat": 35.6453457, "lon": 139.7142772, "name": "株式会社ここるく" }, "geometry": { "type": "Point", "coordinates": [ 139.7142772, 35.6453457 ] } },
{ "type": "Feature", "properties": { "lat": 35.6799816, "lon": 139.6835201, "name": "Papillon" }, "geometry": { "type": "Point", "coordinates": [ 139.68352010000001, 35.6799816 ] } },
{ "type": "Feature", "properties": { "lat": 35.6673637, "lon": 139.7048878, "name": "メディキッズ" }, "geometry": { "type": "Point", "coordinates": [ 139.7048878, 35.6673637 ] } },
{ "type": "Feature", "properties": { "lat": 35.6638252, "lon": 139.7083099, "name": "特定非営利活動法人  日本ホームチャイルドケア協会" }, "geometry": { "type": "Point", "coordinates": [ 139.708309899999989, 35.6638252 ] } },
{ "type": "Feature", "properties": { "lat": 35.656919, "lon": 139.695445, "name": "株式会社WIS" }, "geometry": { "type": "Point", "coordinates": [ 139.695445, 35.656919 ] } },
{ "type": "Feature", "properties": { "lat": 35.6445815, "lon": 139.7223741, "name": "HQシッター" }, "geometry": { "type": "Point", "coordinates": [ 139.7223741, 35.6445815 ] } },
{ "type": "Feature", "properties": { "lat": 35.6661512, "lon": 139.6933238, "name": "Ｓｅｌｅｃｔ  Ｓｃｈｏｏｌ松濤" }, "geometry": { "type": "Point", "coordinates": [ 139.6933238, 35.6661512 ] } },
{ "type": "Feature", "properties": { "lat": 35.6568718, "lon": 139.6985617, "name": "in-Cty" }, "geometry": { "type": "Point", "coordinates": [ 139.6985617, 35.6568718 ] } },
{ "type": "Feature", "properties": { "lat": 35.6575953, "lon": 139.6993465, "name": "株式会社Timeless Nanny" }, "geometry": { "type": "Point", "coordinates": [ 139.6993465, 35.6575953 ] } },
{ "type": "Feature", "properties": { "lat": 35.656919, "lon": 139.695445, "name": "合同会社  Child Care Collaboration" }, "geometry": { "type": "Point", "coordinates": [ 139.695445, 35.656919 ] } },
{ "type": "Feature", "properties": { "lat": 35.656919, "lon": 139.695445, "name": "株式会社Fluffy Ket" }, "geometry": { "type": "Point", "coordinates": [ 139.695445, 35.656919 ] } },
{ "type": "Feature", "properties": { "lat": 35.6551149, "lon": 139.6929689, "name": "えびす助産ケア" }, "geometry": { "type": "Point", "coordinates": [ 139.692968900000011, 35.6551149 ] } },
{ "type": "Feature", "properties": { "lat": 35.6673637, "lon": 139.7048878, "name": "株式会社ままよろ  育よろ" }, "geometry": { "type": "Point", "coordinates": [ 139.7048878, 35.6673637 ] } },
{ "type": "Feature", "properties": { "lat": 35.6624212, "lon": 139.7011092, "name": "yasmin" }, "geometry": { "type": "Point", "coordinates": [ 139.7011092, 35.6624212 ] } },
{ "type": "Feature", "properties": { "lat": 35.6674536, "lon": 139.674097, "name": "合同会社AYAME MICHIRU" }, "geometry": { "type": "Point", "coordinates": [ 139.674097, 35.6674536 ] } },
{ "type": "Feature", "properties": { "lat": 35.6540132, "lon": 139.7153866, "name": "nounou" }, "geometry": { "type": "Point", "coordinates": [ 139.715386599999988, 35.6540132 ] } },
{ "type": "Feature", "properties": { "lat": 35.6614323, "lon": 139.6883855, "name": "ライフリトルグループ　チャイルドケアセンター" }, "geometry": { "type": "Point", "coordinates": [ 139.68838550000001, 35.6614323 ] } },
{ "type": "Feature", "properties": { "lat": 35.648868, "lon": 139.7071859, "name": "聖マリアン保育園" }, "geometry": { "type": "Point", "coordinates": [ 139.707185900000013, 35.648868 ] } },
{ "type": "Feature", "properties": { "lat": 35.6564093, "lon": 139.6993541, "name": "セルリアンタワーポピンズキッズルーム" }, "geometry": { "type": "Point", "coordinates": [ 139.6993541, 35.6564093 ] } },
{ "type": "Feature", "properties": { "lat": 35.6425007, "lon": 139.7149999, "name": "ポピンズアクティブラーニングインターナショナルスクール" }, "geometry": { "type": "Point", "coordinates": [ 139.7149999, 35.6425007 ] } },
{ "type": "Feature", "properties": { "lat": 35.6449785, "lon": 139.7100038, "name": "ウィズダムアカデミー恵比寿校" }, "geometry": { "type": "Point", "coordinates": [ 139.71000380000001, 35.6449785 ] } },
{ "type": "Feature", "properties": { "lat": 35.6502095, "lon": 139.7056706, "name": "渋谷区立代官山えびすにし保育室" }, "geometry": { "type": "Point", "coordinates": [ 139.7056706, 35.6502095 ] } },
{ "type": "Feature", "properties": { "lat": 35.6475647, "lon": 139.7177719, "name": "TOEアカデミー" }, "geometry": { "type": "Point", "coordinates": [ 139.7177719, 35.6475647 ] } },
{ "type": "Feature", "properties": { "lat": 35.671604, "lon": 139.6755359, "name": "渋谷区立おおやま保育室" }, "geometry": { "type": "Point", "coordinates": [ 139.6755359, 35.671604 ] } },
{ "type": "Feature", "properties": { "lat": 35.6581845, "lon": 139.6964963, "name": "TKヘアメイク＆ネイルスクール" }, "geometry": { "type": "Point", "coordinates": [ 139.6964963, 35.6581845 ] } },
{ "type": "Feature", "properties": { "lat": 35.6746921, "lon": 139.6650193, "name": "ベビールーム　フレア" }, "geometry": { "type": "Point", "coordinates": [ 139.665019300000012, 35.6746921 ] } },
{ "type": "Feature", "properties": { "lat": 35.6497359, "lon": 139.6992374, "name": "キッズガーデンプレップスクール代官山" }, "geometry": { "type": "Point", "coordinates": [ 139.699237399999987, 35.6497359 ] } },
{ "type": "Feature", "properties": { "lat": 35.6700822, "lon": 139.6848218, "name": "セージ保育園　代々木上原" }, "geometry": { "type": "Point", "coordinates": [ 139.6848218, 35.6700822 ] } },
{ "type": "Feature", "properties": { "lat": 35.6528858, "lon": 139.7191682, "name": "日本赤十字社医療センター　院内保育所「さくらんぼ」" }, "geometry": { "type": "Point", "coordinates": [ 139.719168200000013, 35.6528858 ] } },
{ "type": "Feature", "properties": { "lat": 35.6862356, "lon": 139.699321, "name": "キッズハーモニー・新宿" }, "geometry": { "type": "Point", "coordinates": [ 139.699321, 35.6862356 ] } },
{ "type": "Feature", "properties": { "lat": 35.6575953, "lon": 139.6993465, "name": "よつば保育室" }, "geometry": { "type": "Point", "coordinates": [ 139.6993465, 35.6575953 ] } },
{ "type": "Feature", "properties": { "lat": 35.643127, "lon": 139.7145061, "name": "ポピンズナーサリースクール恵比寿　ホップキッズ" }, "geometry": { "type": "Point", "coordinates": [ 139.7145061, 35.643127 ] } },
{ "type": "Feature", "properties": { "lat": 35.6558123, "lon": 139.6932374, "name": "カナリヤ保育室" }, "geometry": { "type": "Point", "coordinates": [ 139.693237399999987, 35.6558123 ] } },
{ "type": "Feature", "properties": { "lat": 35.6759903, "lon": 139.710165, "name": "こもれび保育園　千駄ヶ谷園" }, "geometry": { "type": "Point", "coordinates": [ 139.710165, 35.6759903 ] } },
{ "type": "Feature", "properties": { "lat": 35.6778785, "lon": 139.7057167, "name": "マフィス北参道" }, "geometry": { "type": "Point", "coordinates": [ 139.705716700000011, 35.6778785 ] } },
{ "type": "Feature", "properties": { "lat": 35.6724744, "lon": 139.6652806, "name": "やしのき保育園" }, "geometry": { "type": "Point", "coordinates": [ 139.665280599999988, 35.6724744 ] } },
{ "type": "Feature", "properties": { "lat": 35.6851622, "lon": 139.6927657, "name": "フェニックスキッズ西新宿" }, "geometry": { "type": "Point", "coordinates": [ 139.6927657, 35.6851622 ] } },
{ "type": "Feature", "properties": { "lat": 35.6739911, "lon": 139.7120893, "name": "マザーグース神宮前保育園" }, "geometry": { "type": "Point", "coordinates": [ 139.7120893, 35.673991099999903 ] } },
{ "type": "Feature", "properties": { "lat": 35.6643708, "lon": 139.6788229, "name": "つながりシェア保育園・代々木上原" }, "geometry": { "type": "Point", "coordinates": [ 139.6788229, 35.6643708 ] } },
{ "type": "Feature", "properties": { "lat": 35.6563569, "lon": 139.6994163, "name": "GMO Bears（ジーエムオーベアーズ）" }, "geometry": { "type": "Point", "coordinates": [ 139.6994163, 35.6563569 ] } },
{ "type": "Feature", "properties": { "lat": 35.6437877, "lon": 139.7184655, "name": "Luce Felice" }, "geometry": { "type": "Point", "coordinates": [ 139.7184655, 35.6437877 ] } },
{ "type": "Feature", "properties": { "lat": 35.6831273, "lon": 139.6927727, "name": "渋谷区山谷かきのみ園" }, "geometry": { "type": "Point", "coordinates": [ 139.6927727, 35.6831273 ] } },
{ "type": "Feature", "properties": { "lat": 35.6695537, "lon": 139.6901503, "name": "PRINCETON　ACADEMY　INTERNATIONAL　SCHOOL" }, "geometry": { "type": "Point", "coordinates": [ 139.6901503, 35.6695537 ] } },
{ "type": "Feature", "properties": { "lat": 35.6718106, "lon": 139.7135881, "name": "ズー・フォニックス・アカデミー表参道校" }, "geometry": { "type": "Point", "coordinates": [ 139.71358810000001, 35.6718106 ] } },
{ "type": "Feature", "properties": { "lat": 35.6791532, "lon": 139.6834208, "name": "The Reggio School of Tokyo" }, "geometry": { "type": "Point", "coordinates": [ 139.6834208, 35.6791532 ] } },
{ "type": "Feature", "properties": { "lat": 35.6440857, "lon": 139.7159104, "name": "Prime Academic Preschool" }, "geometry": { "type": "Point", "coordinates": [ 139.715910400000013, 35.6440857 ] } },
{ "type": "Feature", "properties": { "lat": 35.6676475, "lon": 139.6766016, "name": "友愛インターナショナルイスラミックスクール" }, "geometry": { "type": "Point", "coordinates": [ 139.6766016, 35.6676475 ] } },
{ "type": "Feature", "properties": { "lat": 35.6493087, "lon": 139.7136716, "name": "セサミ　インターナショナル　プリスクール" }, "geometry": { "type": "Point", "coordinates": [ 139.7136716, 35.6493087 ] } },
{ "type": "Feature", "properties": { "lat": 35.6498297, "lon": 139.7160874, "name": "Green. alo" }, "geometry": { "type": "Point", "coordinates": [ 139.7160874, 35.6498297 ] } },
{ "type": "Feature", "properties": { "lat": 35.6861351, "lon": 139.698123, "name": "お試し保育と一時預かり専門託児所　ママズスマイル　新宿南口店" }, "geometry": { "type": "Point", "coordinates": [ 139.698123, 35.6861351 ] } },
{ "type": "Feature", "properties": { "lat": 35.6500783, "lon": 139.72215, "name": "ポピンズアクティブラーニングスクール広尾" }, "geometry": { "type": "Point", "coordinates": [ 139.72215, 35.6500783 ] } },
{ "type": "Feature", "properties": { "lat": 35.6796658, "lon": 139.7051271, "name": "一時預かり保育ルームéveil（エヴェイユ）" }, "geometry": { "type": "Point", "coordinates": [ 139.7051271, 35.6796658 ] } },
{ "type": "Feature", "properties": { "lat": 35.669871, "lon": 139.71352, "name": "Marie International School Omotesando" }, "geometry": { "type": "Point", "coordinates": [ 139.71352, 35.669871 ] } },
{ "type": "Feature", "properties": { "lat": 35.6681654, "lon": 139.6913568, "name": "オリーブツリーインターナショナルスクール　アネックス" }, "geometry": { "type": "Point", "coordinates": [ 139.6913568, 35.6681654 ] } },
{ "type": "Feature", "properties": { "lat": 35.6661512, "lon": 139.6933238, "name": "Select School松濤" }, "geometry": { "type": "Point", "coordinates": [ 139.6933238, 35.6661512 ] } },
{ "type": "Feature", "properties": { "lat": 35.6564796, "lon": 139.7023857, "name": "CTISキンダーガーテン渋谷" }, "geometry": { "type": "Point", "coordinates": [ 139.7023857, 35.6564796 ] } },
{ "type": "Feature", "properties": { "lat": 35.680634, "lon": 139.6809081, "name": "GG International School 代々木校" }, "geometry": { "type": "Point", "coordinates": [ 139.680908100000011, 35.680634 ] } },
{ "type": "Feature", "properties": { "lat": 35.6449785, "lon": 139.7100038, "name": "ヒーロー幼児園　プライム恵比寿校" }, "geometry": { "type": "Point", "coordinates": [ 139.71000380000001, 35.6449785 ] } },
{ "type": "Feature", "properties": { "lat": 35.6798323, "lon": 139.6715088, "name": "株式会社ほしぞらハウス" }, "geometry": { "type": "Point", "coordinates": [ 139.6715088, 35.6798323 ] } },
{ "type": "Feature", "properties": { "lat": 35.6732001, "lon": 139.704155, "name": "HARAJUKU KIDS CLUB TOKYO" }, "geometry": { "type": "Point", "coordinates": [ 139.704155, 35.6732001 ] } },
{ "type": "Feature", "properties": { "lat": 35.6756046, "lon": 139.6921094, "name": "オリーブツリーインターナショナルスクール　メインビルディング" }, "geometry": { "type": "Point", "coordinates": [ 139.6921094, 35.6756046 ] } },
{ "type": "Feature", "properties": { "lat": 35.6826745, "lon": 139.6891045, "name": "パレット保育園・初台" }, "geometry": { "type": "Point", "coordinates": [ 139.689104500000013, 35.6826745 ] } },
{ "type": "Feature", "properties": { "lat": 35.682065, "lon": 139.7024314, "name": "ポピンズナーサリースクール代々木" }, "geometry": { "type": "Point", "coordinates": [ 139.7024314, 35.682065 ] } },
{ "type": "Feature", "properties": { "lat": 35.6743035, "lon": 139.6620679, "name": "フジキ保育室" }, "geometry": { "type": "Point", "coordinates": [ 139.662067900000011, 35.6743035 ] } },
{ "type": "Feature", "properties": { "lat": 35.6486211, "lon": 139.7209273, "name": "エンゼル･ルーム" }, "geometry": { "type": "Point", "coordinates": [ 139.7209273, 35.6486211 ] } },
{ "type": "Feature", "properties": { "lat": 35.6706692, "lon": 139.6858634, "name": "なでしこ保育園" }, "geometry": { "type": "Point", "coordinates": [ 139.685863399999988, 35.6706692 ] } },
{ "type": "Feature", "properties": { "lat": 35.6827189, "lon": 139.6779055, "name": "コミュニティハウス保育室ポッポ" }, "geometry": { "type": "Point", "coordinates": [ 139.6779055, 35.6827189 ] } },
{ "type": "Feature", "properties": { "lat": 35.649126, "lon": 139.7099715, "name": "こもれび保育園　恵比寿園" }, "geometry": { "type": "Point", "coordinates": [ 139.7099715, 35.649126 ] } },
{ "type": "Feature", "properties": { "lat": 35.672774, "lon": 139.6787537, "name": "西原りとるぱんぷきんず" }, "geometry": { "type": "Point", "coordinates": [ 139.678753699999987, 35.672774 ] } },
{ "type": "Feature", "properties": { "lat": 35.6676745, "lon": 139.6841963, "name": "薫る風・上原こども園" }, "geometry": { "type": "Point", "coordinates": [ 139.6841963, 35.6676745 ] } },
{ "type": "Feature", "properties": { "lat": 35.6738788, "lon": 139.6881585, "name": "代々木至誠こども園" }, "geometry": { "type": "Point", "coordinates": [ 139.688158499999986, 35.6738788 ] } },
{ "type": "Feature", "properties": { "lat": 35.666245, "lon": 139.7081674, "name": "神宮前あおぞらこども園" }, "geometry": { "type": "Point", "coordinates": [ 139.7081674, 35.666245 ] } },
{ "type": "Feature", "properties": { "lat": 35.6886866, "lon": 139.6812919, "name": "本町きらきらこども園" }, "geometry": { "type": "Point", "coordinates": [ 139.6812919, 35.6886866 ] } },
{ "type": "Feature", "properties": { "lat": 35.6471219, "lon": 139.7068493, "name": "恵比寿のびのびこども園" }, "geometry": { "type": "Point", "coordinates": [ 139.706849299999988, 35.6471219 ] } },
{ "type": "Feature", "properties": { "lat": 35.6820585, "lon": 139.6789711, "name": "本町そよかぜこども園" }, "geometry": { "type": "Point", "coordinates": [ 139.678971100000012, 35.6820585 ] } },
{ "type": "Feature", "properties": { "lat": 35.664533, "lon": 139.6809978, "name": "まちのこども園 代々木上原" }, "geometry": { "type": "Point", "coordinates": [ 139.6809978, 35.664533 ] } },
{ "type": "Feature", "properties": { "lat": 35.6700371, "lon": 139.6931498, "name": "まちのこども園 代々木公園" }, "geometry": { "type": "Point", "coordinates": [ 139.693149799999986, 35.6700371 ] } },
{ "type": "Feature", "properties": { "lat": 35.6539696, "lon": 139.7070782, "name": "渋谷東しぜんの国こども園" }, "geometry": { "type": "Point", "coordinates": [ 139.707078200000012, 35.6539696 ] } },
{ "type": "Feature", "properties": { "lat": 35.6740783, "lon": 139.7066542, "name": "原宿こども園" }, "geometry": { "type": "Point", "coordinates": [ 139.7066542, 35.6740783 ] } },
{ "type": "Feature", "properties": { "lat": 35.6881684, "lon": 139.7148175, "name": "ニチイキッズ新宿御苑保育園" }, "geometry": { "type": "Point", "coordinates": [ 139.7148175, 35.6881684 ] } },
{ "type": "Feature", "properties": { "lat": 35.6937642, "lon": 139.6865111, "name": "グローバルキッズ西新宿園" }, "geometry": { "type": "Point", "coordinates": [ 139.6865111, 35.6937642 ] } },
{ "type": "Feature", "properties": { "lat": 35.6932759, "lon": 139.6864535, "name": "AIAI NURSERY 西新宿　" }, "geometry": { "type": "Point", "coordinates": [ 139.6864535, 35.6932759 ] } },
{ "type": "Feature", "properties": { "lat": 35.7180584, "lon": 139.6943589, "name": "下落合そらいろ保育園" }, "geometry": { "type": "Point", "coordinates": [ 139.6943589, 35.7180584 ] } },
{ "type": "Feature", "properties": { "lat": 35.6876697, "lon": 139.7289182, "name": "にじいろ保育園四ツ谷" }, "geometry": { "type": "Point", "coordinates": [ 139.72891820000001, 35.6876697 ] } },
{ "type": "Feature", "properties": { "lat": 35.6893082, "lon": 139.7201498, "name": "グローバルキッズ愛住町園" }, "geometry": { "type": "Point", "coordinates": [ 139.7201498, 35.6893082 ] } },
{ "type": "Feature", "properties": { "lat": 35.6862115, "lon": 139.7260406, "name": "グローバルキッズ若葉園" }, "geometry": { "type": "Point", "coordinates": [ 139.7260406, 35.6862115 ] } },
{ "type": "Feature", "properties": { "lat": 35.6822044, "lon": 139.7234378, "name": "二葉南元保育園" }, "geometry": { "type": "Point", "coordinates": [ 139.7234378, 35.6822044 ] } },
{ "type": "Feature", "properties": { "lat": 35.6822101, "lon": 139.7154931, "name": "新宿三つの木保育園もりさんかくしかく" }, "geometry": { "type": "Point", "coordinates": [ 139.7154931, 35.6822101 ] } },
{ "type": "Feature", "properties": { "lat": 35.6970904, "lon": 139.7097861, "name": "フロンティアキッズ新宿" }, "geometry": { "type": "Point", "coordinates": [ 139.7097861, 35.6970904 ] } },
{ "type": "Feature", "properties": { "lat": 35.7000333, "lon": 139.7109862, "name": "きゃんばす東新宿保育園" }, "geometry": { "type": "Point", "coordinates": [ 139.7109862, 35.7000333 ] } },
{ "type": "Feature", "properties": { "lat": 35.6950842, "lon": 139.6873011, "name": "ポピンズナーサリースクール西新宿" }, "geometry": { "type": "Point", "coordinates": [ 139.687301100000013, 35.6950842 ] } },
{ "type": "Feature", "properties": { "lat": 35.6948884, "lon": 139.6900207, "name": "アイグラン保育園西新宿" }, "geometry": { "type": "Point", "coordinates": [ 139.6900207, 35.6948884 ] } },
{ "type": "Feature", "properties": { "lat": 35.6942779, "lon": 139.6915116, "name": "新宿成子坂愛育園" }, "geometry": { "type": "Point", "coordinates": [ 139.691511600000013, 35.6942779 ] } },
{ "type": "Feature", "properties": { "lat": 35.6935028, "lon": 139.6991503, "name": "ルーチェ保育園　西新宿" }, "geometry": { "type": "Point", "coordinates": [ 139.699150300000014, 35.6935028 ] } },
{ "type": "Feature", "properties": { "lat": 35.7202661, "lon": 139.6785347, "name": "キッズガーデン新宿西落合" }, "geometry": { "type": "Point", "coordinates": [ 139.6785347, 35.7202661 ] } },
{ "type": "Feature", "properties": { "lat": 35.7256185, "lon": 139.6793423, "name": "グローバルキッズ西落合保育園" }, "geometry": { "type": "Point", "coordinates": [ 139.6793423, 35.7256185 ] } },
{ "type": "Feature", "properties": { "lat": 35.7179649, "lon": 139.6939877, "name": "中落合第ニ保育園" }, "geometry": { "type": "Point", "coordinates": [ 139.6939877, 35.7179649 ] } },
{ "type": "Feature", "properties": { "lat": 35.7212989, "lon": 139.6865849, "name": "ウィズブック保育園中落合" }, "geometry": { "type": "Point", "coordinates": [ 139.686584900000014, 35.7212989 ] } },
{ "type": "Feature", "properties": { "lat": 35.7190345, "lon": 139.6821654, "name": "新宿こだま保育園" }, "geometry": { "type": "Point", "coordinates": [ 139.6821654, 35.7190345 ] } },
{ "type": "Feature", "properties": { "lat": 35.7159164, "lon": 139.6986616, "name": "キッズタウン下落合保育園" }, "geometry": { "type": "Point", "coordinates": [ 139.6986616, 35.7159164 ] } },
{ "type": "Feature", "properties": { "lat": 35.7078186, "lon": 139.7407736, "name": "ソラスト神楽坂保育園" }, "geometry": { "type": "Point", "coordinates": [ 139.740773600000011, 35.7078186 ] } },
{ "type": "Feature", "properties": { "lat": 35.7156407, "lon": 139.6932003, "name": "ほっぺるランド上落合" }, "geometry": { "type": "Point", "coordinates": [ 139.6932003, 35.7156407 ] } },
{ "type": "Feature", "properties": { "lat": 35.7127322, "lon": 139.6911336, "name": "八幡神社愛育園" }, "geometry": { "type": "Point", "coordinates": [ 139.6911336, 35.7127322 ] } },
{ "type": "Feature", "properties": { "lat": 35.7112846, "lon": 139.6915015, "name": "アイグラン保育園落合" }, "geometry": { "type": "Point", "coordinates": [ 139.691501499999987, 35.7112846 ] } },
{ "type": "Feature", "properties": { "lat": 35.7176831, "lon": 139.6861911, "name": "獅子吼保育園" }, "geometry": { "type": "Point", "coordinates": [ 139.6861911, 35.7176831 ] } },
{ "type": "Feature", "properties": { "lat": 35.7089692, "lon": 139.727772, "name": "ほっぺるランド早稲田鶴巻町" }, "geometry": { "type": "Point", "coordinates": [ 139.727772, 35.7089692 ] } },
{ "type": "Feature", "properties": { "lat": 35.7050961, "lon": 139.7222948, "name": "早稲田南町保育園" }, "geometry": { "type": "Point", "coordinates": [ 139.722294799999986, 35.7050961 ] } },
{ "type": "Feature", "properties": { "lat": 35.7021138, "lon": 139.7122833, "name": "戸山第ニ保育園" }, "geometry": { "type": "Point", "coordinates": [ 139.7122833, 35.7021138 ] } },
{ "type": "Feature", "properties": { "lat": 35.6988793, "lon": 139.7238301, "name": "原町みゆき保育園" }, "geometry": { "type": "Point", "coordinates": [ 139.723830099999986, 35.6988793 ] } },
{ "type": "Feature", "properties": { "lat": 35.6976295, "lon": 139.7181998, "name": "至誠会保育園" }, "geometry": { "type": "Point", "coordinates": [ 139.7181998, 35.6976295 ] } },
{ "type": "Feature", "properties": { "lat": 35.6965751, "lon": 139.7214755, "name": "フロンティアキッズ曙橋" }, "geometry": { "type": "Point", "coordinates": [ 139.7214755, 35.6965751 ] } },
{ "type": "Feature", "properties": { "lat": 35.6995094, "lon": 139.7186038, "name": "フロンティアキッズ夏目坂" }, "geometry": { "type": "Point", "coordinates": [ 139.718603800000011, 35.6995094 ] } },
{ "type": "Feature", "properties": { "lat": 35.6965776, "lon": 139.7275483, "name": "にじいろ保育園市谷加賀町" }, "geometry": { "type": "Point", "coordinates": [ 139.7275483, 35.6965776 ] } },
{ "type": "Feature", "properties": { "lat": 35.6963291, "lon": 139.7247447, "name": "アスクバイリンガル保育園薬王寺" }, "geometry": { "type": "Point", "coordinates": [ 139.7247447, 35.6963291 ] } },
{ "type": "Feature", "properties": { "lat": 35.6931114, "lon": 139.7205588, "name": "ニチイキッズ曙橋保育園" }, "geometry": { "type": "Point", "coordinates": [ 139.7205588, 35.6931114 ] } },
{ "type": "Feature", "properties": { "lat": 35.6940222, "lon": 139.7156994, "name": "富久町保育園" }, "geometry": { "type": "Point", "coordinates": [ 139.7156994, 35.6940222 ] } },