{
"type": "FeatureCollection",
"name": "sportsvenues2025",
"crs": { "type": "name", "properties": { "name": "urn:ogc:def:crs:OGC:1.3:CRS84" } },
"features": [
{ "type": "Feature", "properties": { "lat": 35.6748794, "lon": 139.7564528, "name": "日比谷公園庭球場" }, "geometry": { "type": "Point", "coordinates": [ 139.7564528, 35.6748794 ] } },
{ "type": "Feature", "properties": { "lat": 35.6963798, "lon": 139.759374, "name": "石井スポーツ カンダコンペカン" }, "geometry": { "type": "Point", "coordinates": [ 139.759374, 35.6963798 ] } },
{ "type": "Feature", "properties": { "lat": 35.6963798, "lon": 139.759374, "name": "石井スポーツ 登山本店" }, "geometry": { "type": "Point", "coordinates": [ 139.759374, 35.6963798 ] } },
{ "type": "Feature", "properties": { "lat": 35.6939845, "lon": 139.7645926, "name": "Patagonia(パタゴニア) 東京・神田" }, "geometry": { "type": "Point", "coordinates": [ 139.764592599999986, 35.6939845 ] } },
{ "type": "Feature", "properties": { "lat": 35.6972735, "lon": 139.7594013, "name": "KANDAHAR 本店" }, "geometry": { "type": "Point", "coordinates": [ 139.7594013, 35.6972735 ] } },
{ "type": "Feature", "properties": { "lat": 35.6961102, "lon": 139.7610151, "name": "石井スポーツ 神田本館" }, "geometry": { "type": "Point", "coordinates": [ 139.7610151, 35.6961102 ] } },
{ "type": "Feature", "properties": { "lat": 35.6947585, "lon": 139.7639938, "name": "ムラサキスポーツ 神田小川町店" }, "geometry": { "type": "Point", "coordinates": [ 139.7639938, 35.6947585 ] } },
{ "type": "Feature", "properties": { "lat": 35.6797045, "lon": 139.7632693, "name": "ASICS RUN TOKYO MARUNOUCHI(アシックスラン東京丸の内)" }, "geometry": { "type": "Point", "coordinates": [ 139.7632693, 35.6797045 ] } },
{ "type": "Feature", "properties": { "lat": 35.6951887, "lon": 139.7622244, "name": "スーパースポーツゼビオ 東京御茶ノ水本店" }, "geometry": { "type": "Point", "coordinates": [ 139.7622244, 35.6951887 ] } },
{ "type": "Feature", "properties": { "lat": 35.6891407, "lon": 139.7675921, "name": "千代田区立スポーツセンター" }, "geometry": { "type": "Point", "coordinates": [ 139.7675921, 35.6891407 ] } },
{ "type": "Feature", "properties": { "lat": 35.695023, "lon": 139.7626611, "name": "Victoria(ヴィクトリア) 御茶ノ水本店" }, "geometry": { "type": "Point", "coordinates": [ 139.7626611, 35.695023 ] } },
{ "type": "Feature", "properties": { "lat": 35.6944351, "lon": 139.7621739, "name": "MIZUNO TOKYO(ミズノトウキョウ)" }, "geometry": { "type": "Point", "coordinates": [ 139.7621739, 35.6944351 ] } },
{ "type": "Feature", "properties": { "lat": 35.6953586, "lon": 139.7657371, "name": "ココナッツ本店" }, "geometry": { "type": "Point", "coordinates": [ 139.7657371, 35.6953586 ] } },
{ "type": "Feature", "properties": { "lat": 35.7037858, "lon": 139.7725562, "name": "外濠公園総合グラウンド" }, "geometry": { "type": "Point", "coordinates": [ 139.7725562, 35.7037858 ] } },
{ "type": "Feature", "properties": { "lat": 35.6743712, "lon": 139.7614382, "name": "HOKA Marunouchi(ホカ マルノウチ)" }, "geometry": { "type": "Point", "coordinates": [ 139.761438199999986, 35.6743712 ] } },
{ "type": "Feature", "properties": { "lat": 35.6942148, "lon": 139.7645391, "name": "ロンドン・スポーツ 神田店" }, "geometry": { "type": "Point", "coordinates": [ 139.7645391, 35.6942148 ] } },
{ "type": "Feature", "properties": { "lat": 35.6941472, "lon": 139.7631907, "name": "ヴィクトリアゴルフ 御茶ノ水店" }, "geometry": { "type": "Point", "coordinates": [ 139.7631907, 35.6941472 ] } },
{ "type": "Feature", "properties": { "lat": 35.6826212, "lon": 139.7642436, "name": "MARUNOUCHI Bike&Run(マルノウチ バイクアンドラン)" }, "geometry": { "type": "Point", "coordinates": [ 139.764243599999986, 35.6826212 ] } },
{ "type": "Feature", "properties": { "lat": 35.6884052, "lon": 139.7647492, "name": "SPA OTEMACHI FITNESS CLUB(スパ オオテマチ フィットネス クラブ)" }, "geometry": { "type": "Point", "coordinates": [ 139.764749200000011, 35.6884052 ] } },
{ "type": "Feature", "properties": { "lat": 35.6992908, "lon": 139.7739578, "name": "jump one Akihabara(ジャンプ ワン アキハバラ)" }, "geometry": { "type": "Point", "coordinates": [ 139.7739578, 35.6992908 ] } },
{ "type": "Feature", "properties": { "lat": 35.680117, "lon": 139.7583125, "name": "パレスサイクリングコース" }, "geometry": { "type": "Point", "coordinates": [ 139.758312499999988, 35.680117 ] } },
{ "type": "Feature", "properties": { "lat": 35.6933944, "lon": 139.7796058, "name": "エニタイムフィットネス 千代田岩本町店" }, "geometry": { "type": "Point", "coordinates": [ 139.779605800000013, 35.6933944 ] } },
{ "type": "Feature", "properties": { "lat": 35.6876366, "lon": 139.7623328, "name": "ラフィネランニングスタイル Otemachi One店" }, "geometry": { "type": "Point", "coordinates": [ 139.7623328, 35.6876366 ] } },
{ "type": "Feature", "properties": { "lat": 35.6963507, "lon": 139.7597717, "name": "神保町ゴルフスクール" }, "geometry": { "type": "Point", "coordinates": [ 139.759771699999988, 35.6963507 ] } },
{ "type": "Feature", "properties": { "lat": 35.691023, "lon": 139.7651383, "name": "BOULCOM(ボルコム) 東京店" }, "geometry": { "type": "Point", "coordinates": [ 139.7651383, 35.691023 ] } },
{ "type": "Feature", "properties": { "lat": 35.6824785, "lon": 139.7398156, "name": "Fun Azul Fleet" }, "geometry": { "type": "Point", "coordinates": [ 139.739815599999986, 35.6824785 ] } },
{ "type": "Feature", "properties": { "lat": 35.6972543, "lon": 139.7565131, "name": "ダイブ クラップス" }, "geometry": { "type": "Point", "coordinates": [ 139.7565131, 35.6972543 ] } },
{ "type": "Feature", "properties": { "lat": 35.6759691, "lon": 139.7384261, "name": "エニタイムフィットネス 赤坂プルデンシャルタワー店" }, "geometry": { "type": "Point", "coordinates": [ 139.7384261, 35.6759691 ] } },
{ "type": "Feature", "properties": { "lat": 35.6997168, "lon": 139.7621994, "name": "エニタイムフィットネス 御茶ノ水店" }, "geometry": { "type": "Point", "coordinates": [ 139.762199399999986, 35.6997168 ] } },
{ "type": "Feature", "properties": { "lat": 35.6929784, "lon": 139.7720022, "name": "エニタイムフィットネス 神田東口店" }, "geometry": { "type": "Point", "coordinates": [ 139.7720022, 35.6929784 ] } },
{ "type": "Feature", "properties": { "lat": 35.7002327, "lon": 139.768978, "name": "エニタイムフィットネス 秋葉原店" }, "geometry": { "type": "Point", "coordinates": [ 139.768978, 35.7002327 ] } },
{ "type": "Feature", "properties": { "lat": 35.6985435, "lon": 139.7488691, "name": "エニタイムフィットネス 九段下店" }, "geometry": { "type": "Point", "coordinates": [ 139.7488691, 35.6985435 ] } },
{ "type": "Feature", "properties": { "lat": 35.6844561, "lon": 139.7371784, "name": "エニタイムフィットネス 麹町店" }, "geometry": { "type": "Point", "coordinates": [ 139.7371784, 35.6844561 ] } },
{ "type": "Feature", "properties": { "lat": 35.6915859, "lon": 139.765787, "name": "エニタイムフィットネス 内神田店" }, "geometry": { "type": "Point", "coordinates": [ 139.765787, 35.6915859 ] } },
{ "type": "Feature", "properties": { "lat": 35.6862327, "lon": 139.7321161, "name": "ゴールドジム 四ツ谷東京" }, "geometry": { "type": "Point", "coordinates": [ 139.732116100000013, 35.6862327 ] } },
{ "type": "Feature", "properties": { "lat": 35.6966636, "lon": 139.759225, "name": "chocoZAP(チョコザップ) 神保町" }, "geometry": { "type": "Point", "coordinates": [ 139.759225, 35.6966636 ] } },
{ "type": "Feature", "properties": { "lat": 35.6941792, "lon": 139.775488, "name": "chocoZAP(チョコザップ) 岩本町二丁目" }, "geometry": { "type": "Point", "coordinates": [ 139.775488, 35.6941792 ] } },
{ "type": "Feature", "properties": { "lat": 35.6947493, "lon": 139.7647987, "name": "chocoZAP(チョコザップ) 神田小川町" }, "geometry": { "type": "Point", "coordinates": [ 139.7647987, 35.6947493 ] } },
{ "type": "Feature", "properties": { "lat": 35.7012193, "lon": 139.7690617, "name": "chocoZAP(チョコザップ) 外神田二丁目" }, "geometry": { "type": "Point", "coordinates": [ 139.7690617, 35.7012193 ] } },
{ "type": "Feature", "properties": { "lat": 35.698877, "lon": 139.7488176, "name": "chocoZAP(チョコザップ) 飯田橋一丁目" }, "geometry": { "type": "Point", "coordinates": [ 139.7488176, 35.698877 ] } },
{ "type": "Feature", "properties": { "lat": 35.6946799, "lon": 139.7788516, "name": "chocoZAP(チョコザップ) 岩本町" }, "geometry": { "type": "Point", "coordinates": [ 139.7788516, 35.6946799 ] } },
{ "type": "Feature", "properties": { "lat": 35.693132, "lon": 139.7435441, "name": "chocoZAP(チョコザップ) 九段南三丁目" }, "geometry": { "type": "Point", "coordinates": [ 139.7435441, 35.693132 ] } },
{ "type": "Feature", "properties": { "lat": 35.69292, "lon": 139.7710386, "name": "chocoZAP(チョコザップ) 神田" }, "geometry": { "type": "Point", "coordinates": [ 139.7710386, 35.69292 ] } },
{ "type": "Feature", "properties": { "lat": 35.6842447, "lon": 139.736365, "name": "chocoZAP(チョコザップ) 麹町" }, "geometry": { "type": "Point", "coordinates": [ 139.736365, 35.6842447 ] } },
{ "type": "Feature", "properties": { "lat": 35.6787105, "lon": 139.7629717, "name": "ティップネス丸の内スタイル" }, "geometry": { "type": "Point", "coordinates": [ 139.7629717, 35.6787105 ] } },
{ "type": "Feature", "properties": { "lat": 35.6951887, "lon": 139.7622244, "name": "スキーショップ アスペン" }, "geometry": { "type": "Point", "coordinates": [ 139.7622244, 35.6951887 ] } },
{ "type": "Feature", "properties": { "lat": 35.6955588, "lon": 139.7810238, "name": "ACTEK GOLF(アクテック ゴルフ)" }, "geometry": { "type": "Point", "coordinates": [ 139.781023800000014, 35.6955588 ] } },
{ "type": "Feature", "properties": { "lat": 35.6899549, "lon": 139.768592, "name": "PRO SHOP HANDBALL7(プロ ショップ ハンドボールセブン) 神田本店" }, "geometry": { "type": "Point", "coordinates": [ 139.768592, 35.6899549 ] } },
{ "type": "Feature", "properties": { "lat": 35.7012894, "lon": 139.7534088, "name": "GRIT FIGHT SHOP(グリット ファイト ショップ)" }, "geometry": { "type": "Point", "coordinates": [ 139.753408799999988, 35.7012894 ] } },
{ "type": "Feature", "properties": { "lat": 35.696034, "lon": 139.7696807, "name": "ダイビングショップ アクオス" }, "geometry": { "type": "Point", "coordinates": [ 139.7696807, 35.696034 ] } },
{ "type": "Feature", "properties": { "lat": 35.6977835, "lon": 139.7581901, "name": "Hi-GOLD TOKYO BASE(ハイ ゴールド トウキョウ ベース)" }, "geometry": { "type": "Point", "coordinates": [ 139.7581901, 35.6977835 ] } },
{ "type": "Feature", "properties": { "lat": 35.6916172, "lon": 139.739646, "name": "マチトレ 市ヶ谷店" }, "geometry": { "type": "Point", "coordinates": [ 139.739646, 35.6916172 ] } },
{ "type": "Feature", "properties": { "lat": 35.699687, "lon": 139.7770495, "name": "ファイトフィット秋葉原" }, "geometry": { "type": "Point", "coordinates": [ 139.7770495, 35.699687 ] } },
{ "type": "Feature", "properties": { "lat": 35.6989329, "lon": 139.7642805, "name": "Private Practice Range(プライベート プラクティス レンジ)" }, "geometry": { "type": "Point", "coordinates": [ 139.764280500000012, 35.6989329 ] } },
{ "type": "Feature", "properties": { "lat": 35.6925469, "lon": 139.777379, "name": "ボクシングスタジオTRINITY(トリニティ)" }, "geometry": { "type": "Point", "coordinates": [ 139.777379, 35.6925469 ] } },
{ "type": "Feature", "properties": { "lat": 35.7009531, "lon": 139.7456437, "name": "Peak Conditioning(ピーク コンディショニング)" }, "geometry": { "type": "Point", "coordinates": [ 139.745643699999988, 35.7009531 ] } },
{ "type": "Feature", "properties": { "lat": 35.6968141, "lon": 139.7511587, "name": "GolFair(ゴルフェア)" }, "geometry": { "type": "Point", "coordinates": [ 139.7511587, 35.6968141 ] } },
{ "type": "Feature", "properties": { "lat": 35.6952354, "lon": 139.7588954, "name": "zen place pilates(ゼン プレイス ピラティス) 神保町" }, "geometry": { "type": "Point", "coordinates": [ 139.7588954, 35.6952354 ] } },
{ "type": "Feature", "properties": { "lat": 35.6924477, "lon": 139.7607356, "name": "KICKBOXING STUDIO OFFICE RINGS RUNCUBE(キックボクシング スタジオ オフィス リングス ランキューブ)" }, "geometry": { "type": "Point", "coordinates": [ 139.7607356, 35.6924477 ] } },
{ "type": "Feature", "properties": { "lat": 35.6919051, "lon": 139.7671648, "name": "HEALTH CARE CREATE(ヘルスケアクリエイト) 本店/神田トレーニングルーム" }, "geometry": { "type": "Point", "coordinates": [ 139.767164799999989, 35.6919051 ] } },
{ "type": "Feature", "properties": { "lat": 35.6989789, "lon": 139.7436278, "name": "セントラルスポーツ ジムスタ 飯田橋サクラテラス" }, "geometry": { "type": "Point", "coordinates": [ 139.743627800000013, 35.6989789 ] } },
{ "type": "Feature", "properties": { "lat": 35.693031, "lon": 139.77013, "name": "つるやゴルフ 神田駅前店" }, "geometry": { "type": "Point", "coordinates": [ 139.77013, 35.693031 ] } },
{ "type": "Feature", "properties": { "lat": 35.6759691, "lon": 139.7384261, "name": "スポーツクラブNAS 赤坂店" }, "geometry": { "type": "Point", "coordinates": [ 139.7384261, 35.6759691 ] } },
{ "type": "Feature", "properties": { "lat": 35.6946997, "lon": 139.7646575, "name": "F.JANCK(エフジャンク)" }, "geometry": { "type": "Point", "coordinates": [ 139.7646575, 35.6946997 ] } },
{ "type": "Feature", "properties": { "lat": 35.6911281, "lon": 139.7678684, "name": "ジムセントラル24神田" }, "geometry": { "type": "Point", "coordinates": [ 139.7678684, 35.6911281 ] } },
{ "type": "Feature", "properties": { "lat": 35.6909846, "lon": 139.7660156, "name": "NGCニューゴルフクリニック" }, "geometry": { "type": "Point", "coordinates": [ 139.7660156, 35.6909846 ] } },
{ "type": "Feature", "properties": { "lat": 35.6964284, "lon": 139.7748028, "name": "WIN & WIN(ウイン アンド ウイン) 東京ショールーム" }, "geometry": { "type": "Point", "coordinates": [ 139.7748028, 35.6964284 ] } },
{ "type": "Feature", "properties": { "lat": 35.6844686, "lon": 139.738698, "name": "マチトレ 麹町店" }, "geometry": { "type": "Point", "coordinates": [ 139.738698, 35.6844686 ] } },
{ "type": "Feature", "properties": { "lat": 35.6918191, "lon": 139.7371405, "name": "みなとゴルフ 市ヶ谷" }, "geometry": { "type": "Point", "coordinates": [ 139.73714050000001, 35.6918191 ] } },
{ "type": "Feature", "properties": { "lat": 35.6991563, "lon": 139.7485249, "name": "パーソナルトレーニングジム・整体gis" }, "geometry": { "type": "Point", "coordinates": [ 139.7485249, 35.6991563 ] } },
{ "type": "Feature", "properties": { "lat": 35.6949397, "lon": 139.7783376, "name": "スマート卓球ジム 秋葉原岩本町店" }, "geometry": { "type": "Point", "coordinates": [ 139.778337599999986, 35.6949397 ] } },
{ "type": "Feature", "properties": { "lat": 35.7035857, "lon": 139.7699935, "name": "株式会社井本運動具店" }, "geometry": { "type": "Point", "coordinates": [ 139.7699935, 35.7035857 ] } },
{ "type": "Feature", "properties": { "lat": 35.698679, "lon": 139.756167, "name": "Stylish Golf Studio(スタイリッシュ ゴルフ スタジオ)" }, "geometry": { "type": "Point", "coordinates": [ 139.756167, 35.698679 ] } },
{ "type": "Feature", "properties": { "lat": 35.69292, "lon": 139.7710386, "name": "Dr.stretch(ドクター ストレッチ) 神田店" }, "geometry": { "type": "Point", "coordinates": [ 139.7710386, 35.69292 ] } },
{ "type": "Feature", "properties": { "lat": 35.6944351, "lon": 139.7621739, "name": "Burton Store Tokyo Kanda(バートン ストア トウキョウ カンダ)" }, "geometry": { "type": "Point", "coordinates": [ 139.7621739, 35.6944351 ] } },
{ "type": "Feature", "properties": { "lat": 35.6981627, "lon": 139.7560861, "name": "さかいやスポーツ モンベルルーム" }, "geometry": { "type": "Point", "coordinates": [ 139.7560861, 35.6981627 ] } },
{ "type": "Feature", "properties": { "lat": 35.6972543, "lon": 139.7565131, "name": "さかいやスポーツ キャンプ&クライミング館" }, "geometry": { "type": "Point", "coordinates": [ 139.7565131, 35.6972543 ] } },
{ "type": "Feature", "properties": { "lat": 35.6981172, "lon": 139.7566528, "name": "さかいやスポーツ ウェア館" }, "geometry": { "type": "Point", "coordinates": [ 139.756652800000012, 35.6981172 ] } },
{ "type": "Feature", "properties": { "lat": 35.6826212, "lon": 139.7642436, "name": "ZOY Premier(ゾーイ プレミア) 新丸の内ビルディング店" }, "geometry": { "type": "Point", "coordinates": [ 139.764243599999986, 35.6826212 ] } },
{ "type": "Feature", "properties": { "lat": 35.6814742, "lon": 139.7689286, "name": "Heal Creek & MUNITALP(ヒール クリーク アンド ムニタルプ) 大丸東京店" }, "geometry": { "type": "Point", "coordinates": [ 139.76892860000001, 35.6814742 ] } },
{ "type": "Feature", "properties": { "lat": 35.6814742, "lon": 139.7689286, "name": "ビームス ゴルフ 大丸東京店" }, "geometry": { "type": "Point", "coordinates": [ 139.76892860000001, 35.6814742 ] } },
{ "type": "Feature", "properties": { "lat": 35.6980511, "lon": 139.7567971, "name": "さかいやスポーツ シューズ館" }, "geometry": { "type": "Point", "coordinates": [ 139.7567971, 35.6980511 ] } },
{ "type": "Feature", "properties": { "lat": 35.6701719, "lon": 139.7674443, "name": "ラウレア 西銀座店" }, "geometry": { "type": "Point", "coordinates": [ 139.7674443, 35.6701719 ] } },
{ "type": "Feature", "properties": { "lat": 35.6840793, "lon": 139.7658641, "name": "Bridgestone Golf Garden Tokyo(ブリヂストン ゴルフ ガーデン トウキョウ)" }, "geometry": { "type": "Point", "coordinates": [ 139.765864099999988, 35.6840793 ] } },
{ "type": "Feature", "properties": { "lat": 35.6826212, "lon": 139.7642436, "name": "ラグビープラス カンタベリー 新丸の内ビルディング店" }, "geometry": { "type": "Point", "coordinates": [ 139.764243599999986, 35.6826212 ] } },
{ "type": "Feature", "properties": { "lat": 35.6977089, "lon": 139.7562594, "name": "さかいやスポーツ エコープラザ" }, "geometry": { "type": "Point", "coordinates": [ 139.7562594, 35.6977089 ] } },
{ "type": "Feature", "properties": { "lat": 35.6701719, "lon": 139.7674443, "name": "CW-X コンディショニングストア NISHIGINZA店" }, "geometry": { "type": "Point", "coordinates": [ 139.7674443, 35.6701719 ] } },
{ "type": "Feature", "properties": { "lat": 35.6990522, "lon": 139.7751523, "name": "ホットヨガスタジオLAVA(ラバ) 秋葉原店" }, "geometry": { "type": "Point", "coordinates": [ 139.7751523, 35.6990522 ] } },
{ "type": "Feature", "properties": { "lat": 35.6930673, "lon": 139.7746439, "name": "24/7Workout(ワークアウト) 秋葉原・神田店" }, "geometry": { "type": "Point", "coordinates": [ 139.7746439, 35.6930673 ] } },
{ "type": "Feature", "properties": { "lat": 35.6754908, "lon": 139.7647786, "name": "NEUTRALWORKS.HIBIYA(ニュートラルワークスヒビヤ) 東京ミッドタウン日比谷店" }, "geometry": { "type": "Point", "coordinates": [ 139.7647786, 35.6754908 ] } },
{ "type": "Feature", "properties": { "lat": 35.6822728, "lon": 139.7698005, "name": "THE JEXER TOKYO Annex(ジェクサー トウキョウ アネックス)" }, "geometry": { "type": "Point", "coordinates": [ 139.7698005, 35.6822728 ] } },
{ "type": "Feature", "properties": { "lat": 35.6954106, "lon": 139.7619348, "name": "H.L.N.A STORE Ochanomizu(エイチエルエヌエー ストア オチャノミズ)" }, "geometry": { "type": "Point", "coordinates": [ 139.7619348, 35.6954106 ] } },
{ "type": "Feature", "properties": { "lat": 35.6941498, "lon": 139.764418, "name": "FUSO-SNOWBOARD(フソウ スノーボード) ギア館" }, "geometry": { "type": "Point", "coordinates": [ 139.764418, 35.6941498 ] } },
{ "type": "Feature", "properties": { "lat": 35.6877518, "lon": 139.7644093, "name": "GOLFTEC(ゴルフテック) 大手町店" }, "geometry": { "type": "Point", "coordinates": [ 139.764409300000011, 35.6877518 ] } },
{ "type": "Feature", "properties": { "lat": 35.6777236, "lon": 139.7614575, "name": "Goldwin Marunouchi(ゴールドウィン丸の内)" }, "geometry": { "type": "Point", "coordinates": [ 139.7614575, 35.6777236 ] } },
{ "type": "Feature", "properties": { "lat": 35.6731283, "lon": 139.7598772, "name": "メガロス 日比谷シャンテ店" }, "geometry": { "type": "Point", "coordinates": [ 139.7598772, 35.6731283 ] } },
{ "type": "Feature", "properties": { "lat": 35.6841522, "lon": 139.7327545, "name": "上智大学真田堀運動場" }, "geometry": { "type": "Point", "coordinates": [ 139.7327545, 35.6841522 ] } },
{ "type": "Feature", "properties": { "lat": 35.6897929, "lon": 139.7679859, "name": "Body Produce AXIS 大手町店" }, "geometry": { "type": "Point", "coordinates": [ 139.767985900000014, 35.6897929 ] } },
{ "type": "Feature", "properties": { "lat": 35.7032131, "lon": 139.7726261, "name": "BICI AMORE CYCLE JERSEY(ビチ アモーレ サイクル ジャージー) 外神田店" }, "geometry": { "type": "Point", "coordinates": [ 139.7726261, 35.7032131 ] } },
{ "type": "Feature", "properties": { "lat": 35.7034782, "lon": 139.7715223, "name": "ヨガ教室ノア 秋葉原校" }, "geometry": { "type": "Point", "coordinates": [ 139.771522299999987, 35.7034782 ] } },
{ "type": "Feature", "properties": { "lat": 35.6909195, "lon": 139.7574614, "name": "Run Pit by au Smart Sports(ランピット バイ エーユー スマート スポーツ)" }, "geometry": { "type": "Point", "coordinates": [ 139.757461400000011, 35.6909195 ] } },
{ "type": "Feature", "properties": { "lat": 35.6723719, "lon": 139.754036, "name": "SPORTS STATION Hibiya Park(スポーツ ステーション ヒビヤ パーク)" }, "geometry": { "type": "Point", "coordinates": [ 139.754036, 35.6723719 ] } },
{ "type": "Feature", "properties": { "lat": 35.6940917, "lon": 139.7642096, "name": "FUSO SKI&BOOTSTUNE(フソウ スキー アンド ブーツチューン)" }, "geometry": { "type": "Point", "coordinates": [ 139.764209599999987, 35.6940917 ] } },
{ "type": "Feature", "properties": { "lat": 35.69903, "lon": 139.7648086, "name": "Dr.stretch(ドクター ストレッチ) お茶の水店" }, "geometry": { "type": "Point", "coordinates": [ 139.7648086, 35.69903 ] } },
{ "type": "Feature", "properties": { "lat": 35.6941403, "lon": 139.7643328, "name": "FUSO-SNOWBOARD(フソウ スノーボード) ウエア&アクセ館" }, "geometry": { "type": "Point", "coordinates": [ 139.7643328, 35.6941403 ] } },
{ "type": "Feature", "properties": { "lat": 35.6823687, "lon": 139.7632612, "name": "St ANDREWS(セント アンドリュース) 大丸東京店" }, "geometry": { "type": "Point", "coordinates": [ 139.763261199999988, 35.6823687 ] } },
{ "type": "Feature", "properties": { "lat": 35.6952575, "lon": 139.7621531, "name": "Goldwin(ゴールドウィン) THE NORTH FACE神田店" }, "geometry": { "type": "Point", "coordinates": [ 139.7621531, 35.6952575 ] } },
{ "type": "Feature", "properties": { "lat": 35.6814742, "lon": 139.7689286, "name": "adabat(アダバット) 大丸東京店" }, "geometry": { "type": "Point", "coordinates": [ 139.76892860000001, 35.6814742 ] } },
{ "type": "Feature", "properties": { "lat": 35.696034, "lon": 139.7696807, "name": "体育・スポーツ家庭教師ファースト 東京本社" }, "geometry": { "type": "Point", "coordinates": [ 139.7696807, 35.696034 ] } },
{ "type": "Feature", "properties": { "lat": 35.6992908, "lon": 139.7739578, "name": "BurnesStyle AKIHABARA(バーネススタイル アキハバラ)" }, "geometry": { "type": "Point", "coordinates": [ 139.7739578, 35.6992908 ] } },
{ "type": "Feature", "properties": { "lat": 35.6873201, "lon": 139.7413594, "name": "GOLF FUNP(ゴルフ ファンプ)" }, "geometry": { "type": "Point", "coordinates": [ 139.7413594, 35.6873201 ] } },
{ "type": "Feature", "properties": { "lat": 35.698917, "lon": 139.774798, "name": "Akiba Golf Studio(アキバゴルフスタジオ)" }, "geometry": { "type": "Point", "coordinates": [ 139.774798, 35.698917 ] } },
{ "type": "Feature", "properties": { "lat": 35.7002316, "lon": 139.7538779, "name": "格闘技ジム アカデミア・アーザ" }, "geometry": { "type": "Point", "coordinates": [ 139.7538779, 35.7002316 ] } },
{ "type": "Feature", "properties": { "lat": 35.6697753, "lon": 139.7588194, "name": "finetrack HIBIYA HUT(ファイントラック ヒビヤ ハット)" }, "geometry": { "type": "Point", "coordinates": [ 139.7588194, 35.6697753 ] } },
{ "type": "Feature", "properties": { "lat": 35.6947585, "lon": 139.7639938, "name": "RDC BASE(アールディーシー ベース) 神田小川町店" }, "geometry": { "type": "Point", "coordinates": [ 139.7639938, 35.6947585 ] } },
{ "type": "Feature", "properties": { "lat": 35.6998004, "lon": 139.7459431, "name": "Y personal training gym(ワイ パーソナル トレーニング ジム) ワイジム" }, "geometry": { "type": "Point", "coordinates": [ 139.7459431, 35.6998004 ] } },
{ "type": "Feature", "properties": { "lat": 35.7012894, "lon": 139.7534088, "name": "ACN GOLF RANGE(エーシーエヌ ゴルフ レンジ) 水道橋" }, "geometry": { "type": "Point", "coordinates": [ 139.753408799999988, 35.7012894 ] } },
{ "type": "Feature", "properties": { "lat": 35.6749107, "lon": 139.7647059, "name": "STEPGOLF PREMIUM YURAKUCHO(ステップゴルフ プレミアム ユウラクチョウ) 東京交通会館店" }, "geometry": { "type": "Point", "coordinates": [ 139.7647059, 35.6749107 ] } },
{ "type": "Feature", "properties": { "lat": 35.6876188, "lon": 139.7347034, "name": "MTX ACADEMY(アカデミー)" }, "geometry": { "type": "Point", "coordinates": [ 139.7347034, 35.6876188 ] } },
{ "type": "Feature", "properties": { "lat": 35.6850572, "lon": 139.7401825, "name": "キャピタルゴルフレンジ" }, "geometry": { "type": "Point", "coordinates": [ 139.7401825, 35.6850572 ] } },
{ "type": "Feature", "properties": { "lat": 35.6814742, "lon": 139.7689286, "name": "FUSO DREAM(フソウ ドリーム)工房 大丸東京店" }, "geometry": { "type": "Point", "coordinates": [ 139.76892860000001, 35.6814742 ] } },
{ "type": "Feature", "properties": { "lat": 35.6814742, "lon": 139.7689286, "name": "石井スポーツ 大丸東京店" }, "geometry": { "type": "Point", "coordinates": [ 139.76892860000001, 35.6814742 ] } },
{ "type": "Feature", "properties": { "lat": 35.6743712, "lon": 139.7614382, "name": "BEAMS&WINDS(ビームス アンド ウインズ) 有楽町" }, "geometry": { "type": "Point", "coordinates": [ 139.761438199999986, 35.6743712 ] } },
{ "type": "Feature", "properties": { "lat": 35.697133, "lon": 139.7556294, "name": "studio Body Link(スタジオ ボディ リンク)" }, "geometry": { "type": "Point", "coordinates": [ 139.7556294, 35.697133 ] } },
{ "type": "Feature", "properties": { "lat": 35.6968072, "lon": 139.7565829, "name": "AirFly TOKYO(エアフライ トウキョウ)" }, "geometry": { "type": "Point", "coordinates": [ 139.756582900000012, 35.6968072 ] } },
{ "type": "Feature", "properties": { "lat": 35.6911672, "lon": 139.7392169, "name": "WISE 1 GOLF SQUARE(ワイズワン ゴルフ スクエア) 市ヶ谷店" }, "geometry": { "type": "Point", "coordinates": [ 139.7392169, 35.6911672 ] } },
{ "type": "Feature", "properties": { "lat": 35.6960829, "lon": 139.7714579, "name": "パーソナルトレーニングジムREAL WORKOUT(リアルワークアウト) 秋葉原・神田店" }, "geometry": { "type": "Point", "coordinates": [ 139.7714579, 35.6960829 ] } },
{ "type": "Feature", "properties": { "lat": 35.67993, "lon": 139.7392827, "name": "永田町パーソナルジムObito(オビト)" }, "geometry": { "type": "Point", "coordinates": [ 139.7392827, 35.67993 ] } },
{ "type": "Feature", "properties": { "lat": 35.6942062, "lon": 139.7592182, "name": "LoungeRange(ラウンジレンジ) 神保町" }, "geometry": { "type": "Point", "coordinates": [ 139.7592182, 35.6942062 ] } },
{ "type": "Feature", "properties": { "lat": 35.693044, "lon": 139.7719072, "name": "Apple GYM(アップルジム) 神田店" }, "geometry": { "type": "Point", "coordinates": [ 139.771907199999987, 35.693044 ] } },
{ "type": "Feature", "properties": { "lat": 35.7005014, "lon": 139.7751358, "name": "Apple GYM(アップルジム) 秋葉原店" }, "geometry": { "type": "Point", "coordinates": [ 139.775135799999987, 35.7005014 ] } },
{ "type": "Feature", "properties": { "lat": 35.6940764, "lon": 139.7727593, "name": "ゴルフパフォーマンス 神田店" }, "geometry": { "type": "Point", "coordinates": [ 139.7727593, 35.6940764 ] } },
{ "type": "Feature", "properties": { "lat": 35.6953144, "lon": 139.7764243, "name": "ゴルフパフォーマンス 秋葉原店" }, "geometry": { "type": "Point", "coordinates": [ 139.7764243, 35.6953144 ] } },
{ "type": "Feature", "properties": { "lat": 35.7024894, "lon": 139.77015, "name": "パーソナルトレーニングジム ティーバランス秋葉原店" }, "geometry": { "type": "Point", "coordinates": [ 139.77015, 35.7024894 ] } },
{ "type": "Feature", "properties": { "lat": 35.7004005, "lon": 139.7481987, "name": "メビウスフィットネス" }, "geometry": { "type": "Point", "coordinates": [ 139.748198699999989, 35.7004005 ] } },
{ "type": "Feature", "properties": { "lat": 35.6947746, "lon": 139.7633382, "name": "スノーボードショップ MDS" }, "geometry": { "type": "Point", "coordinates": [ 139.7633382, 35.6947746 ] } },
{ "type": "Feature", "properties": { "lat": 35.6900242, "lon": 139.7719571, "name": "株式会社本間ゴルフ神田店" }, "geometry": { "type": "Point", "coordinates": [ 139.7719571, 35.6900242 ] } },
{ "type": "Feature", "properties": { "lat": 35.6952403, "lon": 139.7636306, "name": "ワンゲルスポーツ" }, "geometry": { "type": "Point", "coordinates": [ 139.7636306, 35.6952403 ] } },
{ "type": "Feature", "properties": { "lat": 35.6941517, "lon": 139.7629944, "name": "THESUNS" }, "geometry": { "type": "Point", "coordinates": [ 139.7629944, 35.6941517 ] } },
{ "type": "Feature", "properties": { "lat": 35.7004006, "lon": 139.7472605, "name": "極真会館飯田橋道場" }, "geometry": { "type": "Point", "coordinates": [ 139.74726050000001, 35.7004006 ] } },
{ "type": "Feature", "properties": { "lat": 35.7004272, "lon": 139.7752721, "name": "THE PERSONAL GYM(ザ パーソナル ジム) 秋葉原" }, "geometry": { "type": "Point", "coordinates": [ 139.7752721, 35.7004272 ] } },
{ "type": "Feature", "properties": { "lat": 35.6960443, "lon": 139.7666224, "name": "The Golf House御茶ノ水" }, "geometry": { "type": "Point", "coordinates": [ 139.766622399999989, 35.6960443 ] } },
{ "type": "Feature", "properties": { "lat": 35.6964899, "lon": 139.7818926, "name": "Pilates Mee(ピラティスミー) 浅草橋店" }, "geometry": { "type": "Point", "coordinates": [ 139.7818926, 35.6964899 ] } },
{ "type": "Feature", "properties": { "lat": 35.6915719, "lon": 139.7737362, "name": "パーソナルジムVIBRUN(ヴィーブラン) 神田店" }, "geometry": { "type": "Point", "coordinates": [ 139.7737362, 35.6915719 ] } },
{ "type": "Feature", "properties": { "lat": 35.6821335, "lon": 139.7384012, "name": "HYPERION GOLF STUDIO(ヒューぺリオン ゴルフ スタジオ) 麹町店" }, "geometry": { "type": "Point", "coordinates": [ 139.7384012, 35.6821335 ] } },
{ "type": "Feature", "properties": { "lat": 35.6917551, "lon": 139.7401047, "name": "クラヴマガ・ジャパン 市ヶ谷トレーニングセンター" }, "geometry": { "type": "Point", "coordinates": [ 139.740104699999989, 35.6917551 ] } },
{ "type": "Feature", "properties": { "lat": 35.6891407, "lon": 139.7675921, "name": "千代田区立スポーツセンター弓道場" }, "geometry": { "type": "Point", "coordinates": [ 139.7675921, 35.6891407 ] } },
{ "type": "Feature", "properties": { "lat": 35.6903762, "lon": 139.7441268, "name": "セントラルスポーツジム24三番町" }, "geometry": { "type": "Point", "coordinates": [ 139.7441268, 35.6903762 ] } },
{ "type": "Feature", "properties": { "lat": 35.682111, "lon": 139.7691588, "name": "Fitness Lounge THE JEXER TOKYO" }, "geometry": { "type": "Point", "coordinates": [ 139.769158800000014, 35.682111 ] } },
{ "type": "Feature", "properties": { "lat": 35.69596, "lon": 139.7715041, "name": "PHOENIXキックボクシング&ムエタイジム" }, "geometry": { "type": "Point", "coordinates": [ 139.771504099999987, 35.69596 ] } },
{ "type": "Feature", "properties": { "lat": 35.7015958, "lon": 139.7514991, "name": "フィットネスショップ水道橋店" }, "geometry": { "type": "Point", "coordinates": [ 139.7514991, 35.7015958 ] } },
{ "type": "Feature", "properties": { "lat": 35.6990089, "lon": 139.749013, "name": "山田吉邦弓具店" }, "geometry": { "type": "Point", "coordinates": [ 139.749013, 35.6990089 ] } },
{ "type": "Feature", "properties": { "lat": 35.6927017, "lon": 139.7727759, "name": "アナライズ神田スタジオ" }, "geometry": { "type": "Point", "coordinates": [ 139.7727759, 35.6927017 ] } },
{ "type": "Feature", "properties": { "lat": 35.6927883, "lon": 139.7704196, "name": "村井スポーツ株式会社" }, "geometry": { "type": "Point", "coordinates": [ 139.7704196, 35.6927883 ] } },
{ "type": "Feature", "properties": { "lat": 35.6949582, "lon": 139.7635774, "name": "リバティ" }, "geometry": { "type": "Point", "coordinates": [ 139.7635774, 35.6949582 ] } },
{ "type": "Feature", "properties": { "lat": 35.6988677, "lon": 139.761095, "name": "トレードウインドマリーン" }, "geometry": { "type": "Point", "coordinates": [ 139.761095, 35.6988677 ] } },
{ "type": "Feature", "properties": { "lat": 35.6720448, "lon": 139.7422575, "name": "フレンドシップカントリークラブ" }, "geometry": { "type": "Point", "coordinates": [ 139.7422575, 35.6720448 ] } },
{ "type": "Feature", "properties": { "lat": 35.6946447, "lon": 139.7629847, "name": "スノーボードショップ SELECT" }, "geometry": { "type": "Point", "coordinates": [ 139.7629847, 35.6946447 ] } },
{ "type": "Feature", "properties": { "lat": 35.6978403, "lon": 139.7628117, "name": "東京YWCA(公益財団法人)フィットネスワオ" }, "geometry": { "type": "Point", "coordinates": [ 139.762811699999986, 35.6978403 ] } },
{ "type": "Feature", "properties": { "lat": 35.6946176, "lon": 139.7643204, "name": "ヒワラニ" }, "geometry": { "type": "Point", "coordinates": [ 139.7643204, 35.6946176 ] } },
{ "type": "Feature", "properties": { "lat": 35.6955046, "lon": 139.7628023, "name": "スポーツオーパ、ハング・パラスクール" }, "geometry": { "type": "Point", "coordinates": [ 139.7628023, 35.6955046 ] } },
{ "type": "Feature", "properties": { "lat": 35.7017259, "lon": 139.7514066, "name": "レックゴルフスクール水道橋" }, "geometry": { "type": "Point", "coordinates": [ 139.7514066, 35.7017259 ] } },
{ "type": "Feature", "properties": { "lat": 35.6984735, "lon": 139.7697901, "name": "N・Sゴルフスクール秋葉原スタジオ" }, "geometry": { "type": "Point", "coordinates": [ 139.7697901, 35.6984735 ] } },
{ "type": "Feature", "properties": { "lat": 35.6953781, "lon": 139.7594578, "name": "加圧リハビット" }, "geometry": { "type": "Point", "coordinates": [ 139.7594578, 35.6953781 ] } },
{ "type": "Feature", "properties": { "lat": 35.6922164, "lon": 139.7412942, "name": "インドアゴルフ坂の上" }, "geometry": { "type": "Point", "coordinates": [ 139.7412942, 35.6922164 ] } },
{ "type": "Feature", "properties": { "lat": 35.6950479, "lon": 139.7654292, "name": "フィッシャーチューニングベーストウキョウ" }, "geometry": { "type": "Point", "coordinates": [ 139.7654292, 35.6950479 ] } },
{ "type": "Feature", "properties": { "lat": 35.682111, "lon": 139.7691588, "name": "スリースターゴルフスタジオ" }, "geometry": { "type": "Point", "coordinates": [ 139.769158800000014, 35.682111 ] } },
{ "type": "Feature", "properties": { "lat": 35.6948887, "lon": 139.7631115, "name": "東京ナビゲーション" }, "geometry": { "type": "Point", "coordinates": [ 139.7631115, 35.6948887 ] } },
{ "type": "Feature", "properties": { "lat": 35.6937795, "lon": 139.7645491, "name": "ロンドンスポーツ神田テラス店" }, "geometry": { "type": "Point", "coordinates": [ 139.764549100000011, 35.6937795 ] } },
{ "type": "Feature", "properties": { "lat": 35.6980872, "lon": 139.7498954, "name": "パーソナルスタジオBee" }, "geometry": { "type": "Point", "coordinates": [ 139.749895400000014, 35.6980872 ] } },
{ "type": "Feature", "properties": { "lat": 35.6978333, "lon": 139.777992, "name": "バドミントンショップウエンブレー秋葉原店" }, "geometry": { "type": "Point", "coordinates": [ 139.777992, 35.6978333 ] } },
{ "type": "Feature", "properties": { "lat": 35.6966797, "lon": 139.760126, "name": "BoogieWonderFitnessClub." }, "geometry": { "type": "Point", "coordinates": [ 139.760126, 35.6966797 ] } },
{ "type": "Feature", "properties": { "lat": 35.6834261, "lon": 139.7404343, "name": "ゴルフ医科学研究所" }, "geometry": { "type": "Point", "coordinates": [ 139.7404343, 35.6834261 ] } },
{ "type": "Feature", "properties": { "lat": 35.6935011, "lon": 139.7499598, "name": "日本武道館(公益財団法人) 当日行事の問い合せ" }, "geometry": { "type": "Point", "coordinates": [ 139.7499598, 35.6935011 ] } },
{ "type": "Feature", "properties": { "lat": 35.6987785, "lon": 139.7558905, "name": "わたしのゴルフ水道橋店" }, "geometry": { "type": "Point", "coordinates": [ 139.7558905, 35.6987785 ] } },
{ "type": "Feature", "properties": { "lat": 35.6957055, "lon": 139.7635213, "name": "GymSecureBase" }, "geometry": { "type": "Point", "coordinates": [ 139.7635213, 35.6957055 ] } },
{ "type": "Feature", "properties": { "lat": 35.6860012, "lon": 139.7671055, "name": "TOKYOSPINEBOX" }, "geometry": { "type": "Point", "coordinates": [ 139.767105500000014, 35.6860012 ] } },
{ "type": "Feature", "properties": { "lat": 35.6933958, "lon": 139.7740147, "name": "BaffyGolf" }, "geometry": { "type": "Point", "coordinates": [ 139.7740147, 35.6933958 ] } },
{ "type": "Feature", "properties": { "lat": 35.687441, "lon": 139.7357305, "name": "ビヨンド(BEYOND)四ツ谷麹町店" }, "geometry": { "type": "Point", "coordinates": [ 139.735730499999988, 35.687441 ] } },
{ "type": "Feature", "properties": { "lat": 35.7035794, "lon": 139.7724664, "name": "PlusOne秋葉原店" }, "geometry": { "type": "Point", "coordinates": [ 139.772466400000013, 35.7035794 ] } },
{ "type": "Feature", "properties": { "lat": 35.6715185, "lon": 139.7618536, "name": "テーラーメイド 銀座" }, "geometry": { "type": "Point", "coordinates": [ 139.7618536, 35.6715185 ] } },
{ "type": "Feature", "properties": { "lat": 35.6878017, "lon": 139.7893553, "name": "中央区総合スポーツセンター" }, "geometry": { "type": "Point", "coordinates": [ 139.789355300000011, 35.6878017 ] } },
{ "type": "Feature", "properties": { "lat": 35.6688879, "lon": 139.762275, "name": "Onitsuka Tiger GINZA(オニツカタイガー銀座)" }, "geometry": { "type": "Point", "coordinates": [ 139.762275, 35.6688879 ] } },
{ "type": "Feature", "properties": { "lat": 35.6713729, "lon": 139.7682031, "name": "New Balance GINZA(ニューバランス銀座)" }, "geometry": { "type": "Point", "coordinates": [ 139.7682031, 35.6713729 ] } },
{ "type": "Feature", "properties": { "lat": 35.6726299, "lon": 139.7614943, "name": "FEELCYCLE(フィールサイクル) 銀座店" }, "geometry": { "type": "Point", "coordinates": [ 139.76149430000001, 35.6726299 ] } },
{ "type": "Feature", "properties": { "lat": 35.6756807, "lon": 139.7664122, "name": "ゴールドジム 銀座東京" }, "geometry": { "type": "Point", "coordinates": [ 139.7664122, 35.6756807 ] } },
{ "type": "Feature", "properties": { "lat": 35.6766354, "lon": 139.769666, "name": "パタゴニア 東京・京橋" }, "geometry": { "type": "Point", "coordinates": [ 139.769666, 35.6766354 ] } },
{ "type": "Feature", "properties": { "lat": 35.6696215, "lon": 139.7593626, "name": "ASICS TOKYO GINZA(アシックス東京銀座)" }, "geometry": { "type": "Point", "coordinates": [ 139.7593626, 35.6696215 ] } },
{ "type": "Feature", "properties": { "lat": 35.6720668, "lon": 139.7656503, "name": "Onitsuka Tiger GINZA RED CONCEPT STORE(オニツカタイガー銀座レッドコンセプトストア)" }, "geometry": { "type": "Point", "coordinates": [ 139.7656503, 35.6720668 ] } },
{ "type": "Feature", "properties": { "lat": 35.6650432, "lon": 139.7829412, "name": "月島スポーツプラザ" }, "geometry": { "type": "Point", "coordinates": [ 139.78294120000001, 35.6650432 ] } },
{ "type": "Feature", "properties": { "lat": 35.6732328, "lon": 139.764609, "name": "Nike Ginza(ナイキ銀座)" }, "geometry": { "type": "Point", "coordinates": [ 139.764609, 35.6732328 ] } },
{ "type": "Feature", "properties": { "lat": 35.6757653, "lon": 139.7699835, "name": "FEELCYCLE(フィールサイクル) 銀座京橋" }, "geometry": { "type": "Point", "coordinates": [ 139.7699835, 35.6757653 ] } },
{ "type": "Feature", "properties": { "lat": 35.6722667, "lon": 139.7649738, "name": "jump one Ginza.4(ジャンプ ワン ギンザフォー)" }, "geometry": { "type": "Point", "coordinates": [ 139.7649738, 35.6722667 ] } },
{ "type": "Feature", "properties": { "lat": 35.6725473, "lon": 139.7646888, "name": "On Flagship Store Tokyo Ginza(オンフラッグシップストア東京銀座)" }, "geometry": { "type": "Point", "coordinates": [ 139.764688799999988, 35.6725473 ] } },
{ "type": "Feature", "properties": { "lat": 35.6726342, "lon": 139.7654213, "name": "ゴールドジム 銀座中央" }, "geometry": { "type": "Point", "coordinates": [ 139.765421300000014, 35.6726342 ] } },
{ "type": "Feature", "properties": { "lat": 35.6896352, "lon": 139.7723066, "name": "ゴルフパートナー 日本橋室町店" }, "geometry": { "type": "Point", "coordinates": [ 139.7723066, 35.6896352 ] } },
{ "type": "Feature", "properties": { "lat": 35.6816953, "lon": 139.7718206, "name": "つるやゴルフ 八重洲店" }, "geometry": { "type": "Point", "coordinates": [ 139.771820600000012, 35.6816953 ] } },
{ "type": "Feature", "properties": { "lat": 35.6763901, "lon": 139.7720079, "name": "ゴルフパートナー 宝町昭和通り店" }, "geometry": { "type": "Point", "coordinates": [ 139.7720079, 35.6763901 ] } },
{ "type": "Feature", "properties": { "lat": 35.6490356, "lon": 139.7741538, "name": "中央区立晴海運動場" }, "geometry": { "type": "Point", "coordinates": [ 139.7741538, 35.6490356 ] } },
{ "type": "Feature", "properties": { "lat": 35.6837241, "lon": 139.7891713, "name": "ととけん" }, "geometry": { "type": "Point", "coordinates": [ 139.7891713, 35.6837241 ] } },
{ "type": "Feature", "properties": { "lat": 35.674896, "lon": 139.7755166, "name": "京華スクエア" }, "geometry": { "type": "Point", "coordinates": [ 139.7755166, 35.674896 ] } },
{ "type": "Feature", "properties": { "lat": 35.673214, "lon": 139.7653677, "name": "ホットヨガスタジオLAVA(ラバ) 銀座本店" }, "geometry": { "type": "Point", "coordinates": [ 139.765367700000013, 35.673214 ] } },
{ "type": "Feature", "properties": { "lat": 35.6536454, "lon": 139.7716399, "name": "豊海テニス場" }, "geometry": { "type": "Point", "coordinates": [ 139.7716399, 35.6536454 ] } },
{ "type": "Feature", "properties": { "lat": 35.6686523, "lon": 139.7613732, "name": "カルドGINZA9" }, "geometry": { "type": "Point", "coordinates": [ 139.7613732, 35.6686523 ] } },
{ "type": "Feature", "properties": { "lat": 35.6802223, "lon": 139.7692184, "name": "Dr.(ドクター)ストレッチ ヤエチカ店" }, "geometry": { "type": "Point", "coordinates": [ 139.7692184, 35.6802223 ] } },
{ "type": "Feature", "properties": { "lat": 35.6722667, "lon": 139.7649738, "name": "PLA YGROUND(プレイ グラウンド) 銀座" }, "geometry": { "type": "Point", "coordinates": [ 139.7649738, 35.6722667 ] } },
{ "type": "Feature", "properties": { "lat": 35.6736479, "lon": 139.7671505, "name": "フィットネススタジオ サーフフィット 銀座本店" }, "geometry": { "type": "Point", "coordinates": [ 139.767150500000014, 35.6736479 ] } },
{ "type": "Feature", "properties": { "lat": 35.6894963, "lon": 139.7738842, "name": "ダイビングスクール マレア東京" }, "geometry": { "type": "Point", "coordinates": [ 139.7738842, 35.6894963 ] } },
{ "type": "Feature", "properties": { "lat": 35.673677, "lon": 139.7792341, "name": "桜川ゲートボール場" }, "geometry": { "type": "Point", "coordinates": [ 139.7792341, 35.673677 ] } },
{ "type": "Feature", "properties": { "lat": 35.6815246, "lon": 139.7717375, "name": "パパラギダイビングスクール東京" }, "geometry": { "type": "Point", "coordinates": [ 139.7717375, 35.6815246 ] } },
{ "type": "Feature", "properties": { "lat": 35.6680673, "lon": 139.7730239, "name": "FASTGYM24 築地店" }, "geometry": { "type": "Point", "coordinates": [ 139.7730239, 35.6680673 ] } },
{ "type": "Feature", "properties": { "lat": 35.6858459, "lon": 139.781924, "name": "FASTGYM24 人形町店" }, "geometry": { "type": "Point", "coordinates": [ 139.781924, 35.6858459 ] } },
{ "type": "Feature", "properties": { "lat": 35.6744556, "lon": 139.7775762, "name": "FASTGYM24 八丁堀店" }, "geometry": { "type": "Point", "coordinates": [ 139.7775762, 35.6744556 ] } },
{ "type": "Feature", "properties": { "lat": 35.6864105, "lon": 139.7764104, "name": "エニタイムフィットネス 日本橋本町店" }, "geometry": { "type": "Point", "coordinates": [ 139.7764104, 35.6864105 ] } },
{ "type": "Feature", "properties": { "lat": 35.6953949, "lon": 139.7822744, "name": "エニタイムフィットネス 日本橋馬喰町店" }, "geometry": { "type": "Point", "coordinates": [ 139.7822744, 35.6953949 ] } },
{ "type": "Feature", "properties": { "lat": 35.6757736, "lon": 139.7758221, "name": "エニタイムフィットネス 八丁堀店" }, "geometry": { "type": "Point", "coordinates": [ 139.7758221, 35.6757736 ] } },
{ "type": "Feature", "properties": { "lat": 35.6670022, "lon": 139.7656672, "name": "エニタイムフィットネス 東銀座店" }, "geometry": { "type": "Point", "coordinates": [ 139.7656672, 35.6670022 ] } },
{ "type": "Feature", "properties": { "lat": 35.6848096, "lon": 139.7883481, "name": "エニタイムフィットネス 日本橋浜町店" }, "geometry": { "type": "Point", "coordinates": [ 139.7883481, 35.6848096 ] } },
{ "type": "Feature", "properties": { "lat": 35.6730537, "lon": 139.7767403, "name": "chocoZAP(チョコザップ) 入船一丁目" }, "geometry": { "type": "Point", "coordinates": [ 139.7767403, 35.6730537 ] } },
{ "type": "Feature", "properties": { "lat": 35.6584221, "lon": 139.782554, "name": "chocoZAP(チョコザップ) 中央晴海" }, "geometry": { "type": "Point", "coordinates": [ 139.782554, 35.6584221 ] } },
{ "type": "Feature", "properties": { "lat": 35.6825753, "lon": 139.7808454, "name": "chocoZAP(チョコザップ) 日本橋小網町" }, "geometry": { "type": "Point", "coordinates": [ 139.7808454, 35.6825753 ] } },
{ "type": "Feature", "properties": { "lat": 35.6701827, "lon": 139.7756469, "name": "chocoZAP(チョコザップ) 新富町" }, "geometry": { "type": "Point", "coordinates": [ 139.7756469, 35.6701827 ] } },
{ "type": "Feature", "properties": { "lat": 35.6745099, "lon": 139.7734349, "name": "chocoZAP(チョコザップ) 八丁堀" }, "geometry": { "type": "Point", "coordinates": [ 139.773434900000012, 35.6745099 ] } },
{ "type": "Feature", "properties": { "lat": 35.6927234, "lon": 139.7829551, "name": "chocoZAP(チョコザップ) 馬喰横山" }, "geometry": { "type": "Point", "coordinates": [ 139.7829551, 35.6927234 ] } },
{ "type": "Feature", "properties": { "lat": 35.6835756, "lon": 139.7844031, "name": "chocoZAP(チョコザップ) 水天宮前" }, "geometry": { "type": "Point", "coordinates": [ 139.7844031, 35.6835756 ] } },
{ "type": "Feature", "properties": { "lat": 35.6727317, "lon": 139.7673478, "name": "アディダス ブランドコアストア 銀座" }, "geometry": { "type": "Point", "coordinates": [ 139.76734780000001, 35.6727317 ] } },
{ "type": "Feature", "properties": { "lat": 35.6694655, "lon": 139.7642496, "name": "PGG GINZA SIX店" }, "geometry": { "type": "Point", "coordinates": [ 139.7642496, 35.6694655 ] } },
{ "type": "Feature", "properties": { "lat": 35.6713707, "lon": 139.7642956, "name": "Onitsuka Tiger GINZA YELLOW CONCEPT STORE(オニツカタイガー銀座イエローコンセプトストア)" }, "geometry": { "type": "Point", "coordinates": [ 139.7642956, 35.6713707 ] } },
{ "type": "Feature", "properties": { "lat": 35.6694655, "lon": 139.7642496, "name": "A.P.C. GOLF(アー ペー セー ゴルフ) GINZA SIX店" }, "geometry": { "type": "Point", "coordinates": [ 139.7642496, 35.6694655 ] } },
{ "type": "Feature", "properties": { "lat": 35.6694655, "lon": 139.7642496, "name": "CRONOS(クロノス) GINZA SIX店" }, "geometry": { "type": "Point", "coordinates": [ 139.7642496, 35.6694655 ] } },
{ "type": "Feature", "properties": { "lat": 35.6726299, "lon": 139.7614943, "name": "chocoZAP(チョコザップ) 銀座ファイブ" }, "geometry": { "type": "Point", "coordinates": [ 139.76149430000001, 35.6726299 ] } },
{ "type": "Feature", "properties": { "lat": 35.6744556, "lon": 139.7775762, "name": "ファストジム24八丁堀店" }, "geometry": { "type": "Point", "coordinates": [ 139.7775762, 35.6744556 ] } },
{ "type": "Feature", "properties": { "lat": 35.6858459, "lon": 139.781924, "name": "ファストジム24人形町店" }, "geometry": { "type": "Point", "coordinates": [ 139.781924, 35.6858459 ] } },
{ "type": "Feature", "properties": { "lat": 35.6680673, "lon": 139.7730239, "name": "ファストジム24築地店" }, "geometry": { "type": "Point", "coordinates": [ 139.7730239, 35.6680673 ] } },
{ "type": "Feature", "properties": { "lat": 35.6766972, "lon": 139.7795871, "name": "svaha(スヴァーハ)" }, "geometry": { "type": "Point", "coordinates": [ 139.779587099999986, 35.6766972 ] } },
{ "type": "Feature", "properties": { "lat": 35.6753419, "lon": 139.7654228, "name": "STUDIO TOU(スタジオ トゥーユー) 東京銀座" }, "geometry": { "type": "Point", "coordinates": [ 139.76542280000001, 35.6753419 ] } },
{ "type": "Feature", "properties": { "lat": 35.6878472, "lon": 139.7800851, "name": "Bforce Golf Range(ビーフォース ゴルフ レンジ)" }, "geometry": { "type": "Point", "coordinates": [ 139.7800851, 35.6878472 ] } },
{ "type": "Feature", "properties": { "lat": 35.6682648, "lon": 139.7622231, "name": "YA-MAN the store GINZA(ヤーマンザストア銀座)" }, "geometry": { "type": "Point", "coordinates": [ 139.7622231, 35.6682648 ] } },
{ "type": "Feature", "properties": { "lat": 35.6720616, "lon": 139.7624926, "name": "WellU Studio Ginza(ウェル スタジオ ギンザ) GinzaNovo店" }, "geometry": { "type": "Point", "coordinates": [ 139.7624926, 35.6720616 ] } },
{ "type": "Feature", "properties": { "lat": 35.6694655, "lon": 139.7642496, "name": "TFW49(フォーティーナイン) GINZA SIX店" }, "geometry": { "type": "Point", "coordinates": [ 139.7642496, 35.6694655 ] } },
{ "type": "Feature", "properties": { "lat": 35.6512699, "lon": 139.7743843, "name": "晴海indoorカントリークラブ" }, "geometry": { "type": "Point", "coordinates": [ 139.7743843, 35.6512699 ] } },
{ "type": "Feature", "properties": { "lat": 35.6711578, "lon": 139.7612447, "name": "CPG GOLF(ゴルフ)銀座" }, "geometry": { "type": "Point", "coordinates": [ 139.7612447, 35.6711578 ] } },
{ "type": "Feature", "properties": { "lat": 35.6694655, "lon": 139.7642496, "name": "G/FORE(フォア) GINZA SIX店" }, "geometry": { "type": "Point", "coordinates": [ 139.7642496, 35.6694655 ] } },
{ "type": "Feature", "properties": { "lat": 35.6512699, "lon": 139.7743843, "name": "FitLAnd TOKYO DOME(フィットランド東京ドーム)" }, "geometry": { "type": "Point", "coordinates": [ 139.7743843, 35.6512699 ] } },
{ "type": "Feature", "properties": { "lat": 35.6815246, "lon": 139.7717375, "name": "zen place pilates(ゼン プレイス ピラティス) 八重洲スタジオ" }, "geometry": { "type": "Point", "coordinates": [ 139.7717375, 35.6815246 ] } },
{ "type": "Feature", "properties": { "lat": 35.6536454, "lon": 139.7810277, "name": "Campo Real Madrid(カンポ レアル マドリード)" }, "geometry": { "type": "Point", "coordinates": [ 139.78102770000001, 35.6536454 ] } },
{ "type": "Feature", "properties": { "lat": 35.6589273, "lon": 139.77505, "name": "正心道空手 勝どき道場" }, "geometry": { "type": "Point", "coordinates": [ 139.77505, 35.6589273 ] } },
{ "type": "Feature", "properties": { "lat": 35.6802223, "lon": 139.7692184, "name": "エクササイズコーチ ヤエチカ店" }, "geometry": { "type": "Point", "coordinates": [ 139.7692184, 35.6802223 ] } },
{ "type": "Feature", "properties": { "lat": 35.6701719, "lon": 139.7674443, "name": "ウエルネス ハブストア トキョウ NISHIGINZA店" }, "geometry": { "type": "Point", "coordinates": [ 139.7674443, 35.6701719 ] } },
{ "type": "Feature", "properties": { "lat": 35.689736, "lon": 139.7802716, "name": "BEAT PILATES(ビートピラティス) 小伝馬町店" }, "geometry": { "type": "Point", "coordinates": [ 139.7802716, 35.689736 ] } },
{ "type": "Feature", "properties": { "lat": 35.6727692, "lon": 139.7651081, "name": "zen place pilates(ゼン プレイス ピラティス) 銀座二丁目" }, "geometry": { "type": "Point", "coordinates": [ 139.7651081, 35.6727692 ] } },
{ "type": "Feature", "properties": { "lat": 35.695698, "lon": 139.7842032, "name": "TOKYO WHEELS Tokyo(トウキョウ ウィールズ トウキョウ)" }, "geometry": { "type": "Point", "coordinates": [ 139.7842032, 35.695698 ] } },
{ "type": "Feature", "properties": { "lat": 35.6791646, "lon": 139.7711925, "name": "PACEFIT(パーチェフィット)" }, "geometry": { "type": "Point", "coordinates": [ 139.771192500000012, 35.6791646 ] } },
{ "type": "Feature", "properties": { "lat": 35.6645825, "lon": 139.7819925, "name": "パーソナルジムWELL-FIT(ウェルフィット) 月島店" }, "geometry": { "type": "Point", "coordinates": [ 139.7819925, 35.6645825 ] } },
{ "type": "Feature", "properties": { "lat": 35.664745, "lon": 139.7835403, "name": "ホットヨガスタジオLAVA(ラバ) 月島店" }, "geometry": { "type": "Point", "coordinates": [ 139.7835403, 35.664745 ] } },
{ "type": "Feature", "properties": { "lat": 35.6725473, "lon": 139.7646888, "name": "ミットネス 銀座店" }, "geometry": { "type": "Point", "coordinates": [ 139.764688799999988, 35.6725473 ] } },
{ "type": "Feature", "properties": { "lat": 35.6940909, "lon": 139.7821151, "name": "Run boys! Run girls!(ラン ボーイズ ラン ガールズ)" }, "geometry": { "type": "Point", "coordinates": [ 139.7821151, 35.6940909 ] } },
{ "type": "Feature", "properties": { "lat": 35.6673966, "lon": 139.7638607, "name": "ライザップ 汐留店" }, "geometry": { "type": "Point", "coordinates": [ 139.7638607, 35.6673966 ] } },
{ "type": "Feature", "properties": { "lat": 35.670888, "lon": 139.7668477, "name": "GOLFTEC(ゴルフテック) 銀座ANNEX店" }, "geometry": { "type": "Point", "coordinates": [ 139.7668477, 35.670888 ] } },
{ "type": "Feature", "properties": { "lat": 35.6691057, "lon": 139.768844, "name": "ファイテンショップ 銀座店" }, "geometry": { "type": "Point", "coordinates": [ 139.768844, 35.6691057 ] } },
{ "type": "Feature", "properties": { "lat": 35.6721335, "lon": 139.7689818, "name": "ライザップ 銀座店" }, "geometry": { "type": "Point", "coordinates": [ 139.7689818, 35.6721335 ] } },
{ "type": "Feature", "properties": { "lat": 35.6669425, "lon": 139.7784923, "name": "東急スポーツオアシス聖路加ガーデン店" }, "geometry": { "type": "Point", "coordinates": [ 139.778492300000011, 35.6669425 ] } },
{ "type": "Feature", "properties": { "lat": 35.6696169, "lon": 139.7653156, "name": "SKY GOLF SCHOOL(スカイ ゴルフ スクール)" }, "geometry": { "type": "Point", "coordinates": [ 139.7653156, 35.6696169 ] } },
{ "type": "Feature", "properties": { "lat": 35.6727692, "lon": 139.7651081, "name": "PRGR GINZA(プロギア ギンザ)" }, "geometry": { "type": "Point", "coordinates": [ 139.7651081, 35.6727692 ] } },
{ "type": "Feature", "properties": { "lat": 35.6786479, "lon": 139.7832658, "name": "パーソナルジム TRAINEES(トレーニーズ) 八丁堀・茅場町スタジオ" }, "geometry": { "type": "Point", "coordinates": [ 139.7832658, 35.6786479 ] } },
{ "type": "Feature", "properties": { "lat": 35.6686073, "lon": 139.7634224, "name": "UNDEUX SUPERBODY(アンドゥ スーパーボディ) 銀座seven店" }, "geometry": { "type": "Point", "coordinates": [ 139.7634224, 35.6686073 ] } },
{ "type": "Feature", "properties": { "lat": 35.6759537, "lon": 139.768802, "name": "亀田京橋スポーツ医科学センター 東京スクエアガーデン店" }, "geometry": { "type": "Point", "coordinates": [ 139.768802, 35.6759537 ] } },
{ "type": "Feature", "properties": { "lat": 35.6840425, "lon": 139.7865711, "name": "パーソナルジム TRALIA(トラリア) 水天宮前店" }, "geometry": { "type": "Point", "coordinates": [ 139.7865711, 35.6840425 ] } },
{ "type": "Feature", "properties": { "lat": 35.6732328, "lon": 139.764609, "name": "ホットヨガスタジオLAVA(ラバ) ギンザグラッセ店" }, "geometry": { "type": "Point", "coordinates": [ 139.764609, 35.6732328 ] } },
{ "type": "Feature", "properties": { "lat": 35.6618317, "lon": 139.7806343, "name": "Fit Bit(フィット ビット) 月島店" }, "geometry": { "type": "Point", "coordinates": [ 139.7806343, 35.6618317 ] } },
{ "type": "Feature", "properties": { "lat": 35.6856332, "lon": 139.7734296, "name": "乗馬サロン ピアッフェ 日本橋三越本店" }, "geometry": { "type": "Point", "coordinates": [ 139.773429599999986, 35.6856332 ] } },
{ "type": "Feature", "properties": { "lat": 35.6691381, "lon": 139.7863765, "name": "フィットネス&スパNAS(ナス) リバーシティ21" }, "geometry": { "type": "Point", "coordinates": [ 139.786376499999989, 35.6691381 ] } },
{ "type": "Feature", "properties": { "lat": 35.6808238, "lon": 139.7734349, "name": "M・Uスポーツ 高島屋東京店" }, "geometry": { "type": "Point", "coordinates": [ 139.773434900000012, 35.6808238 ] } },
{ "type": "Feature", "properties": { "lat": 35.6730015, "lon": 139.7736545, "name": "PREMIUM LIFE FITNESS(プレミアム ライフ フィットネス) 東銀座店" }, "geometry": { "type": "Point", "coordinates": [ 139.7736545, 35.6730015 ] } },
{ "type": "Feature", "properties": { "lat": 35.6822773, "lon": 139.7767989, "name": "ライザップゴルフ 日本橋店" }, "geometry": { "type": "Point", "coordinates": [ 139.776798899999989, 35.6822773 ] } },
{ "type": "Feature", "properties": { "lat": 35.6694655, "lon": 139.7642496, "name": "the HOUSE(ザ ハウス) GINZA SIX店" }, "geometry": { "type": "Point", "coordinates": [ 139.7642496, 35.6694655 ] } },
{ "type": "Feature", "properties": { "lat": 35.6716281, "lon": 139.7637047, "name": "Munsingwear CLUBHOUSE GINZA(マンシングウェア クラブハウス ギンザ)" }, "geometry": { "type": "Point", "coordinates": [ 139.7637047, 35.6716281 ] } },
{ "type": "Feature", "properties": { "lat": 35.6808238, "lon": 139.7734349, "name": "adabat(アダバット) 日本橋タカシマヤ店" }, "geometry": { "type": "Point", "coordinates": [ 139.773434900000012, 35.6808238 ] } },
{ "type": "Feature", "properties": { "lat": 35.6851969, "lon": 139.7829611, "name": "櫻井ゴルフスタジオ" }, "geometry": { "type": "Point", "coordinates": [ 139.7829611, 35.6851969 ] } },
{ "type": "Feature", "properties": { "lat": 35.6808238, "lon": 139.7734349, "name": "アンパスィ 日本橋高島屋店" }, "geometry": { "type": "Point", "coordinates": [ 139.773434900000012, 35.6808238 ] } },
{ "type": "Feature", "properties": { "lat": 35.6694655, "lon": 139.7642496, "name": "lululemon(ルルレモン) GINZA SIX店" }, "geometry": { "type": "Point", "coordinates": [ 139.7642496, 35.6694655 ] } },
{ "type": "Feature", "properties": { "lat": 35.6729193, "lon": 139.764083, "name": "美健LABO(ラボ) フィットネス館" }, "geometry": { "type": "Point", "coordinates": [ 139.764083, 35.6729193 ] } },
{ "type": "Feature", "properties": { "lat": 35.6808238, "lon": 139.7734349, "name": "ZOY(ゾーイ) 日本橋高島屋店" }, "geometry": { "type": "Point", "coordinates": [ 139.773434900000012, 35.6808238 ] } },
{ "type": "Feature", "properties": { "lat": 35.66108, "lon": 139.7763538, "name": "スポーツクラブNAS 勝どき" }, "geometry": { "type": "Point", "coordinates": [ 139.77635380000001, 35.66108 ] } },
{ "type": "Feature", "properties": { "lat": 35.68128, "lon": 139.7737877, "name": "NEUTRALWORKS. NIHOMBASHI(ニュートラルワークス ニホンバシ) 日本橋高島屋S.C.店" }, "geometry": { "type": "Point", "coordinates": [ 139.773787700000014, 35.68128 ] } },
{ "type": "Feature", "properties": { "lat": 35.6808238, "lon": 139.7734349, "name": "LANVIN COLLECTION(ランバン コレクション) 高島屋日本橋店" }, "geometry": { "type": "Point", "coordinates": [ 139.773434900000012, 35.6808238 ] } },
{ "type": "Feature", "properties": { "lat": 35.6808238, "lon": 139.7734349, "name": "Munsingewear(マンシングウェア) 高島屋東京" }, "geometry": { "type": "Point", "coordinates": [ 139.773434900000012, 35.6808238 ] } },
{ "type": "Feature", "properties": { "lat": 35.6808238, "lon": 139.7734349, "name": "Colantotte(コラントッテ) 日本橋タカシマヤ店" }, "geometry": { "type": "Point", "coordinates": [ 139.773434900000012, 35.6808238 ] } },
{ "type": "Feature", "properties": { "lat": 35.6808238, "lon": 139.7734349, "name": "MASTER BUNNY(マスター バニー) 日本橋高島屋店" }, "geometry": { "type": "Point", "coordinates": [ 139.773434900000012, 35.6808238 ] } },
{ "type": "Feature", "properties": { "lat": 35.6808238, "lon": 139.7734349, "name": "パーリーゲイツ 日本橋高島屋S.C.店" }, "geometry": { "type": "Point", "coordinates": [ 139.773434900000012, 35.6808238 ] } },
{ "type": "Feature", "properties": { "lat": 35.6808238, "lon": 139.7734349, "name": "フォックスファイヤー 日本橋高島屋S.C.店" }, "geometry": { "type": "Point", "coordinates": [ 139.773434900000012, 35.6808238 ] } },
{ "type": "Feature", "properties": { "lat": 35.6808238, "lon": 139.7734349, "name": "ミズノ 日本橋高島屋S.C.店" }, "geometry": { "type": "Point", "coordinates": [ 139.773434900000012, 35.6808238 ] } },
{ "type": "Feature", "properties": { "lat": 35.6808238, "lon": 139.7734349, "name": "CW-X 日本橋タカシマヤ" }, "geometry": { "type": "Point", "coordinates": [ 139.773434900000012, 35.6808238 ] } },
{ "type": "Feature", "properties": { "lat": 35.6808238, "lon": 139.7734349, "name": "MBT 日本橋高島屋S.C.店" }, "geometry": { "type": "Point", "coordinates": [ 139.773434900000012, 35.6808238 ] } },
{ "type": "Feature", "properties": { "lat": 35.6808238, "lon": 139.7734349, "name": "シェルボ 高島屋日本橋店" }, "geometry": { "type": "Point", "coordinates": [ 139.773434900000012, 35.6808238 ] } },
{ "type": "Feature", "properties": { "lat": 35.6808238, "lon": 139.7734349, "name": "ブラック&ホワイト 日本橋高島屋S.C.店" }, "geometry": { "type": "Point", "coordinates": [ 139.773434900000012, 35.6808238 ] } },
{ "type": "Feature", "properties": { "lat": 35.6721066, "lon": 139.7686573, "name": "FiNC Fit(フィンクフィット) 銀座店" }, "geometry": { "type": "Point", "coordinates": [ 139.7686573, 35.6721066 ] } },
{ "type": "Feature", "properties": { "lat": 35.6820583, "lon": 139.7719, "name": "CREBIQ(クレビック) 東京日本橋店" }, "geometry": { "type": "Point", "coordinates": [ 139.7719, 35.6820583 ] } },
{ "type": "Feature", "properties": { "lat": 35.6719279, "lon": 139.7681332, "name": "ヨガ教室ノア 銀座校" }, "geometry": { "type": "Point", "coordinates": [ 139.7681332, 35.6719279 ] } },
{ "type": "Feature", "properties": { "lat": 35.6708884, "lon": 139.7671194, "name": "suria(スリア) 銀座店" }, "geometry": { "type": "Point", "coordinates": [ 139.767119400000013, 35.6708884 ] } },
{ "type": "Feature", "properties": { "lat": 35.6803684, "lon": 139.7715378, "name": "Rugby Online TOKYO(ラグビー オンライン トウキョウ)" }, "geometry": { "type": "Point", "coordinates": [ 139.7715378, 35.6803684 ] } },
{ "type": "Feature", "properties": { "lat": 35.6856332, "lon": 139.7734296, "name": "ヴィクトリアゴルフプレミアム 日本橋三越店" }, "geometry": { "type": "Point", "coordinates": [ 139.773429599999986, 35.6856332 ] } },
{ "type": "Feature", "properties": { "lat": 35.6713513, "lon": 139.7628213, "name": "Luxool(ラグール)銀座" }, "geometry": { "type": "Point", "coordinates": [ 139.762821300000013, 35.6713513 ] } },
{ "type": "Feature", "properties": { "lat": 35.6759689, "lon": 139.7788669, "name": "TRY Fitness & Sports Space(トライ フィットネス アンド スポーツ スペース)" }, "geometry": { "type": "Point", "coordinates": [ 139.7788669, 35.6759689 ] } },
{ "type": "Feature", "properties": { "lat": 35.6730197, "lon": 139.7634509, "name": "エクササイズコーチ 銀座店" }, "geometry": { "type": "Point", "coordinates": [ 139.7634509, 35.6730197 ] } },
{ "type": "Feature", "properties": { "lat": 35.6682614, "lon": 139.7624046, "name": "RDC GYM(アールディーシージム)" }, "geometry": { "type": "Point", "coordinates": [ 139.7624046, 35.6682614 ] } },
{ "type": "Feature", "properties": { "lat": 35.6706256, "lon": 139.7670623, "name": "EXPA(エクスパ) 銀座店" }, "geometry": { "type": "Point", "coordinates": [ 139.7670623, 35.6706256 ] } },
{ "type": "Feature", "properties": { "lat": 35.69253, "lon": 139.7845879, "name": "有限会社ビッグ・バンダンス館" }, "geometry": { "type": "Point", "coordinates": [ 139.7845879, 35.69253 ] } },
{ "type": "Feature", "properties": { "lat": 35.6862726, "lon": 139.7800052, "name": "SALUTEM GYM & STRETCH(ソルテム ジム アンド ストレッチ)" }, "geometry": { "type": "Point", "coordinates": [ 139.7800052, 35.6862726 ] } },
{ "type": "Feature", "properties": { "lat": 35.6839029, "lon": 139.7859585, "name": "BODY CONTROL(ボディ コントロール) 水天宮スタジオ" }, "geometry": { "type": "Point", "coordinates": [ 139.7859585, 35.6839029 ] } },
{ "type": "Feature", "properties": { "lat": 35.6636029, "lon": 139.7816221, "name": "Dr.stretch(ドクターストレッチ) 月島店" }, "geometry": { "type": "Point", "coordinates": [ 139.7816221, 35.6636029 ] } },
{ "type": "Feature", "properties": { "lat": 35.6850621, "lon": 139.774131, "name": "三越カルチャーサロン" }, "geometry": { "type": "Point", "coordinates": [ 139.774131, 35.6850621 ] } },
{ "type": "Feature", "properties": { "lat": 35.6715185, "lon": 139.7618536, "name": "BurnesStyle GINZA(バーネススタイル ギンザ)" }, "geometry": { "type": "Point", "coordinates": [ 139.7618536, 35.6715185 ] } },
{ "type": "Feature", "properties": { "lat": 35.6856332, "lon": 139.7734296, "name": "adabat(アダバット) 日本橋三越本店" }, "geometry": { "type": "Point", "coordinates": [ 139.773429599999986, 35.6856332 ] } },
{ "type": "Feature", "properties": { "lat": 35.6726956, "lon": 139.7706594, "name": "1on1 YOGA(ワンオンワン ヨガ) 銀座" }, "geometry": { "type": "Point", "coordinates": [ 139.7706594, 35.6726956 ] } },
{ "type": "Feature", "properties": { "lat": 35.6730832, "lon": 139.7633732, "name": "アンリ アンド ベベ 西銀座店" }, "geometry": { "type": "Point", "coordinates": [ 139.7633732, 35.6730832 ] } },
{ "type": "Feature", "properties": { "lat": 35.674383, "lon": 139.7660466, "name": "ダブルイーグル銀座" }, "geometry": { "type": "Point", "coordinates": [ 139.76604660000001, 35.674383 ] } },
{ "type": "Feature", "properties": { "lat": 35.6745536, "lon": 139.7679873, "name": "PRGR GINZA EX(プロギア ギンザ イーエックス)" }, "geometry": { "type": "Point", "coordinates": [ 139.767987299999987, 35.6745536 ] } },
{ "type": "Feature", "properties": { "lat": 35.6722621, "lon": 139.7666526, "name": "GYM CLOUD(ジム クラウド) 松屋銀座店" }, "geometry": { "type": "Point", "coordinates": [ 139.766652599999986, 35.6722621 ] } },
{ "type": "Feature", "properties": { "lat": 35.6707713, "lon": 139.7744234, "name": "Lani Garden(ラニ ガーデン)" }, "geometry": { "type": "Point", "coordinates": [ 139.774423399999989, 35.6707713 ] } },
{ "type": "Feature", "properties": { "lat": 35.6802223, "lon": 139.7692184, "name": "ミズノ ヤエチカ店" }, "geometry": { "type": "Point", "coordinates": [ 139.7692184, 35.6802223 ] } },
{ "type": "Feature", "properties": { "lat": 35.6739539, "lon": 139.7714879, "name": "ストレッチ専門店Dr.ストレッチ(ドクター ストレッチ) 銀座一丁目店" }, "geometry": { "type": "Point", "coordinates": [ 139.771487900000011, 35.6739539 ] } },
{ "type": "Feature", "properties": { "lat": 35.6710123, "lon": 139.7606358, "name": "パーソナルジムASPI(アスピ)銀座有楽町店" }, "geometry": { "type": "Point", "coordinates": [ 139.760635799999989, 35.6710123 ] } },
{ "type": "Feature", "properties": { "lat": 35.6730197, "lon": 139.7634509, "name": "トレーナーズ 西銀座店" }, "geometry": { "type": "Point", "coordinates": [ 139.7634509, 35.6730197 ] } },
{ "type": "Feature", "properties": { "lat": 35.6690073, "lon": 139.773398, "name": "Bios(ビオス) 銀座築地店" }, "geometry": { "type": "Point", "coordinates": [ 139.773398, 35.6690073 ] } },
{ "type": "Feature", "properties": { "lat": 35.6840023, "lon": 139.7823554, "name": "Bios(ビオス) 人形町店" }, "geometry": { "type": "Point", "coordinates": [ 139.7823554, 35.6840023 ] } },
{ "type": "Feature", "properties": { "lat": 35.6911848, "lon": 139.7839947, "name": "東日本橋シミュレーションゴルフ" }, "geometry": { "type": "Point", "coordinates": [ 139.7839947, 35.6911848 ] } },
{ "type": "Feature", "properties": { "lat": 35.6906318, "lon": 139.7779482, "name": "JIKUBUREBU(ジクブレブ)" }, "geometry": { "type": "Point", "coordinates": [ 139.7779482, 35.6906318 ] } },
{ "type": "Feature", "properties": { "lat": 35.6708273, "lon": 139.7691915, "name": "パーソナルトレーニングジム JOHNNY STYLE(ジョニー スタイル) 銀座店" }, "geometry": { "type": "Point", "coordinates": [ 139.7691915, 35.6708273 ] } },
{ "type": "Feature", "properties": { "lat": 35.6919769, "lon": 139.7819527, "name": "オビフィットネス" }, "geometry": { "type": "Point", "coordinates": [ 139.7819527, 35.6919769 ] } },
{ "type": "Feature", "properties": { "lat": 35.6730806, "lon": 139.7679435, "name": "CREBIQ(クレビック)銀座店" }, "geometry": { "type": "Point", "coordinates": [ 139.7679435, 35.6730806 ] } },
{ "type": "Feature", "properties": { "lat": 35.6705324, "lon": 139.7689817, "name": "eviGym(エビジム) 銀座3rd店" }, "geometry": { "type": "Point", "coordinates": [ 139.768981700000012, 35.6705324 ] } },
{ "type": "Feature", "properties": { "lat": 35.6702514, "lon": 139.7672846, "name": "eviGym(エビジム) 銀座店" }, "geometry": { "type": "Point", "coordinates": [ 139.767284600000011, 35.6702514 ] } },
{ "type": "Feature", "properties": { "lat": 35.6702606, "lon": 139.7696173, "name": "プライベートパーソナルトレーニングジム ゴーズジム 銀座店" }, "geometry": { "type": "Point", "coordinates": [ 139.7696173, 35.6702606 ] } },
{ "type": "Feature", "properties": { "lat": 35.6858543, "lon": 139.7824285, "name": "Apple GYM(アップルジム) 人形町店" }, "geometry": { "type": "Point", "coordinates": [ 139.7824285, 35.6858543 ] } },
{ "type": "Feature", "properties": { "lat": 35.6697194, "lon": 139.7654185, "name": "Apple GYM(アップルジム) 銀座店" }, "geometry": { "type": "Point", "coordinates": [ 139.76541850000001, 35.6697194 ] } },
{ "type": "Feature", "properties": { "lat": 35.671864, "lon": 139.7610152, "name": "パーソナルトレーニングジム ティーバランス銀座店" }, "geometry": { "type": "Point", "coordinates": [ 139.7610152, 35.671864 ] } },
{ "type": "Feature", "properties": { "lat": 35.6651048, "lon": 139.7711384, "name": "DEED(ディード) 東銀座・築地店" }, "geometry": { "type": "Point", "coordinates": [ 139.771138400000012, 35.6651048 ] } },
{ "type": "Feature", "properties": { "lat": 35.6705406, "lon": 139.7693712, "name": "キセキ 銀座店" }, "geometry": { "type": "Point", "coordinates": [ 139.7693712, 35.6705406 ] } },
{ "type": "Feature", "properties": { "lat": 35.6738861, "lon": 139.77011, "name": "Wolf's Lair Gym Ginza(ウルフズ レイヤー ジム ギンザ)" }, "geometry": { "type": "Point", "coordinates": [ 139.77011, 35.6738861 ] } },
{ "type": "Feature", "properties": { "lat": 35.67517, "lon": 139.7736945, "name": "The Golf House京橋八丁堀" }, "geometry": { "type": "Point", "coordinates": [ 139.7736945, 35.67517 ] } },
{ "type": "Feature", "properties": { "lat": 35.6696295, "lon": 139.7718873, "name": "Pilates Mee(ピラティスミー) 築地店" }, "geometry": { "type": "Point", "coordinates": [ 139.7718873, 35.6696295 ] } },
{ "type": "Feature", "properties": { "lat": 35.6587232, "lon": 139.7771202, "name": "パーソナルビューティージム 勝どき・晴海店" }, "geometry": { "type": "Point", "coordinates": [ 139.777120200000013, 35.6587232 ] } },
{ "type": "Feature", "properties": { "lat": 35.6945938, "lon": 139.7844791, "name": "GOLFERS(ゴルファーズ)24 日本橋馬喰町店" }, "geometry": { "type": "Point", "coordinates": [ 139.7844791, 35.6945938 ] } },
{ "type": "Feature", "properties": { "lat": 35.6820383, "lon": 139.7738636, "name": "リボーンマイセルフ 東京店" }, "geometry": { "type": "Point", "coordinates": [ 139.7738636, 35.6820383 ] } },
{ "type": "Feature", "properties": { "lat": 35.6751667, "lon": 139.7679301, "name": "ワウディーTOKYO" }, "geometry": { "type": "Point", "coordinates": [ 139.7679301, 35.6751667 ] } },
{ "type": "Feature", "properties": { "lat": 35.6688771, "lon": 139.7613944, "name": "株式会社銀座ゴルフ商会" }, "geometry": { "type": "Point", "coordinates": [ 139.7613944, 35.6688771 ] } },
{ "type": "Feature", "properties": { "lat": 35.670226, "lon": 139.768273, "name": "富士ヘルスアンドカントリークラブ" }, "geometry": { "type": "Point", "coordinates": [ 139.768273, 35.670226 ] } },
{ "type": "Feature", "properties": { "lat": 35.6716556, "lon": 139.779496, "name": "ゴルフショップ・ニチレイ" }, "geometry": { "type": "Point", "coordinates": [ 139.779496, 35.6716556 ] } },
{ "type": "Feature", "properties": { "lat": 35.6909163, "lon": 139.7770622, "name": "十思スクエア" }, "geometry": { "type": "Point", "coordinates": [ 139.777062199999989, 35.6909163 ] } },
{ "type": "Feature", "properties": { "lat": 35.6691199, "lon": 139.7834347, "name": "セントラルフィットネスクラブ24月島・佃" }, "geometry": { "type": "Point", "coordinates": [ 139.783434699999987, 35.6691199 ] } },
{ "type": "Feature", "properties": { "lat": 35.6878503, "lon": 139.7757514, "name": "ARM TOKYO(エー アール エム トウキョウ)" }, "geometry": { "type": "Point", "coordinates": [ 139.7757514, 35.6878503 ] } },
{ "type": "Feature", "properties": { "lat": 35.6728416, "lon": 139.7679866, "name": "b-monster銀座スタジオ" }, "geometry": { "type": "Point", "coordinates": [ 139.7679866, 35.6728416 ] } },
{ "type": "Feature", "properties": { "lat": 35.6886215, "lon": 139.772037, "name": "ゴルフ5 プレステージ日本橋店" }, "geometry": { "type": "Point", "coordinates": [ 139.772037, 35.6886215 ] } },
{ "type": "Feature", "properties": { "lat": 35.6726299, "lon": 139.7614943, "name": "チョコザップ銀座ファイブ店" }, "geometry": { "type": "Point", "coordinates": [ 139.76149430000001, 35.6726299 ] } },
{ "type": "Feature", "properties": { "lat": 35.6726299, "lon": 139.7614943, "name": "Pilates isM 銀座ファイブ店" }, "geometry": { "type": "Point", "coordinates": [ 139.76149430000001, 35.6726299 ] } },
{ "type": "Feature", "properties": { "lat": 35.6591494, "lon": 139.7863356, "name": "月島運動場" }, "geometry": { "type": "Point", "coordinates": [ 139.7863356, 35.6591494 ] } },
{ "type": "Feature", "properties": { "lat": 35.6689386, "lon": 139.7649901, "name": "ライザップ銀座(女性専用)店" }, "geometry": { "type": "Point", "coordinates": [ 139.7649901, 35.6689386 ] } },
{ "type": "Feature", "properties": { "lat": 35.6691381, "lon": 139.7863765, "name": "NAS PILATES ON the GOリバーシティ21店" }, "geometry": { "type": "Point", "coordinates": [ 139.786376499999989, 35.6691381 ] } },
{ "type": "Feature", "properties": { "lat": 35.6742086, "lon": 139.7666855, "name": "Premium Sports Club NAS Ginza" }, "geometry": { "type": "Point", "coordinates": [ 139.7666855, 35.6742086 ] } },
{ "type": "Feature", "properties": { "lat": 35.6710343, "lon": 139.761369, "name": "LM-GINZA" }, "geometry": { "type": "Point", "coordinates": [ 139.761369, 35.6710343 ] } },
{ "type": "Feature", "properties": { "lat": 35.659222, "lon": 139.7781279, "name": "ライラプス東京北星ジム" }, "geometry": { "type": "Point", "coordinates": [ 139.778127899999987, 35.659222 ] } },
{ "type": "Feature", "properties": { "lat": 35.6850975, "lon": 139.7740739, "name": "HEALCREEK日本橋三越" }, "geometry": { "type": "Point", "coordinates": [ 139.7740739, 35.6850975 ] } },
{ "type": "Feature", "properties": { "lat": 35.6900318, "lon": 139.785477, "name": "有限会社田中運動具店" }, "geometry": { "type": "Point", "coordinates": [ 139.785477, 35.6900318 ] } },
{ "type": "Feature", "properties": { "lat": 35.6911848, "lon": 139.7839947, "name": "SPORTSINSYNC." }, "geometry": { "type": "Point", "coordinates": [ 139.7839947, 35.6911848 ] } },
{ "type": "Feature", "properties": { "lat": 35.6736082, "lon": 139.7701999, "name": "クレイジー銀座本店" }, "geometry": { "type": "Point", "coordinates": [ 139.7701999, 35.6736082 ] } },
{ "type": "Feature", "properties": { "lat": 35.6696252, "lon": 139.7653306, "name": "TRTゴルフスクール" }, "geometry": { "type": "Point", "coordinates": [ 139.7653306, 35.6696252 ] } },
{ "type": "Feature", "properties": { "lat": 35.669533, "lon": 139.7674928, "name": "アスリーダーズ銀座本店" }, "geometry": { "type": "Point", "coordinates": [ 139.767492800000014, 35.669533 ] } },
{ "type": "Feature", "properties": { "lat": 35.6819681, "lon": 139.7769711, "name": "クニトミダイビングスクール" }, "geometry": { "type": "Point", "coordinates": [ 139.7769711, 35.6819681 ] } },
{ "type": "Feature", "properties": { "lat": 35.6895363, "lon": 139.773984, "name": "マレア東京" }, "geometry": { "type": "Point", "coordinates": [ 139.773984, 35.6895363 ] } },
{ "type": "Feature", "properties": { "lat": 35.6757194, "lon": 139.7799451, "name": "空手之道世界連盟(NPO法人)" }, "geometry": { "type": "Point", "coordinates": [ 139.7799451, 35.6757194 ] } },
{ "type": "Feature", "properties": { "lat": 35.6595988, "lon": 139.7750936, "name": "ベイリズム勝どき" }, "geometry": { "type": "Point", "coordinates": [ 139.7750936, 35.6595988 ] } },
{ "type": "Feature", "properties": { "lat": 35.6902558, "lon": 139.7749558, "name": "合気道錬身会" }, "geometry": { "type": "Point", "coordinates": [ 139.774955799999987, 35.6902558 ] } },
{ "type": "Feature", "properties": { "lat": 35.6851915, "lon": 139.7806643, "name": "キックボクシングジムFAITH" }, "geometry": { "type": "Point", "coordinates": [ 139.780664300000012, 35.6851915 ] } },
{ "type": "Feature", "properties": { "lat": 35.6731995, "lon": 139.7680776, "name": "UNDEUX銀座スタジオ" }, "geometry": { "type": "Point", "coordinates": [ 139.7680776, 35.6731995 ] } },
{ "type": "Feature", "properties": { "lat": 35.6808238, "lon": 139.7734349, "name": "ムータマリンゴルフ" }, "geometry": { "type": "Point", "coordinates": [ 139.773434900000012, 35.6808238 ] } },
{ "type": "Feature", "properties": { "lat": 35.6815718, "lon": 139.7738599, "name": "スツールズ(STOOLS)日本橋高島屋SC店" }, "geometry": { "type": "Point", "coordinates": [ 139.7738599, 35.6815718 ] } },
{ "type": "Feature", "properties": { "lat": 35.6743799, "lon": 139.765406, "name": "EUROSPORTSTOKYO" }, "geometry": { "type": "Point", "coordinates": [ 139.765406, 35.6743799 ] } },
{ "type": "Feature", "properties": { "lat": 35.6747626, "lon": 139.7813633, "name": "ストレッチジムパートナーズ" }, "geometry": { "type": "Point", "coordinates": [ 139.78136330000001, 35.6747626 ] } },
{ "type": "Feature", "properties": { "lat": 35.6822182, "lon": 139.7828912, "name": "わたしのゴルフ日本橋蛎殻町店" }, "geometry": { "type": "Point", "coordinates": [ 139.7828912, 35.6822182 ] } },
{ "type": "Feature", "properties": { "lat": 35.6739763, "lon": 139.7772175, "name": "Gスタジオ&合田洋ゴルフクリニック" }, "geometry": { "type": "Point", "coordinates": [ 139.7772175, 35.6739763 ] } },
{ "type": "Feature", "properties": { "lat": 35.6695403, "lon": 139.7728449, "name": "わたしのゴルフ築地店" }, "geometry": { "type": "Point", "coordinates": [ 139.7728449, 35.6695403 ] } },
{ "type": "Feature", "properties": { "lat": 35.6709337, "lon": 139.7746938, "name": "オンズマリネットAmazon店" }, "geometry": { "type": "Point", "coordinates": [ 139.7746938, 35.6709337 ] } },
{ "type": "Feature", "properties": { "lat": 35.693, "lon": 139.7852961, "name": "わたしのゴルフ東日本橋店" }, "geometry": { "type": "Point", "coordinates": [ 139.785296100000011, 35.693 ] } },
{ "type": "Feature", "properties": { "lat": 35.668643, "lon": 139.764709, "name": "OYG" }, "geometry": { "type": "Point", "coordinates": [ 139.764709, 35.668643 ] } },
{ "type": "Feature", "properties": { "lat": 35.6850975, "lon": 139.7740739, "name": "アローズラボ&アローズジム日本橋三越本店" }, "geometry": { "type": "Point", "coordinates": [ 139.7740739, 35.6850975 ] } },
{ "type": "Feature", "properties": { "lat": 35.689584, "lon": 139.7788992, "name": "江戸日本橋ゴルフレンジ" }, "geometry": { "type": "Point", "coordinates": [ 139.778899200000012, 35.689584 ] } },
{ "type": "Feature", "properties": { "lat": 35.6717445, "lon": 139.7179929, "name": "秩父宮ラグビー場" }, "geometry": { "type": "Point", "coordinates": [ 139.717992900000013, 35.6717445 ] } },
{ "type": "Feature", "properties": { "lat": 35.6683762, "lon": 139.7398527, "name": "ゴルフパートナー 赤坂六本木通り店" }, "geometry": { "type": "Point", "coordinates": [ 139.7398527, 35.6683762 ] } },
{ "type": "Feature", "properties": { "lat": 35.668071, "lon": 139.7159973, "name": "ヴィクトリアゴルフ 青山店" }, "geometry": { "type": "Point", "coordinates": [ 139.7159973, 35.668071 ] } },
{ "type": "Feature", "properties": { "lat": 35.6676378, "lon": 139.7179302, "name": "スキーショップジロー" }, "geometry": { "type": "Point", "coordinates": [ 139.717930200000012, 35.6676378 ] } },
{ "type": "Feature", "properties": { "lat": 35.627534, "lon": 139.7366216, "name": "品川プリンスホテル高輪テニスセンター" }, "geometry": { "type": "Point", "coordinates": [ 139.7366216, 35.627534 ] } },
{ "type": "Feature", "properties": { "lat": 35.6466245, "lon": 139.7516922, "name": "港区スポーツセンター" }, "geometry": { "type": "Point", "coordinates": [ 139.7516922, 35.6466245 ] } },
{ "type": "Feature", "properties": { "lat": 35.6613226, "lon": 139.7452043, "name": "芝給水所公園運動場多目的運動広場" }, "geometry": { "type": "Point", "coordinates": [ 139.745204300000012, 35.6613226 ] } },
{ "type": "Feature", "properties": { "lat": 35.6726295, "lon": 139.7197499, "name": "明治神宮外苑テニスクラブ" }, "geometry": { "type": "Point", "coordinates": [ 139.719749900000011, 35.6726295 ] } },
{ "type": "Feature", "properties": { "lat": 35.6376215, "lon": 139.7586525, "name": "芝浦南ふ頭公園運動広場(かいがんぱ-く)" }, "geometry": { "type": "Point", "coordinates": [ 139.758652500000011, 35.6376215 ] } },
{ "type": "Feature", "properties": { "lat": 35.6274361, "lon": 139.7563428, "name": "ロッキーボルダリングクラブ 品川" }, "geometry": { "type": "Point", "coordinates": [ 139.7563428, 35.6274361 ] } },
{ "type": "Feature", "properties": { "lat": 35.6629314, "lon": 139.7613181, "name": "FEELCYCLE(フィールサイクル) 汐留" }, "geometry": { "type": "Point", "coordinates": [ 139.761318100000011, 35.6629314 ] } },
{ "type": "Feature", "properties": { "lat": 35.6676509, "lon": 139.7588682, "name": "YONEX TOKYO SHOWROOM(ヨネックス東京ショールーム)" }, "geometry": { "type": "Point", "coordinates": [ 139.7588682, 35.6676509 ] } },
{ "type": "Feature", "properties": { "lat": 35.6749018, "lon": 139.7357243, "name": "ホットヨガスタジオLAVA(ラバ) 赤坂店" }, "geometry": { "type": "Point", "coordinates": [ 139.735724299999987, 35.6749018 ] } },
{ "type": "Feature", "properties": { "lat": 35.6341293, "lon": 139.7466945, "name": "芝浦中央公園運動場" }, "geometry": { "type": "Point", "coordinates": [ 139.7466945, 35.6341293 ] } },
{ "type": "Feature", "properties": { "lat": 35.6616938, "lon": 139.729851, "name": "ルルレモン 六本木ヒルズ店" }, "geometry": { "type": "Point", "coordinates": [ 139.729851, 35.6616938 ] } },
{ "type": "Feature", "properties": { "lat": 35.655992, "lon": 139.7493664, "name": "芝公園軟式野球場" }, "geometry": { "type": "Point", "coordinates": [ 139.749366400000014, 35.655992 ] } },
{ "type": "Feature", "properties": { "lat": 35.6524599, "lon": 139.7277698, "name": "麻布運動場軟式野球場" }, "geometry": { "type": "Point", "coordinates": [ 139.7277698, 35.6524599 ] } },
{ "type": "Feature", "properties": { "lat": 35.6689763, "lon": 139.7185644, "name": "青山運動場" }, "geometry": { "type": "Point", "coordinates": [ 139.7185644, 35.6689763 ] } },
{ "type": "Feature", "properties": { "lat": 35.6579085, "lon": 139.7545267, "name": "ゴルフパートナー フェスティバルゴルフ浜松町店" }, "geometry": { "type": "Point", "coordinates": [ 139.754526700000014, 35.6579085 ] } },
{ "type": "Feature", "properties": { "lat": 35.6684142, "lon": 139.7561238, "name": "ゴルフパートナー 新橋日比谷口店" }, "geometry": { "type": "Point", "coordinates": [ 139.756123800000012, 35.6684142 ] } },
{ "type": "Feature", "properties": { "lat": 35.6524599, "lon": 139.7277698, "name": "港区立 麻布運動場" }, "geometry": { "type": "Point", "coordinates": [ 139.7277698, 35.6524599 ] } },
{ "type": "Feature", "properties": { "lat": 35.626711, "lon": 139.750673, "name": "文武一道塾 志道館 港南道場" }, "geometry": { "type": "Point", "coordinates": [ 139.750673, 35.626711 ] } },
{ "type": "Feature", "properties": { "lat": 35.6708471, "lon": 139.7176262, "name": "ミズノショップ神宮外苑" }, "geometry": { "type": "Point", "coordinates": [ 139.717626200000012, 35.6708471 ] } },
{ "type": "Feature", "properties": { "lat": 35.674707, "lon": 139.7314745, "name": "健康増進センター(ヘルシーナ)" }, "geometry": { "type": "Point", "coordinates": [ 139.7314745, 35.674707 ] } },
{ "type": "Feature", "properties": { "lat": 35.6566904, "lon": 139.7530095, "name": "ワールドツアープランナーズ" }, "geometry": { "type": "Point", "coordinates": [ 139.7530095, 35.6566904 ] } },
{ "type": "Feature", "properties": { "lat": 35.6560867, "lon": 139.7349152, "name": "zen place pilates(ゼン プレイス ピラティス) 麻布十番" }, "geometry": { "type": "Point", "coordinates": [ 139.734915199999989, 35.6560867 ] } },
{ "type": "Feature", "properties": { "lat": 35.6644776, "lon": 139.7306343, "name": "Polish(ポリッシュ) 六本木スタジオ" }, "geometry": { "type": "Point", "coordinates": [ 139.7306343, 35.6644776 ] } },
{ "type": "Feature", "properties": { "lat": 35.6615892, "lon": 139.7230972, "name": "西麻布ゴルフ倶楽部" }, "geometry": { "type": "Point", "coordinates": [ 139.723097200000012, 35.6615892 ] } },
{ "type": "Feature", "properties": { "lat": 35.6662082, "lon": 139.757524, "name": "ザ ダイブファクトリー東京店" }, "geometry": { "type": "Point", "coordinates": [ 139.757524, 35.6662082 ] } },
{ "type": "Feature", "properties": { "lat": 35.6637977, "lon": 139.7463203, "name": "アクアヴィット" }, "geometry": { "type": "Point", "coordinates": [ 139.7463203, 35.6637977 ] } },
{ "type": "Feature", "properties": { "lat": 35.6582132, "lon": 139.7588792, "name": "エニタイムフィットネス 浜松町汐留店" }, "geometry": { "type": "Point", "coordinates": [ 139.7588792, 35.6582132 ] } },
{ "type": "Feature", "properties": { "lat": 35.6475629, "lon": 139.7470547, "name": "エニタイムフィットネス 田町店" }, "geometry": { "type": "Point", "coordinates": [ 139.7470547, 35.6475629 ] } },
{ "type": "Feature", "properties": { "lat": 35.6713224, "lon": 139.7352054, "name": "エニタイムフィットネス 赤坂店" }, "geometry": { "type": "Point", "coordinates": [ 139.735205400000012, 35.6713224 ] } },
{ "type": "Feature", "properties": { "lat": 35.6545421, "lon": 139.7435901, "name": "エニタイムフィットネス 三田店" }, "geometry": { "type": "Point", "coordinates": [ 139.7435901, 35.6545421 ] } },
{ "type": "Feature", "properties": { "lat": 35.637048, "lon": 139.7471475, "name": "エニタイムフィットネス 芝浦店" }, "geometry": { "type": "Point", "coordinates": [ 139.747147500000011, 35.637048 ] } },
{ "type": "Feature", "properties": { "lat": 35.6406829, "lon": 139.7412902, "name": "エニタイムフィットネス 泉岳寺駅前店" }, "geometry": { "type": "Point", "coordinates": [ 139.7412902, 35.6406829 ] } },
{ "type": "Feature", "properties": { "lat": 35.6652987, "lon": 139.7512453, "name": "エニタイムフィットネス 虎ノ門店" }, "geometry": { "type": "Point", "coordinates": [ 139.7512453, 35.6652987 ] } },
{ "type": "Feature", "properties": { "lat": 35.6569426, "lon": 139.7379396, "name": "エニタイムフィットネス 麻布十番店" }, "geometry": { "type": "Point", "coordinates": [ 139.7379396, 35.6569426 ] } },
{ "type": "Feature", "properties": { "lat": 35.6691976, "lon": 139.7500491, "name": "エニタイムフィットネス 虎ノ門駅前店" }, "geometry": { "type": "Point", "coordinates": [ 139.750049100000012, 35.6691976 ] } },
{ "type": "Feature", "properties": { "lat": 35.6621046, "lon": 139.7364068, "name": "エニタイムフィットネス 六本木店" }, "geometry": { "type": "Point", "coordinates": [ 139.7364068, 35.6621046 ] } },
{ "type": "Feature", "properties": { "lat": 35.6642596, "lon": 139.756543, "name": "エニタイムフィットネス 新橋店" }, "geometry": { "type": "Point", "coordinates": [ 139.756543, 35.6642596 ] } },
{ "type": "Feature", "properties": { "lat": 35.6474808, "lon": 139.7243699, "name": "エニタイムフィットネス 広尾店" }, "geometry": { "type": "Point", "coordinates": [ 139.7243699, 35.6474808 ] } },
{ "type": "Feature", "properties": { "lat": 35.6476166, "lon": 139.7360636, "name": "エニタイムフィットネス 南麻布2丁目店" }, "geometry": { "type": "Point", "coordinates": [ 139.7360636, 35.6476166 ] } },
{ "type": "Feature", "properties": { "lat": 35.6528225, "lon": 139.7522242, "name": "エニタイムフィットネス 芝浜松町店" }, "geometry": { "type": "Point", "coordinates": [ 139.7522242, 35.6528225 ] } },
{ "type": "Feature", "properties": { "lat": 35.6546652, "lon": 139.7345868, "name": "JOYFIT24 麻布十番 | 24時間営業フィットネスジム" }, "geometry": { "type": "Point", "coordinates": [ 139.734586799999988, 35.6546652 ] } },
{ "type": "Feature", "properties": { "lat": 35.6578257, "lon": 139.7183959, "name": "JOYFIT24 南青山 | 24時間営業フィットネスジム" }, "geometry": { "type": "Point", "coordinates": [ 139.7183959, 35.6578257 ] } },
{ "type": "Feature", "properties": { "lat": 35.661156, "lon": 139.7151922, "name": "ゴールドジム 南青山東京" }, "geometry": { "type": "Point", "coordinates": [ 139.7151922, 35.661156 ] } },
{ "type": "Feature", "properties": { "lat": 35.6734978, "lon": 139.7371538, "name": "JOYFIT24 赤坂 | 24時間営業フィットネスジム" }, "geometry": { "type": "Point", "coordinates": [ 139.737153799999987, 35.6734978 ] } },
{ "type": "Feature", "properties": { "lat": 35.6666189, "lon": 139.728221, "name": "JOYFIT24乃木坂" }, "geometry": { "type": "Point", "coordinates": [ 139.728221, 35.6666189 ] } },
{ "type": "Feature", "properties": { "lat": 35.6542303, "lon": 139.7356046, "name": "JOYFIT24 麻布十番ANNEX | 24時間営業フィットネスジム" }, "geometry": { "type": "Point", "coordinates": [ 139.735604599999988, 35.6542303 ] } },
{ "type": "Feature", "properties": { "lat": 35.6542303, "lon": 139.7356046, "name": "JOYFIT 麻布十番" }, "geometry": { "type": "Point", "coordinates": [ 139.735604599999988, 35.6542303 ] } },
{ "type": "Feature", "properties": { "lat": 35.6569961, "lon": 139.7587391, "name": "ゴールドジム 浜松町東京" }, "geometry": { "type": "Point", "coordinates": [ 139.758739100000014, 35.6569961 ] } },
{ "type": "Feature", "properties": { "lat": 35.660601, "lon": 139.7388776, "name": "chocoZAP(チョコザップ) 麻布台三丁目" }, "geometry": { "type": "Point", "coordinates": [ 139.7388776, 35.660601 ] } },
{ "type": "Feature", "properties": { "lat": 35.6618885, "lon": 139.7288831, "name": "chocoZAP(チョコザップ) 六本木" }, "geometry": { "type": "Point", "coordinates": [ 139.7288831, 35.6618885 ] } },
{ "type": "Feature", "properties": { "lat": 35.6721198, "lon": 139.7391471, "name": "chocoZAP(チョコザップ) 赤坂二丁目" }, "geometry": { "type": "Point", "coordinates": [ 139.7391471, 35.6721198 ] } },
{ "type": "Feature", "properties": { "lat": 35.6684514, "lon": 139.7560198, "name": "chocoZAP(チョコザップ) 新橋" }, "geometry": { "type": "Point", "coordinates": [ 139.7560198, 35.6684514 ] } },
{ "type": "Feature", "properties": { "lat": 35.648956, "lon": 139.745856, "name": "chocoZAP(チョコザップ) 芝五丁目" }, "geometry": { "type": "Point", "coordinates": [ 139.745856, 35.648956 ] } },
{ "type": "Feature", "properties": { "lat": 35.6648867, "lon": 139.7624926, "name": "chocoZAP(チョコザップ) カレッタ汐留" }, "geometry": { "type": "Point", "coordinates": [ 139.7624926, 35.6648867 ] } },
{ "type": "Feature", "properties": { "lat": 35.6710269, "lon": 139.7263004, "name": "chocoZAP(チョコザップ) 青山一丁目" }, "geometry": { "type": "Point", "coordinates": [ 139.726300400000014, 35.6710269 ] } },
{ "type": "Feature", "properties": { "lat": 35.6670495, "lon": 139.7610399, "name": "chocoZAP(チョコザップ) 銀座中央通" }, "geometry": { "type": "Point", "coordinates": [ 139.761039899999986, 35.6670495 ] } },
{ "type": "Feature", "properties": { "lat": 35.6678679, "lon": 139.757753, "name": "ヴィクトリアゴルフ 新橋日比谷口店" }, "geometry": { "type": "Point", "coordinates": [ 139.757753, 35.6678679 ] } },
{ "type": "Feature", "properties": { "lat": 35.6605344, "lon": 139.7299686, "name": "ブリーフィング 六本木ヒルズ店" }, "geometry": { "type": "Point", "coordinates": [ 139.7299686, 35.6605344 ] } },
{ "type": "Feature", "properties": { "lat": 35.6271646, "lon": 139.7405341, "name": "サウスゴルフアカデミー" }, "geometry": { "type": "Point", "coordinates": [ 139.7405341, 35.6271646 ] } },
{ "type": "Feature", "properties": { "lat": 35.6580813, "lon": 139.7515077, "name": "chocoZAP(チョコザップ) 白金六丁目" }, "geometry": { "type": "Point", "coordinates": [ 139.7515077, 35.6580813 ] } },
{ "type": "Feature", "properties": { "lat": 35.6703706, "lon": 139.750097, "name": "chocoZAP(チョコザップ) 虎ノ門" }, "geometry": { "type": "Point", "coordinates": [ 139.750097, 35.6703706 ] } },
{ "type": "Feature", "properties": { "lat": 35.6429673, "lon": 139.7419811, "name": "chocoZAP(チョコザップ) 泉岳寺" }, "geometry": { "type": "Point", "coordinates": [ 139.7419811, 35.6429673 ] } },
{ "type": "Feature", "properties": { "lat": 35.6610231, "lon": 139.7543904, "name": "chocoZAP(チョコザップ) 御成門" }, "geometry": { "type": "Point", "coordinates": [ 139.7543904, 35.6610231 ] } },
{ "type": "Feature", "properties": { "lat": 35.6522565, "lon": 139.7339482, "name": "chocoZAP(チョコザップ) 南麻布一丁目" }, "geometry": { "type": "Point", "coordinates": [ 139.733948199999986, 35.6522565 ] } },
{ "type": "Feature", "properties": { "lat": 35.6518674, "lon": 139.7536636, "name": "chocoZAP(チョコザップ) 芝二丁目" }, "geometry": { "type": "Point", "coordinates": [ 139.75366360000001, 35.6518674 ] } },
{ "type": "Feature", "properties": { "lat": 35.6619741, "lon": 139.7312142, "name": "ティップネス六本木" }, "geometry": { "type": "Point", "coordinates": [ 139.731214200000011, 35.6619741 ] } },
{ "type": "Feature", "properties": { "lat": 35.6713152, "lon": 139.7172807, "name": "B.E.A.T(ビート)外苑前" }, "geometry": { "type": "Point", "coordinates": [ 139.7172807, 35.6713152 ] } },
{ "type": "Feature", "properties": { "lat": 35.6650636, "lon": 139.7350258, "name": "BEYOND(ビヨンド) 六本木店" }, "geometry": { "type": "Point", "coordinates": [ 139.735025799999988, 35.6650636 ] } },
{ "type": "Feature", "properties": { "lat": 35.6557081, "lon": 139.7350857, "name": "StretchLab(ストレッチラボ) 麻布十番" }, "geometry": { "type": "Point", "coordinates": [ 139.735085700000013, 35.6557081 ] } },
{ "type": "Feature", "properties": { "lat": 35.659614, "lon": 139.730832, "name": "HOKA Roppongi(ホカ六本木)" }, "geometry": { "type": "Point", "coordinates": [ 139.730832, 35.659614 ] } },
{ "type": "Feature", "properties": { "lat": 35.6607397, "lon": 139.7292319, "name": "ディー・エヌ・エー ゴルフレンジ 六本木ヒルズ店" }, "geometry": { "type": "Point", "coordinates": [ 139.7292319, 35.6607397 ] } },
{ "type": "Feature", "properties": { "lat": 35.6609166, "lon": 139.7405604, "name": "ルルレモン 麻布台ヒルズ店" }, "geometry": { "type": "Point", "coordinates": [ 139.7405604, 35.6609166 ] } },
{ "type": "Feature", "properties": { "lat": 35.627819, "lon": 139.773568, "name": "プーマストア アクアシティお台場店" }, "geometry": { "type": "Point", "coordinates": [ 139.773568, 35.627819 ] } },
{ "type": "Feature", "properties": { "lat": 35.6615333, "lon": 139.7296139, "name": "ヴィクトリアゴルフ 六本木ヒルズ店" }, "geometry": { "type": "Point", "coordinates": [ 139.7296139, 35.6615333 ] } },
{ "type": "Feature", "properties": { "lat": 35.6605344, "lon": 139.7299686, "name": "Heal Creek(ヒール クリーク) 六本木ヒルズ店" }, "geometry": { "type": "Point", "coordinates": [ 139.7299686, 35.6605344 ] } },
{ "type": "Feature", "properties": { "lat": 35.627819, "lon": 139.773568, "name": "オークリーストア アクアシティお台場店" }, "geometry": { "type": "Point", "coordinates": [ 139.773568, 35.627819 ] } },
{ "type": "Feature", "properties": { "lat": 35.6552922, "lon": 139.7361052, "name": "ピラティススタジオlamp(ランプ)" }, "geometry": { "type": "Point", "coordinates": [ 139.7361052, 35.6552922 ] } },
{ "type": "Feature", "properties": { "lat": 35.67495, "lon": 139.7376922, "name": "zen place pilates(ゼン プレイス ピラティス) 赤坂スタジオ" }, "geometry": { "type": "Point", "coordinates": [ 139.7376922, 35.67495 ] } },
{ "type": "Feature", "properties": { "lat": 35.6727044, "lon": 139.7376222, "name": "JGMゴルフクラブ 赤坂スタジオ" }, "geometry": { "type": "Point", "coordinates": [ 139.7376222, 35.6727044 ] } },
{ "type": "Feature", "properties": { "lat": 35.668052, "lon": 139.7588506, "name": "YONEX FITTING STUDIO TOKYO(ヨネックスフィッティングスタジオ東京)" }, "geometry": { "type": "Point", "coordinates": [ 139.758850599999988, 35.668052 ] } },
{ "type": "Feature", "properties": { "lat": 35.6609166, "lon": 139.7405604, "name": "Deportare Club(デポルターレ クラブ) 麻布台ヒルズ店" }, "geometry": { "type": "Point", "coordinates": [ 139.7405604, 35.6609166 ] } },
{ "type": "Feature", "properties": { "lat": 35.6467066, "lon": 139.7312242, "name": "マシンピラティススタジオ CREA(クレア) 白金高輪店" }, "geometry": { "type": "Point", "coordinates": [ 139.731224200000014, 35.6467066 ] } },
{ "type": "Feature", "properties": { "lat": 35.668071, "lon": 139.7159973, "name": "STEPGOLF PREMIUM FITTINGSTUDIO MINAMI-AOYAMA(ステップゴルフプレミアムフィッティングスタジオ南青山ゴルフスクール)" }, "geometry": { "type": "Point", "coordinates": [ 139.7159973, 35.668071 ] } },
{ "type": "Feature", "properties": { "lat": 35.646711, "lon": 139.745692, "name": "jump one Tamachi(ジャンプ ワン タマチ)" }, "geometry": { "type": "Point", "coordinates": [ 139.745692, 35.646711 ] } },
{ "type": "Feature", "properties": { "lat": 35.6274361, "lon": 139.7563428, "name": "Golfit(ゴルフィット)" }, "geometry": { "type": "Point", "coordinates": [ 139.7563428, 35.6274361 ] } },
{ "type": "Feature", "properties": { "lat": 35.6671188, "lon": 139.7137658, "name": "Sky Pilates Tokyo(スカイ ピラティス トウキョウ) 表参道駅前店" }, "geometry": { "type": "Point", "coordinates": [ 139.7137658, 35.6671188 ] } },
{ "type": "Feature", "properties": { "lat": 35.6720894, "lon": 139.7358788, "name": "FEELCYCLE AKS(フィールサイクル アカサカ)店" }, "geometry": { "type": "Point", "coordinates": [ 139.7358788, 35.6720894 ] } },
{ "type": "Feature", "properties": { "lat": 35.6656902, "lon": 139.7136632, "name": "FEELCYCLE OMS(フィールサイクル オモテサンドウ)店" }, "geometry": { "type": "Point", "coordinates": [ 139.713663200000013, 35.6656902 ] } },
{ "type": "Feature", "properties": { "lat": 35.6663182, "lon": 139.760631, "name": "JYPER'S(ジーパーズ) 新橋店" }, "geometry": { "type": "Point", "coordinates": [ 139.760631, 35.6663182 ] } },
{ "type": "Feature", "properties": { "lat": 35.6711044, "lon": 139.7409616, "name": "PRGR AKASAKA(プロギア アカサカ)" }, "geometry": { "type": "Point", "coordinates": [ 139.7409616, 35.6711044 ] } },
{ "type": "Feature", "properties": { "lat": 35.7431292, "lon": 139.7868659, "name": "荒川自然公園運動場" }, "geometry": { "type": "Point", "coordinates": [ 139.7868659, 35.7431292 ] } },
{ "type": "Feature", "properties": { "lat": 35.6318698, "lon": 139.7317331, "name": "ballesonance Tokyo Baleet Studio(バレゾナンス トウキョウ バレエ スタジオ) 品川高輪教室" }, "geometry": { "type": "Point", "coordinates": [ 139.731733100000014, 35.6318698 ] } },
{ "type": "Feature", "properties": { "lat": 35.6698026, "lon": 139.752032, "name": "The Premium Backstage(ザ プレミアム バックステージ) 虎ノ門" }, "geometry": { "type": "Point", "coordinates": [ 139.752032, 35.6698026 ] } },
{ "type": "Feature", "properties": { "lat": 35.655061, "lon": 139.7367332, "name": "HASH BUFF(ハッシュ バフ) 麻布十番店" }, "geometry": { "type": "Point", "coordinates": [ 139.7367332, 35.655061 ] } },
{ "type": "Feature", "properties": { "lat": 35.6760454, "lon": 139.7367421, "name": "JAPAN TOP TEAM(ジャパン トップ チーム)" }, "geometry": { "type": "Point", "coordinates": [ 139.736742099999987, 35.6760454 ] } },
{ "type": "Feature", "properties": { "lat": 35.6668899, "lon": 139.7313539, "name": "ZERO HALLIBURTON GOLF(ゼロ ハリバートン ゴルフ) 東京ミッドタウン店" }, "geometry": { "type": "Point", "coordinates": [ 139.731353899999988, 35.6668899 ] } },
{ "type": "Feature", "properties": { "lat": 35.6624617, "lon": 139.7121699, "name": "MARK & LONA(マーク アンド ロナ) 青山店" }, "geometry": { "type": "Point", "coordinates": [ 139.7121699, 35.6624617 ] } },
{ "type": "Feature", "properties": { "lat": 35.6345862, "lon": 139.739177, "name": "HOKA NEWoMan Takanawa(ホカ ニュウマン タカナワ)" }, "geometry": { "type": "Point", "coordinates": [ 139.739177, 35.6345862 ] } },
{ "type": "Feature", "properties": { "lat": 35.6348851, "lon": 139.7394808, "name": "ミズノショップ ニュウマン高輪" }, "geometry": { "type": "Point", "coordinates": [ 139.7394808, 35.6348851 ] } },
{ "type": "Feature", "properties": { "lat": 35.6696587, "lon": 139.723911, "name": "SUGATA(スガタ) 青山店" }, "geometry": { "type": "Point", "coordinates": [ 139.723911, 35.6696587 ] } },
{ "type": "Feature", "properties": { "lat": 35.6585805, "lon": 139.7454329, "name": "TOKYO TOWER PICKLEBALL FRIENDSHIP(東京タワーピックルボールフレンドシップ)" }, "geometry": { "type": "Point", "coordinates": [ 139.7454329, 35.6585805 ] } },
{ "type": "Feature", "properties": { "lat": 35.6563018, "lon": 139.754367, "name": "つるやゴルフ 芝大門店" }, "geometry": { "type": "Point", "coordinates": [ 139.754367, 35.6563018 ] } },
{ "type": "Feature", "properties": { "lat": 35.665549, "lon": 139.7287744, "name": "Magma spastudio insea(マグマスパスタジオインシー) 六本木店" }, "geometry": { "type": "Point", "coordinates": [ 139.7287744, 35.665549 ] } },
{ "type": "Feature", "properties": { "lat": 35.6708471, "lon": 139.7176262, "name": "CANTERBURY AOYAMA(カンタベリー アオヤマ)" }, "geometry": { "type": "Point", "coordinates": [ 139.717626200000012, 35.6708471 ] } },
{ "type": "Feature", "properties": { "lat": 35.6319372, "lon": 139.7379589, "name": "ライザップ 品川店" }, "geometry": { "type": "Point", "coordinates": [ 139.7379589, 35.6319372 ] } },
{ "type": "Feature", "properties": { "lat": 35.6734978, "lon": 139.7371538, "name": "JOYFIT(ジョイフィット)24 赤坂店" }, "geometry": { "type": "Point", "coordinates": [ 139.737153799999987, 35.6734978 ] } },
{ "type": "Feature", "properties": { "lat": 35.6618673, "lon": 139.7367808, "name": "ライザップ 六本木店" }, "geometry": { "type": "Point", "coordinates": [ 139.7367808, 35.6618673 ] } },
{ "type": "Feature", "properties": { "lat": 35.6724726, "lon": 139.717734, "name": "東急スポーツオアシス青山店" }, "geometry": { "type": "Point", "coordinates": [ 139.717734, 35.6724726 ] } },
{ "type": "Feature", "properties": { "lat": 35.6674626, "lon": 139.7296976, "name": "六本木nature body house(ネイチャーボディハウス)" }, "geometry": { "type": "Point", "coordinates": [ 139.7296976, 35.6674626 ] } },
{ "type": "Feature", "properties": { "lat": 35.6578625, "lon": 139.7452094, "name": "芝公園 野球場兼競技場" }, "geometry": { "type": "Point", "coordinates": [ 139.7452094, 35.6578625 ] } },
{ "type": "Feature", "properties": { "lat": 35.66669, "lon": 139.7443359, "name": "オークラヘルスクラブ" }, "geometry": { "type": "Point", "coordinates": [ 139.74433590000001, 35.66669 ] } },
{ "type": "Feature", "properties": { "lat": 35.665549, "lon": 139.7287744, "name": "サンクチュアリ 六本木店" }, "geometry": { "type": "Point", "coordinates": [ 139.7287744, 35.665549 ] } },
{ "type": "Feature", "properties": { "lat": 35.6743546, "lon": 139.7361035, "name": "ミットネス 赤坂店" }, "geometry": { "type": "Point", "coordinates": [ 139.736103500000013, 35.6743546 ] } },
{ "type": "Feature", "properties": { "lat": 35.6324899, "lon": 139.743003, "name": "RUN CUBE(ラン キューブ) 品川シーズンテラス" }, "geometry": { "type": "Point", "coordinates": [ 139.743003, 35.6324899 ] } },
{ "type": "Feature", "properties": { "lat": 35.6511436, "lon": 139.7233523, "name": "ストレッチ専門店Dr.(ドクター)ストレッチ 広尾店" }, "geometry": { "type": "Point", "coordinates": [ 139.723352299999988, 35.6511436 ] } },
{ "type": "Feature", "properties": { "lat": 35.6685901, "lon": 139.7289941, "name": "JOHAN VOS SPORT SCHOOL(ヨハン ボス スポーツ スクール)" }, "geometry": { "type": "Point", "coordinates": [ 139.7289941, 35.6685901 ] } },
{ "type": "Feature", "properties": { "lat": 35.627819, "lon": 139.773568, "name": "アディダス ブランドコアストア アクアシティお台場店" }, "geometry": { "type": "Point", "coordinates": [ 139.773568, 35.627819 ] } },
{ "type": "Feature", "properties": { "lat": 35.6290584, "lon": 139.7759965, "name": "クイックシルバーストア デックス東京ビーチ店" }, "geometry": { "type": "Point", "coordinates": [ 139.7759965, 35.6290584 ] } },
{ "type": "Feature", "properties": { "lat": 35.6770725, "lon": 139.7362632, "name": "ゴルフスタジオZAMET(ザメット) インドアレッスン赤坂" }, "geometry": { "type": "Point", "coordinates": [ 139.7362632, 35.6770725 ] } },
{ "type": "Feature", "properties": { "lat": 35.6708471, "lon": 139.7176262, "name": "ビタミンGOLF(ゴルフ)" }, "geometry": { "type": "Point", "coordinates": [ 139.717626200000012, 35.6708471 ] } },
{ "type": "Feature", "properties": { "lat": 35.6564722, "lon": 139.7348476, "name": "オレンジセオリーフィットネス 麻布十番" }, "geometry": { "type": "Point", "coordinates": [ 139.7348476, 35.6564722 ] } },
{ "type": "Feature", "properties": { "lat": 35.6599326, "lon": 139.7403501, "name": "ワールドウィング麻布" }, "geometry": { "type": "Point", "coordinates": [ 139.7403501, 35.6599326 ] } },
{ "type": "Feature", "properties": { "lat": 35.6386383, "lon": 139.7270526, "name": "ボディバランシング 白金台" }, "geometry": { "type": "Point", "coordinates": [ 139.7270526, 35.6386383 ] } },
{ "type": "Feature", "properties": { "lat": 35.6750958, "lon": 139.7325213, "name": "プレミアムゴルフアカデミー 赤坂" }, "geometry": { "type": "Point", "coordinates": [ 139.7325213, 35.6750958 ] } },
{ "type": "Feature", "properties": { "lat": 35.6547303, "lon": 139.7352328, "name": "メガロスルフレ麻布十番" }, "geometry": { "type": "Point", "coordinates": [ 139.7352328, 35.6547303 ] } },
{ "type": "Feature", "properties": { "lat": 35.6444405, "lon": 139.7520439, "name": "ファイトフィット 田町芝浦" }, "geometry": { "type": "Point", "coordinates": [ 139.7520439, 35.6444405 ] } },
{ "type": "Feature", "properties": { "lat": 35.6542303, "lon": 139.7356046, "name": "JOYFIT+(ジョイフィットプラス) 麻布十番" }, "geometry": { "type": "Point", "coordinates": [ 139.735604599999988, 35.6542303 ] } },
{ "type": "Feature", "properties": { "lat": 35.6363846, "lon": 139.7232426, "name": "メガロス 白金台" }, "geometry": { "type": "Point", "coordinates": [ 139.7232426, 35.6363846 ] } },
{ "type": "Feature", "properties": { "lat": 35.6689707, "lon": 139.7411284, "name": "エースゴルフクラブ赤坂" }, "geometry": { "type": "Point", "coordinates": [ 139.7411284, 35.6689707 ] } },
{ "type": "Feature", "properties": { "lat": 35.6550115, "lon": 139.734467, "name": "美コア東京スタジオ POWERED BY Reebok(パワード バイ リーボック)" }, "geometry": { "type": "Point", "coordinates": [ 139.734467, 35.6550115 ] } },