{
"type": "FeatureCollection",
"name": "stadiums2025",
"crs": { "type": "name", "properties": { "name": "urn:ogc:def:crs:OGC:1.3:CRS84" } },
"features": [
{ "type": "Feature", "properties": { "lat": 35.69177, "lon": 139.75302, "name": "日本武道館" }, "geometry": { "type": "Point", "coordinates": [ 139.75302, 35.69177 ] } },
{ "type": "Feature", "properties": { "lat": 35.67506, "lon": 139.717, "name": "明治神宮野球場" }, "geometry": { "type": "Point", "coordinates": [ 139.717, 35.67506 ] } },
{ "type": "Feature", "properties": { "lat": 35.66766, "lon": 139.70209, "name": "国立代々木競技場〔第一体育館〕" }, "geometry": { "type": "Point", "coordinates": [ 139.70209, 35.66766 ] } },
{ "type": "Feature", "properties": { "lat": 35.66766, "lon": 139.70209, "name": "国立代々木競技場〔第二体育館〕" }, "geometry": { "type": "Point", "coordinates": [ 139.70209, 35.66766 ] } },
{ "type": "Feature", "properties": { "lat": 35.67936, "lon": 139.71217, "name": "東京体育館" }, "geometry": { "type": "Point", "coordinates": [ 139.71217, 35.67936 ] } },
{ "type": "Feature", "properties": { "lat": 35.67275, "lon": 139.71803, "name": "秩父宮ラグビー場" }, "geometry": { "type": "Point", "coordinates": [ 139.71803, 35.67275 ] } },
{ "type": "Feature", "properties": { "lat": 35.63533, "lon": 139.78816, "name": "有明コロシアム" }, "geometry": { "type": "Point", "coordinates": [ 139.78816, 35.63533 ] } },
{ "type": "Feature", "properties": { "lat": 35.62982, "lon": 139.79445, "name": "東京ビッグサイト" }, "geometry": { "type": "Point", "coordinates": [ 139.79445, 35.62982 ] } }
]
}
