{
"type": "FeatureCollection",
"name": "stations2025",
"crs": { "type": "name", "properties": { "name": "urn:ogc:def:crs:OGC:1.3:CRS84" } },
"features": [
{ "type": "Feature", "properties": { "lat": 35.629813, "lon": 139.778607, "name": "お台場海浜公園" }, "geometry": { "type": "Point", "coordinates": [ 139.778607, 35.629813 ] } },
{ "type": "Feature", "properties": { "lat": 35.621462, "lon": 139.773157, "name": "東京国際クルーズターミナル" }, "geometry": { "type": "Point", "coordinates": [ 139.773157, 35.621462 ] } },
{ "type": "Feature", "properties": { "lat": 35.617593, "lon": 139.779327, "name": "テレコムセンター" }, "geometry": { "type": "Point", "coordinates": [ 139.779327, 35.617593 ] } },
{ "type": "Feature", "properties": { "lat": 35.662871, "lon": 139.759985, "name": "汐留" }, "geometry": { "type": "Point", "coordinates": [ 139.759985, 35.662871 ] } },
{ "type": "Feature", "properties": { "lat": 35.625908, "lon": 139.771435, "name": "台場" }, "geometry": { "type": "Point", "coordinates": [ 139.771435, 35.625908 ] } },
{ "type": "Feature", "properties": { "lat": 35.634596, "lon": 139.793269, "name": "有明" }, "geometry": { "type": "Point", "coordinates": [ 139.793269, 35.634596 ] } },
{ "type": "Feature", "properties": { "lat": 35.630158, "lon": 139.791228, "name": "東京ビッグサイト" }, "geometry": { "type": "Point", "coordinates": [ 139.791228, 35.630158 ] } },
{ "type": "Feature", "properties": { "lat": 35.665503, "lon": 139.759644, "name": "新橋" }, "geometry": { "type": "Point", "coordinates": [ 139.759644, 35.665503 ] } },
{ "type": "Feature", "properties": { "lat": 35.654099, "lon": 139.762037, "name": "竹芝" }, "geometry": { "type": "Point", "coordinates": [ 139.762037, 35.654099 ] } },
{ "type": "Feature", "properties": { "lat": 35.641773, "lon": 139.757852, "name": "芝浦ふ頭" }, "geometry": { "type": "Point", "coordinates": [ 139.757852, 35.641773 ] } },
{ "type": "Feature", "properties": { "lat": 35.649136, "lon": 139.75906, "name": "日の出" }, "geometry": { "type": "Point", "coordinates": [ 139.75906, 35.649136 ] } },
{ "type": "Feature", "properties": { "lat": 35.62467, "lon": 139.781132, "name": "青海" }, "geometry": { "type": "Point", "coordinates": [ 139.781132, 35.62467 ] } },
{ "type": "Feature", "properties": { "lat": 35.648718, "lon": 139.789996, "name": "新豊洲" }, "geometry": { "type": "Point", "coordinates": [ 139.789996, 35.648718 ] } },
{ "type": "Feature", "properties": { "lat": 35.645684, "lon": 139.78564, "name": "市場前" }, "geometry": { "type": "Point", "coordinates": [ 139.78564, 35.645684 ] } },
{ "type": "Feature", "properties": { "lat": 35.639964, "lon": 139.78888, "name": "有明テニスの森" }, "geometry": { "type": "Point", "coordinates": [ 139.78888, 35.639964 ] } },
{ "type": "Feature", "properties": { "lat": 35.653792, "lon": 139.795414, "name": "豊洲" }, "geometry": { "type": "Point", "coordinates": [ 139.795414, 35.653792 ] } },
{ "type": "Feature", "properties": { "lat": 35.657244, "lon": 139.693579, "name": "神泉" }, "geometry": { "type": "Point", "coordinates": [ 139.693579, 35.657244 ] } },
{ "type": "Feature", "properties": { "lat": 35.6587, "lon": 139.700872, "name": "渋谷" }, "geometry": { "type": "Point", "coordinates": [ 139.700872, 35.6587 ] } },
{ "type": "Feature", "properties": { "lat": 35.673758, "lon": 139.667251, "name": "笹塚" }, "geometry": { "type": "Point", "coordinates": [ 139.667251, 35.673758 ] } },
{ "type": "Feature", "properties": { "lat": 35.677061, "lon": 139.676183, "name": "幡ヶ谷" }, "geometry": { "type": "Point", "coordinates": [ 139.676183, 35.677061 ] } },
{ "type": "Feature", "properties": { "lat": 35.689729, "lon": 139.700464, "name": "新宿" }, "geometry": { "type": "Point", "coordinates": [ 139.700464, 35.689729 ] } },
{ "type": "Feature", "properties": { "lat": 35.68123, "lon": 139.686354, "name": "初台" }, "geometry": { "type": "Point", "coordinates": [ 139.686354, 35.68123 ] } },
{ "type": "Feature", "properties": { "lat": 35.633272, "lon": 139.7155, "name": "目黒" }, "geometry": { "type": "Point", "coordinates": [ 139.7155, 35.633272 ] } },
{ "type": "Feature", "properties": { "lat": 35.587576, "lon": 139.73544, "name": "大森海岸" }, "geometry": { "type": "Point", "coordinates": [ 139.73544, 35.587576 ] } },
{ "type": "Feature", "properties": { "lat": 35.598489, "lon": 139.738886, "name": "立会川" }, "geometry": { "type": "Point", "coordinates": [ 139.738886, 35.598489 ] } },
{ "type": "Feature", "properties": { "lat": 35.609351, "lon": 139.742958, "name": "青物横丁" }, "geometry": { "type": "Point", "coordinates": [ 139.742958, 35.609351 ] } },
{ "type": "Feature", "properties": { "lat": 35.622458, "lon": 139.739191, "name": "北品川" }, "geometry": { "type": "Point", "coordinates": [ 139.739191, 35.622458 ] } },
{ "type": "Feature", "properties": { "lat": 35.628284, "lon": 139.73809, "name": "品川" }, "geometry": { "type": "Point", "coordinates": [ 139.73809, 35.628284 ] } },
{ "type": "Feature", "properties": { "lat": 35.61762, "lon": 139.741366, "name": "新馬場" }, "geometry": { "type": "Point", "coordinates": [ 139.741366, 35.61762 ] } },
{ "type": "Feature", "properties": { "lat": 35.604977, "lon": 139.742227, "name": "鮫洲" }, "geometry": { "type": "Point", "coordinates": [ 139.742227, 35.604977 ] } },
{ "type": "Feature", "properties": { "lat": 35.633272, "lon": 139.7155, "name": "目黒" }, "geometry": { "type": "Point", "coordinates": [ 139.7155, 35.633272 ] } },
{ "type": "Feature", "properties": { "lat": 35.698889, "lon": 139.774273, "name": "秋葉原" }, "geometry": { "type": "Point", "coordinates": [ 139.774273, 35.698889 ] } },
{ "type": "Feature", "properties": { "lat": 35.669715, "lon": 139.688913, "name": "代々木八幡" }, "geometry": { "type": "Point", "coordinates": [ 139.688913, 35.669715 ] } },
{ "type": "Feature", "properties": { "lat": 35.683483, "lon": 139.69867, "name": "南新宿" }, "geometry": { "type": "Point", "coordinates": [ 139.69867, 35.683483 ] } },
{ "type": "Feature", "properties": { "lat": 35.678586, "lon": 139.693568, "name": "参宮橋" }, "geometry": { "type": "Point", "coordinates": [ 139.693568, 35.678586 ] } },
{ "type": "Feature", "properties": { "lat": 35.689729, "lon": 139.700464, "name": "新宿" }, "geometry": { "type": "Point", "coordinates": [ 139.700464, 35.689729 ] } },
{ "type": "Feature", "properties": { "lat": 35.669159, "lon": 139.680153, "name": "代々木上原" }, "geometry": { "type": "Point", "coordinates": [ 139.680153, 35.669159 ] } },
{ "type": "Feature", "properties": { "lat": 35.715846, "lon": 139.695391, "name": "下落合" }, "geometry": { "type": "Point", "coordinates": [ 139.695391, 35.715846 ] } },
{ "type": "Feature", "properties": { "lat": 35.712677, "lon": 139.703715, "name": "高田馬場" }, "geometry": { "type": "Point", "coordinates": [ 139.703715, 35.712677 ] } },
{ "type": "Feature", "properties": { "lat": 35.715106, "lon": 139.686967, "name": "中井" }, "geometry": { "type": "Point", "coordinates": [ 139.686967, 35.715106 ] } },
{ "type": "Feature", "properties": { "lat": 35.696254, "lon": 139.7, "name": "西武新宿" }, "geometry": { "type": "Point", "coordinates": [ 139.7, 35.696254 ] } },
{ "type": "Feature", "properties": { "lat": 35.622908, "lon": 139.750675, "name": "天王洲アイル" }, "geometry": { "type": "Point", "coordinates": [ 139.750675, 35.622908 ] } },
{ "type": "Feature", "properties": { "lat": 35.595006, "lon": 139.74708, "name": "大井競馬場前" }, "geometry": { "type": "Point", "coordinates": [ 139.74708, 35.595006 ] } },
{ "type": "Feature", "properties": { "lat": 35.655666, "lon": 139.756747, "name": "モノレール浜松町" }, "geometry": { "type": "Point", "coordinates": [ 139.756747, 35.655666 ] } },
{ "type": "Feature", "properties": { "lat": 35.607535, "lon": 139.735025, "name": "大井町" }, "geometry": { "type": "Point", "coordinates": [ 139.735025, 35.607535 ] } },
{ "type": "Feature", "properties": { "lat": 35.608856, "lon": 139.718159, "name": "戸越公園" }, "geometry": { "type": "Point", "coordinates": [ 139.718159, 35.608856 ] } },
{ "type": "Feature", "properties": { "lat": 35.608704, "lon": 139.726256, "name": "下神明" }, "geometry": { "type": "Point", "coordinates": [ 139.726256, 35.608704 ] } },
{ "type": "Feature", "properties": { "lat": 35.619772, "lon": 139.728439, "name": "大崎" }, "geometry": { "type": "Point", "coordinates": [ 139.728439, 35.619772 ] } },
{ "type": "Feature", "properties": { "lat": 35.60571, "lon": 139.712526, "name": "中延" }, "geometry": { "type": "Point", "coordinates": [ 139.712526, 35.60571 ] } },
{ "type": "Feature", "properties": { "lat": 35.60382, "lon": 139.707571, "name": "荏原町" }, "geometry": { "type": "Point", "coordinates": [ 139.707571, 35.60382 ] } },
{ "type": "Feature", "properties": { "lat": 35.622244, "lon": 139.722339, "name": "大崎広小路" }, "geometry": { "type": "Point", "coordinates": [ 139.722339, 35.622244 ] } },
{ "type": "Feature", "properties": { "lat": 35.625262, "lon": 139.724175, "name": "五反田" }, "geometry": { "type": "Point", "coordinates": [ 139.724175, 35.625262 ] } },
{ "type": "Feature", "properties": { "lat": 35.615928, "lon": 139.714862, "name": "戸越銀座" }, "geometry": { "type": "Point", "coordinates": [ 139.714862, 35.615928 ] } },
{ "type": "Feature", "properties": { "lat": 35.604923, "lon": 139.702286, "name": "旗の台" }, "geometry": { "type": "Point", "coordinates": [ 139.702286, 35.604923 ] } },
{ "type": "Feature", "properties": { "lat": 35.610056, "lon": 139.712196, "name": "荏原中延" }, "geometry": { "type": "Point", "coordinates": [ 139.712196, 35.610056 ] } },
{ "type": "Feature", "properties": { "lat": 35.604923, "lon": 139.702286, "name": "旗の台" }, "geometry": { "type": "Point", "coordinates": [ 139.702286, 35.604923 ] } },
{ "type": "Feature", "properties": { "lat": 35.648193, "lon": 139.703284, "name": "代官山" }, "geometry": { "type": "Point", "coordinates": [ 139.703284, 35.648193 ] } },
{ "type": "Feature", "properties": { "lat": 35.6587, "lon": 139.700872, "name": "渋谷" }, "geometry": { "type": "Point", "coordinates": [ 139.700872, 35.6587 ] } },
{ "type": "Feature", "properties": { "lat": 35.633272, "lon": 139.7155, "name": "目黒" }, "geometry": { "type": "Point", "coordinates": [ 139.7155, 35.633272 ] } },
{ "type": "Feature", "properties": { "lat": 35.626526, "lon": 139.71469, "name": "不動前" }, "geometry": { "type": "Point", "coordinates": [ 139.71469, 35.626526 ] } },
{ "type": "Feature", "properties": { "lat": 35.615455, "lon": 139.698694, "name": "西小山" }, "geometry": { "type": "Point", "coordinates": [ 139.698694, 35.615455 ] } },
{ "type": "Feature", "properties": { "lat": 35.620538, "lon": 139.704524, "name": "武蔵小山" }, "geometry": { "type": "Point", "coordinates": [ 139.704524, 35.620538 ] } },
{ "type": "Feature", "properties": { "lat": 35.698889, "lon": 139.774273, "name": "秋葉原" }, "geometry": { "type": "Point", "coordinates": [ 139.774273, 35.698889 ] } },
{ "type": "Feature", "properties": { "lat": 35.6677126, "lon": 139.7479069, "name": "虎ノ門ヒルズ" }, "geometry": { "type": "Point", "coordinates": [ 139.7479069, 35.6677126 ] } },
{ "type": "Feature", "properties": { "lat": 35.662978, "lon": 139.745069, "name": "神谷町" }, "geometry": { "type": "Point", "coordinates": [ 139.745069, 35.662978 ] } },
{ "type": "Feature", "properties": { "lat": 35.671989, "lon": 139.763965, "name": "銀座" }, "geometry": { "type": "Point", "coordinates": [ 139.763965, 35.671989 ] } },
{ "type": "Feature", "properties": { "lat": 35.652279, "lon": 139.722202, "name": "広尾" }, "geometry": { "type": "Point", "coordinates": [ 139.722202, 35.652279 ] } },
{ "type": "Feature", "properties": { "lat": 35.669464, "lon": 139.767253, "name": "東銀座" }, "geometry": { "type": "Point", "coordinates": [ 139.767253, 35.669464 ] } },
{ "type": "Feature", "properties": { "lat": 35.673838, "lon": 139.750899, "name": "霞ヶ関" }, "geometry": { "type": "Point", "coordinates": [ 139.750899, 35.673838 ] } },
{ "type": "Feature", "properties": { "lat": 35.686307, "lon": 139.782285, "name": "人形町" }, "geometry": { "type": "Point", "coordinates": [ 139.782285, 35.686307 ] } },
{ "type": "Feature", "properties": { "lat": 35.682078, "lon": 139.773516, "name": "日本橋" }, "geometry": { "type": "Point", "coordinates": [ 139.773516, 35.682078 ] } },
{ "type": "Feature", "properties": { "lat": 35.662836, "lon": 139.731443, "name": "六本木" }, "geometry": { "type": "Point", "coordinates": [ 139.731443, 35.662836 ] } },
{ "type": "Feature", "properties": { "lat": 35.690737, "lon": 139.778433, "name": "小伝馬町" }, "geometry": { "type": "Point", "coordinates": [ 139.778433, 35.690737 ] } },
{ "type": "Feature", "properties": { "lat": 35.674851, "lon": 139.776982, "name": "八丁堀" }, "geometry": { "type": "Point", "coordinates": [ 139.776982, 35.674851 ] } },
{ "type": "Feature", "properties": { "lat": 35.668115, "lon": 139.772603, "name": "築地" }, "geometry": { "type": "Point", "coordinates": [ 139.772603, 35.668115 ] } },
{ "type": "Feature", "properties": { "lat": 35.67459, "lon": 139.76017, "name": "日比谷" }, "geometry": { "type": "Point", "coordinates": [ 139.76017, 35.67459 ] } },
{ "type": "Feature", "properties": { "lat": 35.647332, "lon": 139.708988, "name": "恵比寿" }, "geometry": { "type": "Point", "coordinates": [ 139.708988, 35.647332 ] } },
{ "type": "Feature", "properties": { "lat": 35.702972, "lon": 139.771713, "name": "末広町" }, "geometry": { "type": "Point", "coordinates": [ 139.771713, 35.702972 ] } },
{ "type": "Feature", "properties": { "lat": 35.670236, "lon": 139.749832, "name": "虎ノ門" }, "geometry": { "type": "Point", "coordinates": [ 139.749832, 35.670236 ] } },
{ "type": "Feature", "properties": { "lat": 35.670527, "lon": 139.717857, "name": "外苑前" }, "geometry": { "type": "Point", "coordinates": [ 139.717857, 35.670527 ] } },
{ "type": "Feature", "properties": { "lat": 35.687101, "lon": 139.773594, "name": "三越前" }, "geometry": { "type": "Point", "coordinates": [ 139.773594, 35.687101 ] } },
{ "type": "Feature", "properties": { "lat": 35.673621, "lon": 139.741419, "name": "溜池山王" }, "geometry": { "type": "Point", "coordinates": [ 139.741419, 35.673621 ] } },
{ "type": "Feature", "properties": { "lat": 35.671989, "lon": 139.763965, "name": "銀座" }, "geometry": { "type": "Point", "coordinates": [ 139.763965, 35.671989 ] } },
{ "type": "Feature", "properties": { "lat": 35.672765, "lon": 139.724159, "name": "青山一丁目" }, "geometry": { "type": "Point", "coordinates": [ 139.724159, 35.672765 ] } },
{ "type": "Feature", "properties": { "lat": 35.676856, "lon": 139.770126, "name": "京橋" }, "geometry": { "type": "Point", "coordinates": [ 139.770126, 35.676856 ] } },
{ "type": "Feature", "properties": { "lat": 35.665503, "lon": 139.759644, "name": "新橋" }, "geometry": { "type": "Point", "coordinates": [ 139.759644, 35.665503 ] } },
{ "type": "Feature", "properties": { "lat": 35.693587, "lon": 139.770899, "name": "神田" }, "geometry": { "type": "Point", "coordinates": [ 139.770899, 35.693587 ] } },
{ "type": "Feature", "properties": { "lat": 35.677021, "lon": 139.737047, "name": "赤坂見附" }, "geometry": { "type": "Point", "coordinates": [ 139.737047, 35.677021 ] } },
{ "type": "Feature", "properties": { "lat": 35.671989, "lon": 139.763965, "name": "銀座" }, "geometry": { "type": "Point", "coordinates": [ 139.763965, 35.671989 ] } },
{ "type": "Feature", "properties": { "lat": 35.665247, "lon": 139.712314, "name": "表参道" }, "geometry": { "type": "Point", "coordinates": [ 139.712314, 35.665247 ] } },
{ "type": "Feature", "properties": { "lat": 35.6587, "lon": 139.700872, "name": "渋谷" }, "geometry": { "type": "Point", "coordinates": [ 139.700872, 35.6587 ] } },
{ "type": "Feature", "properties": { "lat": 35.681753, "lon": 139.764708, "name": "東京" }, "geometry": { "type": "Point", "coordinates": [ 139.764708, 35.681753 ] } },
{ "type": "Feature", "properties": { "lat": 35.679752, "lon": 139.780005, "name": "茅場町" }, "geometry": { "type": "Point", "coordinates": [ 139.780005, 35.679752 ] } },
{ "type": "Feature", "properties": { "lat": 35.695434, "lon": 139.767575, "name": "淡路町" }, "geometry": { "type": "Point", "coordinates": [ 139.767575, 35.695434 ] } },
{ "type": "Feature", "properties": { "lat": 35.687958, "lon": 139.720103, "name": "四谷三丁目" }, "geometry": { "type": "Point", "coordinates": [ 139.720103, 35.687958 ] } },
{ "type": "Feature", "properties": { "lat": 35.67459, "lon": 139.76017, "name": "日比谷" }, "geometry": { "type": "Point", "coordinates": [ 139.76017, 35.67459 ] } },
{ "type": "Feature", "properties": { "lat": 35.681753, "lon": 139.764708, "name": "東京" }, "geometry": { "type": "Point", "coordinates": [ 139.764708, 35.681753 ] } },
{ "type": "Feature", "properties": { "lat": 35.684586, "lon": 139.729947, "name": "四ツ谷" }, "geometry": { "type": "Point", "coordinates": [ 139.729947, 35.684586 ] } },
{ "type": "Feature", "properties": { "lat": 35.686564, "lon": 139.7662, "name": "大手町" }, "geometry": { "type": "Point", "coordinates": [ 139.7662, 35.686564 ] } },
{ "type": "Feature", "properties": { "lat": 35.681753, "lon": 139.764708, "name": "東京" }, "geometry": { "type": "Point", "coordinates": [ 139.764708, 35.681753 ] } },
{ "type": "Feature", "properties": { "lat": 35.694298, "lon": 139.692778, "name": "西新宿" }, "geometry": { "type": "Point", "coordinates": [ 139.692778, 35.694298 ] } },
{ "type": "Feature", "properties": { "lat": 35.690853, "lon": 139.704828, "name": "新宿三丁目" }, "geometry": { "type": "Point", "coordinates": [ 139.704828, 35.690853 ] } },
{ "type": "Feature", "properties": { "lat": 35.688588, "lon": 139.71069, "name": "新宿御苑前" }, "geometry": { "type": "Point", "coordinates": [ 139.71069, 35.688588 ] } },
{ "type": "Feature", "properties": { "lat": 35.689729, "lon": 139.700464, "name": "新宿" }, "geometry": { "type": "Point", "coordinates": [ 139.700464, 35.689729 ] } },
{ "type": "Feature", "properties": { "lat": 35.701934, "lon": 139.743669, "name": "飯田橋" }, "geometry": { "type": "Point", "coordinates": [ 139.743669, 35.701934 ] } },
{ "type": "Feature", "properties": { "lat": 35.70379, "lon": 139.734546, "name": "神楽坂" }, "geometry": { "type": "Point", "coordinates": [ 139.734546, 35.70379 ] } },
{ "type": "Feature", "properties": { "lat": 35.712677, "lon": 139.703715, "name": "高田馬場" }, "geometry": { "type": "Point", "coordinates": [ 139.703715, 35.712677 ] } },
{ "type": "Feature", "properties": { "lat": 35.705723, "lon": 139.721319, "name": "早稲田" }, "geometry": { "type": "Point", "coordinates": [ 139.721319, 35.705723 ] } },
{ "type": "Feature", "properties": { "lat": 35.681753, "lon": 139.764708, "name": "東京" }, "geometry": { "type": "Point", "coordinates": [ 139.764708, 35.681753 ] } },
{ "type": "Feature", "properties": { "lat": 35.679752, "lon": 139.780005, "name": "茅場町" }, "geometry": { "type": "Point", "coordinates": [ 139.780005, 35.679752 ] } },
{ "type": "Feature", "properties": { "lat": 35.671851, "lon": 139.796209, "name": "門前仲町" }, "geometry": { "type": "Point", "coordinates": [ 139.796209, 35.671851 ] } },
{ "type": "Feature", "properties": { "lat": 35.669351, "lon": 139.807042, "name": "木場" }, "geometry": { "type": "Point", "coordinates": [ 139.807042, 35.669351 ] } },
{ "type": "Feature", "properties": { "lat": 35.695589, "lon": 139.751948, "name": "九段下" }, "geometry": { "type": "Point", "coordinates": [ 139.751948, 35.695589 ] } },
{ "type": "Feature", "properties": { "lat": 35.690662, "lon": 139.756817, "name": "竹橋" }, "geometry": { "type": "Point", "coordinates": [ 139.756817, 35.690662 ] } },
{ "type": "Feature", "properties": { "lat": 35.668796, "lon": 139.83065, "name": "南砂町" }, "geometry": { "type": "Point", "coordinates": [ 139.83065, 35.668796 ] } },
{ "type": "Feature", "properties": { "lat": 35.682078, "lon": 139.773516, "name": "日本橋" }, "geometry": { "type": "Point", "coordinates": [ 139.773516, 35.682078 ] } },
{ "type": "Feature", "properties": { "lat": 35.669629, "lon": 139.817596, "name": "東陽町" }, "geometry": { "type": "Point", "coordinates": [ 139.817596, 35.669629 ] } },
{ "type": "Feature", "properties": { "lat": 35.681753, "lon": 139.764708, "name": "東京" }, "geometry": { "type": "Point", "coordinates": [ 139.764708, 35.681753 ] } },
{ "type": "Feature", "properties": { "lat": 35.678757, "lon": 139.740258, "name": "永田町" }, "geometry": { "type": "Point", "coordinates": [ 139.740258, 35.678757 ] } },
{ "type": "Feature", "properties": { "lat": 35.681753, "lon": 139.764708, "name": "東京" }, "geometry": { "type": "Point", "coordinates": [ 139.764708, 35.681753 ] } },
{ "type": "Feature", "properties": { "lat": 35.654682, "lon": 139.737051, "name": "麻布十番" }, "geometry": { "type": "Point", "coordinates": [ 139.737051, 35.654682 ] } },
{ "type": "Feature", "properties": { "lat": 35.681753, "lon": 139.764708, "name": "東京" }, "geometry": { "type": "Point", "coordinates": [ 139.764708, 35.681753 ] } },
{ "type": "Feature", "properties": { "lat": 35.692972, "lon": 139.736389, "name": "市ヶ谷" }, "geometry": { "type": "Point", "coordinates": [ 139.736389, 35.692972 ] } },
{ "type": "Feature", "properties": { "lat": 35.665595, "lon": 139.739, "name": "六本木一丁目" }, "geometry": { "type": "Point", "coordinates": [ 139.739, 35.665595 ] } },
{ "type": "Feature", "properties": { "lat": 35.642903, "lon": 139.734104, "name": "白金高輪" }, "geometry": { "type": "Point", "coordinates": [ 139.734104, 35.642903 ] } },
{ "type": "Feature", "properties": { "lat": 35.681753, "lon": 139.764708, "name": "東京" }, "geometry": { "type": "Point", "coordinates": [ 139.764708, 35.681753 ] } },
{ "type": "Feature", "properties": { "lat": 35.670462, "lon": 139.773711, "name": "新富町" }, "geometry": { "type": "Point", "coordinates": [ 139.773711, 35.670462 ] } },
{ "type": "Feature", "properties": { "lat": 35.684006, "lon": 139.737613, "name": "麹町" }, "geometry": { "type": "Point", "coordinates": [ 139.737613, 35.684006 ] } },
{ "type": "Feature", "properties": { "lat": 35.681753, "lon": 139.764708, "name": "東京" }, "geometry": { "type": "Point", "coordinates": [ 139.764708, 35.681753 ] } },
{ "type": "Feature", "properties": { "lat": 35.653792, "lon": 139.795414, "name": "豊洲" }, "geometry": { "type": "Point", "coordinates": [ 139.795414, 35.653792 ] } },
{ "type": "Feature", "properties": { "lat": 35.675714, "lon": 139.763265, "name": "有楽町" }, "geometry": { "type": "Point", "coordinates": [ 139.763265, 35.675714 ] } },
{ "type": "Feature", "properties": { "lat": 35.664871, "lon": 139.784233, "name": "月島" }, "geometry": { "type": "Point", "coordinates": [ 139.784233, 35.664871 ] } },
{ "type": "Feature", "properties": { "lat": 35.677405, "lon": 139.75149, "name": "桜田門" }, "geometry": { "type": "Point", "coordinates": [ 139.75149, 35.677405 ] } },
{ "type": "Feature", "properties": { "lat": 35.67435, "lon": 139.767045, "name": "銀座一丁目" }, "geometry": { "type": "Point", "coordinates": [ 139.767045, 35.67435 ] } },
{ "type": "Feature", "properties": { "lat": 35.645576, "lon": 139.81052, "name": "辰巳" }, "geometry": { "type": "Point", "coordinates": [ 139.81052, 35.645576 ] } },
{ "type": "Feature", "properties": { "lat": 35.645832, "lon": 139.826254, "name": "新木場" }, "geometry": { "type": "Point", "coordinates": [ 139.826254, 35.645832 ] } },
{ "type": "Feature", "properties": { "lat": 35.686564, "lon": 139.7662, "name": "大手町" }, "geometry": { "type": "Point", "coordinates": [ 139.7662, 35.686564 ] } },
{ "type": "Feature", "properties": { "lat": 35.698072, "lon": 139.766014, "name": "新御茶ノ水" }, "geometry": { "type": "Point", "coordinates": [ 139.766014, 35.698072 ] } },
{ "type": "Feature", "properties": { "lat": 35.681071, "lon": 139.761948, "name": "二重橋前" }, "geometry": { "type": "Point", "coordinates": [ 139.761948, 35.681071 ] } },
{ "type": "Feature", "properties": { "lat": 35.686564, "lon": 139.7662, "name": "大手町" }, "geometry": { "type": "Point", "coordinates": [ 139.7662, 35.686564 ] } },
{ "type": "Feature", "properties": { "lat": 35.666572, "lon": 139.726215, "name": "乃木坂" }, "geometry": { "type": "Point", "coordinates": [ 139.726215, 35.666572 ] } },
{ "type": "Feature", "properties": { "lat": 35.67323, "lon": 139.738348, "name": "赤坂" }, "geometry": { "type": "Point", "coordinates": [ 139.738348, 35.67323 ] } },
{ "type": "Feature", "properties": { "lat": 35.686564, "lon": 139.7662, "name": "大手町" }, "geometry": { "type": "Point", "coordinates": [ 139.7662, 35.686564 ] } },
{ "type": "Feature", "properties": { "lat": 35.67393, "lon": 139.745219, "name": "国会議事堂前" }, "geometry": { "type": "Point", "coordinates": [ 139.745219, 35.67393 ] } },
{ "type": "Feature", "properties": { "lat": 35.695966, "lon": 139.757606, "name": "神保町" }, "geometry": { "type": "Point", "coordinates": [ 139.757606, 35.695966 ] } },
{ "type": "Feature", "properties": { "lat": 35.669187, "lon": 139.689099, "name": "代々木公園" }, "geometry": { "type": "Point", "coordinates": [ 139.689099, 35.669187 ] } },
{ "type": "Feature", "properties": { "lat": 35.695966, "lon": 139.757606, "name": "神保町" }, "geometry": { "type": "Point", "coordinates": [ 139.757606, 35.695966 ] } },
{ "type": "Feature", "properties": { "lat": 35.695966, "lon": 139.757606, "name": "神保町" }, "geometry": { "type": "Point", "coordinates": [ 139.757606, 35.695966 ] } },
{ "type": "Feature", "properties": { "lat": 35.669071, "lon": 139.703995, "name": "明治神宮前" }, "geometry": { "type": "Point", "coordinates": [ 139.703995, 35.669071 ] } },
{ "type": "Feature", "properties": { "lat": 35.693587, "lon": 139.770899, "name": "神田" }, "geometry": { "type": "Point", "coordinates": [ 139.770899, 35.693587 ] } },
{ "type": "Feature", "properties": { "lat": 35.695966, "lon": 139.757606, "name": "神保町" }, "geometry": { "type": "Point", "coordinates": [ 139.757606, 35.695966 ] } },
{ "type": "Feature", "properties": { "lat": 35.682683, "lon": 139.785377, "name": "水天宮前" }, "geometry": { "type": "Point", "coordinates": [ 139.785377, 35.682683 ] } },
{ "type": "Feature", "properties": { "lat": 35.698889, "lon": 139.774273, "name": "秋葉原" }, "geometry": { "type": "Point", "coordinates": [ 139.774273, 35.698889 ] } },
{ "type": "Feature", "properties": { "lat": 35.689073, "lon": 139.815681, "name": "住吉" }, "geometry": { "type": "Point", "coordinates": [ 139.815681, 35.689073 ] } },
{ "type": "Feature", "properties": { "lat": 35.698889, "lon": 139.774273, "name": "秋葉原" }, "geometry": { "type": "Point", "coordinates": [ 139.774273, 35.698889 ] } },
{ "type": "Feature", "properties": { "lat": 35.685703, "lon": 139.74163, "name": "半蔵門" }, "geometry": { "type": "Point", "coordinates": [ 139.74163, 35.685703 ] } },
{ "type": "Feature", "properties": { "lat": 35.687101, "lon": 139.773594, "name": "三越前" }, "geometry": { "type": "Point", "coordinates": [ 139.773594, 35.687101 ] } },
{ "type": "Feature", "properties": { "lat": 35.67393, "lon": 139.745219, "name": "国会議事堂前" }, "geometry": { "type": "Point", "coordinates": [ 139.745219, 35.67393 ] } },
{ "type": "Feature", "properties": { "lat": 35.682105, "lon": 139.798851, "name": "清澄白河" }, "geometry": { "type": "Point", "coordinates": [ 139.798851, 35.682105 ] } },
{ "type": "Feature", "properties": { "lat": 35.7001875, "lon": 139.7639511, "name": "御茶ノ水" }, "geometry": { "type": "Point", "coordinates": [ 139.763951100000014, 35.7001875 ] } },
{ "type": "Feature", "properties": { "lat": 35.695589, "lon": 139.751948, "name": "九段下" }, "geometry": { "type": "Point", "coordinates": [ 139.751948, 35.695589 ] } },
{ "type": "Feature", "properties": { "lat": 35.673838, "lon": 139.750899, "name": "霞ヶ関" }, "geometry": { "type": "Point", "coordinates": [ 139.750899, 35.673838 ] } },
{ "type": "Feature", "properties": { "lat": 35.673838, "lon": 139.750899, "name": "霞ヶ関" }, "geometry": { "type": "Point", "coordinates": [ 139.750899, 35.673838 ] } },
{ "type": "Feature", "properties": { "lat": 35.631679, "lon": 139.730305, "name": "高輪台" }, "geometry": { "type": "Point", "coordinates": [ 139.730305, 35.631679 ] } },
{ "type": "Feature", "properties": { "lat": 35.64818, "lon": 139.748775, "name": "三田" }, "geometry": { "type": "Point", "coordinates": [ 139.748775, 35.64818 ] } },
{ "type": "Feature", "properties": { "lat": 35.614633, "lon": 139.716495, "name": "戸越" }, "geometry": { "type": "Point", "coordinates": [ 139.716495, 35.614633 ] } },
{ "type": "Feature", "properties": { "lat": 35.682078, "lon": 139.773516, "name": "日本橋" }, "geometry": { "type": "Point", "coordinates": [ 139.773516, 35.682078 ] } },
{ "type": "Feature", "properties": { "lat": 35.665503, "lon": 139.759644, "name": "新橋" }, "geometry": { "type": "Point", "coordinates": [ 139.759644, 35.665503 ] } },
{ "type": "Feature", "properties": { "lat": 35.625262, "lon": 139.724175, "name": "五反田" }, "geometry": { "type": "Point", "coordinates": [ 139.724175, 35.625262 ] } },
{ "type": "Feature", "properties": { "lat": 35.675461, "lon": 139.771767, "name": "宝町" }, "geometry": { "type": "Point", "coordinates": [ 139.771767, 35.675461 ] } },
{ "type": "Feature", "properties": { "lat": 35.638692, "lon": 139.74002, "name": "泉岳寺" }, "geometry": { "type": "Point", "coordinates": [ 139.74002, 35.638692 ] } },
{ "type": "Feature", "properties": { "lat": 35.669464, "lon": 139.767253, "name": "東銀座" }, "geometry": { "type": "Point", "coordinates": [ 139.767253, 35.669464 ] } },
{ "type": "Feature", "properties": { "lat": 35.692126, "lon": 139.784821, "name": "東日本橋" }, "geometry": { "type": "Point", "coordinates": [ 139.784821, 35.692126 ] } },
{ "type": "Feature", "properties": { "lat": 35.656785, "lon": 139.75466, "name": "大門" }, "geometry": { "type": "Point", "coordinates": [ 139.75466, 35.656785 ] } },
{ "type": "Feature", "properties": { "lat": 35.686307, "lon": 139.782285, "name": "人形町" }, "geometry": { "type": "Point", "coordinates": [ 139.782285, 35.686307 ] } },
{ "type": "Feature", "properties": { "lat": 35.60571, "lon": 139.712526, "name": "中延" }, "geometry": { "type": "Point", "coordinates": [ 139.712526, 35.60571 ] } },
{ "type": "Feature", "properties": { "lat": 35.678757, "lon": 139.740258, "name": "永田町" }, "geometry": { "type": "Point", "coordinates": [ 139.740258, 35.678757 ] } },
{ "type": "Feature", "properties": { "lat": 35.67459, "lon": 139.76017, "name": "日比谷" }, "geometry": { "type": "Point", "coordinates": [ 139.76017, 35.67459 ] } },
{ "type": "Feature", "properties": { "lat": 35.66975, "lon": 139.75561, "name": "内幸町" }, "geometry": { "type": "Point", "coordinates": [ 139.75561, 35.66975 ] } },
{ "type": "Feature", "properties": { "lat": 35.678757, "lon": 139.740258, "name": "永田町" }, "geometry": { "type": "Point", "coordinates": [ 139.740258, 35.678757 ] } },
{ "type": "Feature", "properties": { "lat": 35.701934, "lon": 139.743669, "name": "飯田橋" }, "geometry": { "type": "Point", "coordinates": [ 139.743669, 35.701934 ] } },
{ "type": "Feature", "properties": { "lat": 35.695966, "lon": 139.757606, "name": "神保町" }, "geometry": { "type": "Point", "coordinates": [ 139.757606, 35.695966 ] } },
{ "type": "Feature", "properties": { "lat": 35.686564, "lon": 139.7662, "name": "大手町" }, "geometry": { "type": "Point", "coordinates": [ 139.7662, 35.686564 ] } },
{ "type": "Feature", "properties": { "lat": 35.701934, "lon": 139.743669, "name": "飯田橋" }, "geometry": { "type": "Point", "coordinates": [ 139.743669, 35.701934 ] } },
{ "type": "Feature", "properties": { "lat": 35.661215, "lon": 139.751535, "name": "御成門" }, "geometry": { "type": "Point", "coordinates": [ 139.751535, 35.661215 ] } },
{ "type": "Feature", "properties": { "lat": 35.654074, "lon": 139.749824, "name": "芝公園" }, "geometry": { "type": "Point", "coordinates": [ 139.749824, 35.654074 ] } },
{ "type": "Feature", "properties": { "lat": 35.689729, "lon": 139.700464, "name": "新宿" }, "geometry": { "type": "Point", "coordinates": [ 139.700464, 35.689729 ] } },
{ "type": "Feature", "properties": { "lat": 35.689729, "lon": 139.700464, "name": "新宿" }, "geometry": { "type": "Point", "coordinates": [ 139.700464, 35.689729 ] } },
{ "type": "Feature", "properties": { "lat": 35.689729, "lon": 139.700464, "name": "新宿" }, "geometry": { "type": "Point", "coordinates": [ 139.700464, 35.689729 ] } },
{ "type": "Feature", "properties": { "lat": 35.695589, "lon": 139.751948, "name": "九段下" }, "geometry": { "type": "Point", "coordinates": [ 139.751948, 35.695589 ] } },
{ "type": "Feature", "properties": { "lat": 35.689349, "lon": 139.826206, "name": "西大島" }, "geometry": { "type": "Point", "coordinates": [ 139.826206, 35.689349 ] } },
{ "type": "Feature", "properties": { "lat": 35.692402, "lon": 139.722881, "name": "曙橋" }, "geometry": { "type": "Point", "coordinates": [ 139.722881, 35.692402 ] } },
{ "type": "Feature", "properties": { "lat": 35.690355, "lon": 139.845963, "name": "東大島" }, "geometry": { "type": "Point", "coordinates": [ 139.845963, 35.690355 ] } },
{ "type": "Feature", "properties": { "lat": 35.695534, "lon": 139.775866, "name": "岩本町" }, "geometry": { "type": "Point", "coordinates": [ 139.775866, 35.695534 ] } },
{ "type": "Feature", "properties": { "lat": 35.689905, "lon": 139.83565, "name": "大島" }, "geometry": { "type": "Point", "coordinates": [ 139.83565, 35.689905 ] } },
{ "type": "Feature", "properties": { "lat": 35.695487, "lon": 139.767551, "name": "小川町" }, "geometry": { "type": "Point", "coordinates": [ 139.767551, 35.695487 ] } },
{ "type": "Feature", "properties": { "lat": 35.692972, "lon": 139.736389, "name": "市ヶ谷" }, "geometry": { "type": "Point", "coordinates": [ 139.736389, 35.692972 ] } },
{ "type": "Feature", "properties": { "lat": 35.69212, "lon": 139.782768, "name": "馬喰横山" }, "geometry": { "type": "Point", "coordinates": [ 139.782768, 35.69212 ] } },
{ "type": "Feature", "properties": { "lat": 35.688516, "lon": 139.788154, "name": "浜町" }, "geometry": { "type": "Point", "coordinates": [ 139.788154, 35.688516 ] } },
{ "type": "Feature", "properties": { "lat": 35.68796, "lon": 139.797042, "name": "森下" }, "geometry": { "type": "Point", "coordinates": [ 139.797042, 35.68796 ] } },
{ "type": "Feature", "properties": { "lat": 35.689073, "lon": 139.815681, "name": "住吉" }, "geometry": { "type": "Point", "coordinates": [ 139.815681, 35.689073 ] } },
{ "type": "Feature", "properties": { "lat": 35.689729, "lon": 139.700464, "name": "新宿" }, "geometry": { "type": "Point", "coordinates": [ 139.700464, 35.689729 ] } },
{ "type": "Feature", "properties": { "lat": 35.690853, "lon": 139.704828, "name": "新宿三丁目" }, "geometry": { "type": "Point", "coordinates": [ 139.704828, 35.690853 ] } },
{ "type": "Feature", "properties": { "lat": 35.69792, "lon": 139.707549, "name": "東新宿" }, "geometry": { "type": "Point", "coordinates": [ 139.707549, 35.69792 ] } },
{ "type": "Feature", "properties": { "lat": 35.699518, "lon": 139.725027, "name": "牛込柳町" }, "geometry": { "type": "Point", "coordinates": [ 139.725027, 35.699518 ] } },
{ "type": "Feature", "properties": { "lat": 35.723608, "lon": 139.683303, "name": "落合南長崎" }, "geometry": { "type": "Point", "coordinates": [ 139.683303, 35.723608 ] } },
{ "type": "Feature", "properties": { "lat": 35.700851, "lon": 139.735802, "name": "牛込神楽坂" }, "geometry": { "type": "Point", "coordinates": [ 139.735802, 35.700851 ] } },
{ "type": "Feature", "properties": { "lat": 35.699218, "lon": 139.718184, "name": "若松河田" }, "geometry": { "type": "Point", "coordinates": [ 139.718184, 35.699218 ] } },
{ "type": "Feature", "properties": { "lat": 35.715106, "lon": 139.686967, "name": "中井" }, "geometry": { "type": "Point", "coordinates": [ 139.686967, 35.715106 ] } },
{ "type": "Feature", "properties": { "lat": 35.692972, "lon": 139.736389, "name": "市ヶ谷" }, "geometry": { "type": "Point", "coordinates": [ 139.736389, 35.692972 ] } },
{ "type": "Feature", "properties": { "lat": 35.662836, "lon": 139.731443, "name": "六本木" }, "geometry": { "type": "Point", "coordinates": [ 139.731443, 35.662836 ] } },
{ "type": "Feature", "properties": { "lat": 35.662871, "lon": 139.759985, "name": "汐留" }, "geometry": { "type": "Point", "coordinates": [ 139.759985, 35.662871 ] } },
{ "type": "Feature", "properties": { "lat": 35.671851, "lon": 139.796209, "name": "門前仲町" }, "geometry": { "type": "Point", "coordinates": [ 139.796209, 35.671851 ] } },
{ "type": "Feature", "properties": { "lat": 35.684586, "lon": 139.729947, "name": "四ツ谷" }, "geometry": { "type": "Point", "coordinates": [ 139.729947, 35.684586 ] } },
{ "type": "Feature", "properties": { "lat": 35.664895, "lon": 139.766915, "name": "築地市場" }, "geometry": { "type": "Point", "coordinates": [ 139.766915, 35.664895 ] } },
{ "type": "Feature", "properties": { "lat": 35.672765, "lon": 139.724159, "name": "青山一丁目" }, "geometry": { "type": "Point", "coordinates": [ 139.724159, 35.672765 ] } },
{ "type": "Feature", "properties": { "lat": 35.654682, "lon": 139.737051, "name": "麻布十番" }, "geometry": { "type": "Point", "coordinates": [ 139.737051, 35.654682 ] } },
{ "type": "Feature", "properties": { "lat": 35.658507, "lon": 139.776442, "name": "勝どき" }, "geometry": { "type": "Point", "coordinates": [ 139.776442, 35.658507 ] } },
{ "type": "Feature", "properties": { "lat": 35.682105, "lon": 139.798851, "name": "清澄白河" }, "geometry": { "type": "Point", "coordinates": [ 139.798851, 35.682105 ] } },
{ "type": "Feature", "properties": { "lat": 35.664871, "lon": 139.784233, "name": "月島" }, "geometry": { "type": "Point", "coordinates": [ 139.784233, 35.664871 ] } },
{ "type": "Feature", "properties": { "lat": 35.655007, "lon": 139.743642, "name": "赤羽橋" }, "geometry": { "type": "Point", "coordinates": [ 139.743642, 35.655007 ] } },
{ "type": "Feature", "properties": { "lat": 35.669071, "lon": 139.703995, "name": "明治神宮前" }, "geometry": { "type": "Point", "coordinates": [ 139.703995, 35.669071 ] } },
{ "type": "Feature", "properties": { "lat": 35.689798, "lon": 139.684304, "name": "西新宿五丁目" }, "geometry": { "type": "Point", "coordinates": [ 139.684304, 35.689798 ] } },
{ "type": "Feature", "properties": { "lat": 35.690551, "lon": 139.69257, "name": "都庁前" }, "geometry": { "type": "Point", "coordinates": [ 139.69257, 35.690551 ] } },
{ "type": "Feature", "properties": { "lat": 35.693315, "lon": 139.699155, "name": "新宿西口" }, "geometry": { "type": "Point", "coordinates": [ 139.699155, 35.693315 ] } },
{ "type": "Feature", "properties": { "lat": 35.679831, "lon": 139.714932, "name": "国立競技場" }, "geometry": { "type": "Point", "coordinates": [ 139.714932, 35.679831 ] } },
{ "type": "Feature", "properties": { "lat": 35.683218, "lon": 139.701666, "name": "代々木" }, "geometry": { "type": "Point", "coordinates": [ 139.701666, 35.683218 ] } },
{ "type": "Feature", "properties": { "lat": 35.705723, "lon": 139.721319, "name": "早稲田" }, "geometry": { "type": "Point", "coordinates": [ 139.721319, 35.705723 ] } },
{ "type": "Feature", "properties": { "lat": 35.712981, "lon": 139.714444, "name": "面影橋" }, "geometry": { "type": "Point", "coordinates": [ 139.714444, 35.712981 ] } },
{ "type": "Feature", "properties": { "lat": 35.622908, "lon": 139.750675, "name": "天王洲アイル" }, "geometry": { "type": "Point", "coordinates": [ 139.750675, 35.622908 ] } },
{ "type": "Feature", "properties": { "lat": 35.62753, "lon": 139.778896, "name": "東京テレポート" }, "geometry": { "type": "Point", "coordinates": [ 139.778896, 35.62753 ] } },
{ "type": "Feature", "properties": { "lat": 35.665247, "lon": 139.712314, "name": "表参道" }, "geometry": { "type": "Point", "coordinates": [ 139.712314, 35.665247 ] } },
{ "type": "Feature", "properties": { "lat": 35.640987, "lon": 139.804395, "name": "東雲" }, "geometry": { "type": "Point", "coordinates": [ 139.804395, 35.640987 ] } },
{ "type": "Feature", "properties": { "lat": 35.645832, "lon": 139.826254, "name": "新木場" }, "geometry": { "type": "Point", "coordinates": [ 139.826254, 35.645832 ] } },
{ "type": "Feature", "properties": { "lat": 35.607535, "lon": 139.735025, "name": "大井町" }, "geometry": { "type": "Point", "coordinates": [ 139.735025, 35.607535 ] } },
{ "type": "Feature", "properties": { "lat": 35.63441, "lon": 139.791617, "name": "国際展示場" }, "geometry": { "type": "Point", "coordinates": [ 139.791617, 35.63441 ] } },
{ "type": "Feature", "properties": { "lat": 35.608524, "lon": 139.749549, "name": "品川シーサイド" }, "geometry": { "type": "Point", "coordinates": [ 139.749549, 35.608524 ] } },
{ "type": "Feature", "properties": { "lat": 35.669159, "lon": 139.680153, "name": "代々木上原" }, "geometry": { "type": "Point", "coordinates": [ 139.680153, 35.669159 ] } },
{ "type": "Feature", "properties": { "lat": 35.667946, "lon": 139.792713, "name": "越中島" }, "geometry": { "type": "Point", "coordinates": [ 139.792713, 35.667946 ] } },
{ "type": "Feature", "properties": { "lat": 35.674851, "lon": 139.776982, "name": "八丁堀" }, "geometry": { "type": "Point", "coordinates": [ 139.776982, 35.674851 ] } },
{ "type": "Feature", "properties": { "lat": 35.645832, "lon": 139.826254, "name": "新木場" }, "geometry": { "type": "Point", "coordinates": [ 139.826254, 35.645832 ] } },
{ "type": "Feature", "properties": { "lat": 35.658702, "lon": 139.817341, "name": "潮見" }, "geometry": { "type": "Point", "coordinates": [ 139.817341, 35.658702 ] } },
{ "type": "Feature", "properties": { "lat": 35.712677, "lon": 139.703715, "name": "高田馬場" }, "geometry": { "type": "Point", "coordinates": [ 139.703715, 35.712677 ] } },
{ "type": "Feature", "properties": { "lat": 35.700875, "lon": 139.700261, "name": "新大久保" }, "geometry": { "type": "Point", "coordinates": [ 139.700261, 35.700875 ] } },
{ "type": "Feature", "properties": { "lat": 35.619772, "lon": 139.728439, "name": "大崎" }, "geometry": { "type": "Point", "coordinates": [ 139.728439, 35.619772 ] } },
{ "type": "Feature", "properties": { "lat": 35.625262, "lon": 139.724175, "name": "五反田" }, "geometry": { "type": "Point", "coordinates": [ 139.724175, 35.625262 ] } },
{ "type": "Feature", "properties": { "lat": 35.628284, "lon": 139.73809, "name": "品川" }, "geometry": { "type": "Point", "coordinates": [ 139.73809, 35.628284 ] } },
{ "type": "Feature", "properties": { "lat": 35.633272, "lon": 139.7155, "name": "目黒" }, "geometry": { "type": "Point", "coordinates": [ 139.7155, 35.633272 ] } },
{ "type": "Feature", "properties": { "lat": 35.647332, "lon": 139.708988, "name": "恵比寿" }, "geometry": { "type": "Point", "coordinates": [ 139.708988, 35.647332 ] } },
{ "type": "Feature", "properties": { "lat": 35.6587, "lon": 139.700872, "name": "渋谷" }, "geometry": { "type": "Point", "coordinates": [ 139.700872, 35.6587 ] } },
{ "type": "Feature", "properties": { "lat": 35.683218, "lon": 139.701666, "name": "代々木" }, "geometry": { "type": "Point", "coordinates": [ 139.701666, 35.683218 ] } },
{ "type": "Feature", "properties": { "lat": 35.690853, "lon": 139.704828, "name": "新宿三丁目" }, "geometry": { "type": "Point", "coordinates": [ 139.704828, 35.690853 ] } },
{ "type": "Feature", "properties": { "lat": 35.689729, "lon": 139.700464, "name": "新宿" }, "geometry": { "type": "Point", "coordinates": [ 139.700464, 35.689729 ] } },
{ "type": "Feature", "properties": { "lat": 35.689729, "lon": 139.700464, "name": "新宿" }, "geometry": { "type": "Point", "coordinates": [ 139.700464, 35.689729 ] } },
{ "type": "Feature", "properties": { "lat": 35.670646, "lon": 139.702592, "name": "原宿" }, "geometry": { "type": "Point", "coordinates": [ 139.702592, 35.670646 ] } },
{ "type": "Feature", "properties": { "lat": 35.689729, "lon": 139.700464, "name": "新宿" }, "geometry": { "type": "Point", "coordinates": [ 139.700464, 35.689729 ] } },
{ "type": "Feature", "properties": { "lat": 35.6587, "lon": 139.700872, "name": "渋谷" }, "geometry": { "type": "Point", "coordinates": [ 139.700872, 35.6587 ] } },
{ "type": "Feature", "properties": { "lat": 35.697345, "lon": 139.826262, "name": "亀戸" }, "geometry": { "type": "Point", "coordinates": [ 139.826262, 35.697345 ] } },
{ "type": "Feature", "properties": { "lat": 35.698889, "lon": 139.774273, "name": "秋葉原" }, "geometry": { "type": "Point", "coordinates": [ 139.774273, 35.698889 ] } },
{ "type": "Feature", "properties": { "lat": 35.6587, "lon": 139.700872, "name": "渋谷" }, "geometry": { "type": "Point", "coordinates": [ 139.700872, 35.6587 ] } },
{ "type": "Feature", "properties": { "lat": 35.693365, "lon": 139.78238, "name": "馬喰町" }, "geometry": { "type": "Point", "coordinates": [ 139.78238, 35.693365 ] } },
{ "type": "Feature", "properties": { "lat": 35.688687, "lon": 139.77323, "name": "新日本橋" }, "geometry": { "type": "Point", "coordinates": [ 139.77323, 35.688687 ] } },
{ "type": "Feature", "properties": { "lat": 35.702039, "lon": 139.754312, "name": "水道橋" }, "geometry": { "type": "Point", "coordinates": [ 139.754312, 35.702039 ] } },
{ "type": "Feature", "properties": { "lat": 35.701934, "lon": 139.743669, "name": "飯田橋" }, "geometry": { "type": "Point", "coordinates": [ 139.743669, 35.701934 ] } },
{ "type": "Feature", "properties": { "lat": 35.7001875, "lon": 139.7639511, "name": "御茶ノ水" }, "geometry": { "type": "Point", "coordinates": [ 139.763951100000014, 35.7001875 ] } },
{ "type": "Feature", "properties": { "lat": 35.700784, "lon": 139.69732, "name": "大久保" }, "geometry": { "type": "Point", "coordinates": [ 139.69732, 35.700784 ] } },
{ "type": "Feature", "properties": { "lat": 35.693587, "lon": 139.770899, "name": "神田" }, "geometry": { "type": "Point", "coordinates": [ 139.770899, 35.693587 ] } },
{ "type": "Feature", "properties": { "lat": 35.684586, "lon": 139.729947, "name": "四ツ谷" }, "geometry": { "type": "Point", "coordinates": [ 139.729947, 35.684586 ] } },
{ "type": "Feature", "properties": { "lat": 35.692972, "lon": 139.736389, "name": "市ヶ谷" }, "geometry": { "type": "Point", "coordinates": [ 139.736389, 35.692972 ] } },
{ "type": "Feature", "properties": { "lat": 35.680031, "lon": 139.720729, "name": "信濃町" }, "geometry": { "type": "Point", "coordinates": [ 139.720729, 35.680031 ] } },
{ "type": "Feature", "properties": { "lat": 35.683218, "lon": 139.701666, "name": "代々木" }, "geometry": { "type": "Point", "coordinates": [ 139.701666, 35.683218 ] } },
{ "type": "Feature", "properties": { "lat": 35.689729, "lon": 139.700464, "name": "新宿" }, "geometry": { "type": "Point", "coordinates": [ 139.700464, 35.689729 ] } },
{ "type": "Feature", "properties": { "lat": 35.681231, "lon": 139.711644, "name": "千駄ヶ谷" }, "geometry": { "type": "Point", "coordinates": [ 139.711644, 35.681231 ] } },
{ "type": "Feature", "properties": { "lat": 35.6587, "lon": 139.700872, "name": "渋谷" }, "geometry": { "type": "Point", "coordinates": [ 139.700872, 35.6587 ] } },
{ "type": "Feature", "properties": { "lat": 35.673621, "lon": 139.741419, "name": "溜池山王" }, "geometry": { "type": "Point", "coordinates": [ 139.741419, 35.673621 ] } },
{ "type": "Feature", "properties": { "lat": 35.655666, "lon": 139.756747, "name": "浜松町" }, "geometry": { "type": "Point", "coordinates": [ 139.756747, 35.655666 ] } },
{ "type": "Feature", "properties": { "lat": 35.628284, "lon": 139.73809, "name": "品川" }, "geometry": { "type": "Point", "coordinates": [ 139.73809, 35.628284 ] } },
{ "type": "Feature", "properties": { "lat": 35.645736, "lon": 139.747575, "name": "田町" }, "geometry": { "type": "Point", "coordinates": [ 139.747575, 35.645736 ] } },
{ "type": "Feature", "properties": { "lat": 35.628284, "lon": 139.73809, "name": "品川" }, "geometry": { "type": "Point", "coordinates": [ 139.73809, 35.628284 ] } },
{ "type": "Feature", "properties": { "lat": 35.628284, "lon": 139.73809, "name": "品川" }, "geometry": { "type": "Point", "coordinates": [ 139.73809, 35.628284 ] } },
{ "type": "Feature", "properties": { "lat": 35.665247, "lon": 139.712314, "name": "表参道" }, "geometry": { "type": "Point", "coordinates": [ 139.712314, 35.665247 ] } },
{ "type": "Feature", "properties": { "lat": 35.601616, "lon": 139.721729, "name": "西大井" }, "geometry": { "type": "Point", "coordinates": [ 139.721729, 35.601616 ] } },
{ "type": "Feature", "properties": { "lat": 35.665503, "lon": 139.759644, "name": "新橋" }, "geometry": { "type": "Point", "coordinates": [ 139.759644, 35.665503 ] } },
{ "type": "Feature", "properties": { "lat": 35.607535, "lon": 139.735025, "name": "大井町" }, "geometry": { "type": "Point", "coordinates": [ 139.735025, 35.607535 ] } },
{ "type": "Feature", "properties": { "lat": 35.637917, "lon": 139.726133, "name": "白金台" }, "geometry": { "type": "Point", "coordinates": [ 139.726133, 35.637917 ] } },
{ "type": "Feature", "properties": { "lat": 35.681753, "lon": 139.764708, "name": "東京" }, "geometry": { "type": "Point", "coordinates": [ 139.764708, 35.681753 ] } },
{ "type": "Feature", "properties": { "lat": 35.675714, "lon": 139.763265, "name": "有楽町" }, "geometry": { "type": "Point", "coordinates": [ 139.763265, 35.675714 ] } },
{ "type": "Feature", "properties": { "lat": 35.642903, "lon": 139.734104, "name": "白金高輪" }, "geometry": { "type": "Point", "coordinates": [ 139.734104, 35.642903 ] } },
{ "type": "Feature", "properties": { "lat": 35.656785, "lon": 139.75466, "name": "大門" }, "geometry": { "type": "Point", "coordinates": [ 139.75466, 35.656785 ] } },
{ "type": "Feature", "properties": { "lat": 35.638692, "lon": 139.74002, "name": "泉岳寺" }, "geometry": { "type": "Point", "coordinates": [ 139.74002, 35.638692 ] } },
{ "type": "Feature", "properties": { "lat": 35.677021, "lon": 139.737047, "name": "赤坂見附" }, "geometry": { "type": "Point", "coordinates": [ 139.737047, 35.677021 ] } },
{ "type": "Feature", "properties": { "lat": 35.672765, "lon": 139.724159, "name": "青山一丁目" }, "geometry": { "type": "Point", "coordinates": [ 139.724159, 35.672765 ] } },
{ "type": "Feature", "properties": { "lat": 35.665503, "lon": 139.759644, "name": "新橋" }, "geometry": { "type": "Point", "coordinates": [ 139.759644, 35.665503 ] } },
{ "type": "Feature", "properties": { "lat": 35.697345, "lon": 139.826262, "name": "亀戸" }, "geometry": { "type": "Point", "coordinates": [ 139.826262, 35.697345 ] } },
{ "type": "Feature", "properties": { "lat": 35.699976, "lon": 139.833422, "name": "亀戸水神" }, "geometry": { "type": "Point", "coordinates": [ 139.833422, 35.699976 ] } },
{ "type": "Feature", "properties": { "lat": 35.637917, "lon": 139.726133, "name": "白金台" }, "geometry": { "type": "Point", "coordinates": [ 139.726133, 35.637917 ] } },
{ "type": "Feature", "properties": { "lat": 35.64818, "lon": 139.748775, "name": "三田" }, "geometry": { "type": "Point", "coordinates": [ 139.748775, 35.64818 ] } },
{ "type": "Feature", "properties": { "lat": 35.64818, "lon": 139.748775, "name": "三田" }, "geometry": { "type": "Point", "coordinates": [ 139.748775, 35.64818 ] } },
{ "type": "Feature", "properties": { "lat": 35.64818, "lon": 139.748775, "name": "三田" }, "geometry": { "type": "Point", "coordinates": [ 139.748775, 35.64818 ] } },
{ "type": "Feature", "properties": { "lat": 35.6355, "lon": 139.7407, "name": "高輪ゲートウェイ" }, "geometry": { "type": "Point", "coordinates": [ 139.7407, 35.6355 ] } },
{ "type": "Feature", "properties": { "lat": 35.69792, "lon": 139.707549, "name": "東新宿" }, "geometry": { "type": "Point", "coordinates": [ 139.707549, 35.69792 ] } },
{ "type": "Feature", "properties": { "lat": 35.678459, "lon": 139.705453, "name": "北参道" }, "geometry": { "type": "Point", "coordinates": [ 139.705453, 35.678459 ] } },
{ "type": "Feature", "properties": { "lat": 35.708242, "lon": 139.709101, "name": "西早稲田" }, "geometry": { "type": "Point", "coordinates": [ 139.709101, 35.708242 ] } },
{ "type": "Feature", "properties": { "lat": 35.68796, "lon": 139.797042, "name": "森下" }, "geometry": { "type": "Point", "coordinates": [ 139.797042, 35.68796 ] } },
{ "type": "Feature", "properties": { "lat": 35.710976, "lon": 139.687284, "name": "落合" }, "geometry": { "type": "Point", "coordinates": [ 139.687284, 35.710976 ] } }
]
}
