{
"type": "FeatureCollection",
"name": "temples2025",
"crs": { "type": "name", "properties": { "name": "urn:ogc:def:crs:OGC:1.3:CRS84" } },
"features": [
{ "type": "Feature", "properties": { "lat": 35.6745509, "lon": 139.7403246, "title": "日枝神社" }, "geometry": { "type": "Point", "coordinates": [ 139.7403246, 35.6745509 ] } },
{ "type": "Feature", "properties": { "lat": 35.6952812, "lon": 139.7437033, "title": "靖国神社" }, "geometry": { "type": "Point", "coordinates": [ 139.7437033, 35.6952812 ] } },
{ "type": "Feature", "properties": { "lat": 35.7001703, "lon": 139.7466417, "title": "東京大神宮" }, "geometry": { "type": "Point", "coordinates": [ 139.7466417, 35.7001703 ] } },
{ "type": "Feature", "properties": { "lat": 35.6964457, "lon": 139.7630816, "title": "太田姫稲荷神社" }, "geometry": { "type": "Point", "coordinates": [ 139.7630816, 35.6964457 ] } },
{ "type": "Feature", "properties": { "lat": 35.6899445, "lon": 139.7666053, "title": "御宿稲荷神社" }, "geometry": { "type": "Point", "coordinates": [ 139.7666053, 35.6899445 ] } },
{ "type": "Feature", "properties": { "lat": 35.7017181, "lon": 139.7543845, "title": "三崎稲荷神社" }, "geometry": { "type": "Point", "coordinates": [ 139.754384499999986, 35.7017181 ] } },
{ "type": "Feature", "properties": { "lat": 35.6911711, "lon": 139.7693428, "title": "佐竹稲荷神社" }, "geometry": { "type": "Point", "coordinates": [ 139.7693428, 35.6911711 ] } },
{ "type": "Feature", "properties": { "lat": 35.6937645, "lon": 139.767883, "title": "真徳稲荷神社" }, "geometry": { "type": "Point", "coordinates": [ 139.767883, 35.6937645 ] } },
{ "type": "Feature", "properties": { "lat": 35.6966842, "lon": 139.7734948, "title": "柳森神社" }, "geometry": { "type": "Point", "coordinates": [ 139.7734948, 35.6966842 ] } },
{ "type": "Feature", "properties": { "lat": 35.6824276, "lon": 139.7407713, "title": "平河天満宮" }, "geometry": { "type": "Point", "coordinates": [ 139.7407713, 35.6824276 ] } },
{ "type": "Feature", "properties": { "lat": 35.6941857, "lon": 139.7621145, "title": "五十稲荷神社" }, "geometry": { "type": "Point", "coordinates": [ 139.7621145, 35.6941857 ] } },
{ "type": "Feature", "properties": { "lat": 35.6962464, "lon": 139.7499277, "title": "築土神社" }, "geometry": { "type": "Point", "coordinates": [ 139.7499277, 35.6962464 ] } },
{ "type": "Feature", "properties": { "lat": 35.6746528, "lon": 139.7399753, "title": "山王稲荷神社" }, "geometry": { "type": "Point", "coordinates": [ 139.7399753, 35.6746528 ] } },
{ "type": "Feature", "properties": { "lat": 35.6841867, "lon": 139.7805694, "title": "小網神社" }, "geometry": { "type": "Point", "coordinates": [ 139.7805694, 35.6841867 ] } },
{ "type": "Feature", "properties": { "lat": 35.6873122, "lon": 139.7744533, "title": "福徳神社 (芽吹稲荷)" }, "geometry": { "type": "Point", "coordinates": [ 139.7744533, 35.6873122 ] } },
{ "type": "Feature", "properties": { "lat": 35.668047, "lon": 139.7834305, "title": "住吉神社" }, "geometry": { "type": "Point", "coordinates": [ 139.7834305, 35.668047 ] } },
{ "type": "Feature", "properties": { "lat": 35.6723278, "lon": 139.7798754, "title": "鉄砲洲稲荷神社" }, "geometry": { "type": "Point", "coordinates": [ 139.7798754, 35.6723278 ] } },
{ "type": "Feature", "properties": { "lat": 35.6868756, "lon": 139.7840974, "title": "末広神社" }, "geometry": { "type": "Point", "coordinates": [ 139.7840974, 35.6868756 ] } },
{ "type": "Feature", "properties": { "lat": 35.6690349, "lon": 139.762134, "title": "豊岩稲荷神社" }, "geometry": { "type": "Point", "coordinates": [ 139.762134, 35.6690349 ] } },
{ "type": "Feature", "properties": { "lat": 35.6847492, "lon": 139.7854478, "title": "松島神社" }, "geometry": { "type": "Point", "coordinates": [ 139.785447799999986, 35.6847492 ] } },
{ "type": "Feature", "properties": { "lat": 35.6880783, "lon": 139.785318, "title": "笠間稲荷神社東京別社" }, "geometry": { "type": "Point", "coordinates": [ 139.785318, 35.6880783 ] } },
{ "type": "Feature", "properties": { "lat": 35.6884454, "lon": 139.7796757, "title": "椙森神社" }, "geometry": { "type": "Point", "coordinates": [ 139.779675700000013, 35.6884454 ] } },
{ "type": "Feature", "properties": { "lat": 35.678649, "lon": 139.7765056, "title": "鳥居稲荷神社" }, "geometry": { "type": "Point", "coordinates": [ 139.7765056, 35.678649 ] } },
{ "type": "Feature", "properties": { "lat": 35.680949, "lon": 139.7790668, "title": "日枝神社日本橋摂社" }, "geometry": { "type": "Point", "coordinates": [ 139.77906680000001, 35.680949 ] } },
{ "type": "Feature", "properties": { "lat": 35.683912, "lon": 139.7836045, "title": "茶ノ木神社" }, "geometry": { "type": "Point", "coordinates": [ 139.7836045, 35.683912 ] } },
{ "type": "Feature", "properties": { "lat": 35.6834085, "lon": 139.785258, "title": "水天宮・寳生辨財天" }, "geometry": { "type": "Point", "coordinates": [ 139.785258, 35.6834085 ] } },
{ "type": "Feature", "properties": { "lat": 35.6634848, "lon": 139.7715569, "title": "波除神社" }, "geometry": { "type": "Point", "coordinates": [ 139.7715569, 35.6634848 ] } },
{ "type": "Feature", "properties": { "lat": 35.6634848, "lon": 139.7715569, "title": "築地・波除神社" }, "geometry": { "type": "Point", "coordinates": [ 139.7715569, 35.6634848 ] } },
{ "type": "Feature", "properties": { "lat": 35.6893272, "lon": 139.7771094, "title": "宝田神社" }, "geometry": { "type": "Point", "coordinates": [ 139.7771094, 35.6893272 ] } },
{ "type": "Feature", "properties": { "lat": 35.6758202, "lon": 139.7863041, "title": "海渡稲荷神社" }, "geometry": { "type": "Point", "coordinates": [ 139.7863041, 35.6758202 ] } },
{ "type": "Feature", "properties": { "lat": 35.6750737, "lon": 139.7779974, "title": "今村幸稲荷神社" }, "geometry": { "type": "Point", "coordinates": [ 139.7779974, 35.6750737 ] } },
{ "type": "Feature", "properties": { "lat": 35.6712857, "lon": 139.7672247, "title": "朝日稲荷神社" }, "geometry": { "type": "Point", "coordinates": [ 139.767224700000014, 35.6712857 ] } },
{ "type": "Feature", "properties": { "lat": 35.6854373, "lon": 139.7778982, "title": "常磐稲荷神社" }, "geometry": { "type": "Point", "coordinates": [ 139.77789820000001, 35.6854373 ] } },
{ "type": "Feature", "properties": { "lat": 35.680949, "lon": 139.7790668, "title": "明徳稲荷神社" }, "geometry": { "type": "Point", "coordinates": [ 139.77906680000001, 35.680949 ] } },
{ "type": "Feature", "properties": { "lat": 35.6896297, "lon": 139.7800352, "title": "稲荷神社" }, "geometry": { "type": "Point", "coordinates": [ 139.780035199999986, 35.6896297 ] } },
{ "type": "Feature", "properties": { "lat": 35.6885113, "lon": 139.7710685, "title": "白旗稲荷神社" }, "geometry": { "type": "Point", "coordinates": [ 139.771068500000013, 35.6885113 ] } },
{ "type": "Feature", "properties": { "lat": 35.6778005, "lon": 139.7828717, "title": "新川大神宮" }, "geometry": { "type": "Point", "coordinates": [ 139.782871699999987, 35.6778005 ] } },
{ "type": "Feature", "properties": { "lat": 35.6807035, "lon": 139.776787, "title": "大原稲荷神社" }, "geometry": { "type": "Point", "coordinates": [ 139.776787, 35.6807035 ] } },
{ "type": "Feature", "properties": { "lat": 35.6749738, "lon": 139.7833905, "title": "金刀比羅神社" }, "geometry": { "type": "Point", "coordinates": [ 139.7833905, 35.6749738 ] } },
{ "type": "Feature", "properties": { "lat": 35.6876278, "lon": 139.781608, "title": "三光稲荷神社" }, "geometry": { "type": "Point", "coordinates": [ 139.781608, 35.6876278 ] } },
{ "type": "Feature", "properties": { "lat": 35.6847547, "lon": 139.7886946, "title": "浜町神社" }, "geometry": { "type": "Point", "coordinates": [ 139.788694600000014, 35.6847547 ] } },
{ "type": "Feature", "properties": { "lat": 35.6889454, "lon": 139.7827814, "title": "稲荷神社" }, "geometry": { "type": "Point", "coordinates": [ 139.7827814, 35.6889454 ] } },
{ "type": "Feature", "properties": { "lat": 35.6799624, "lon": 139.78382, "title": "稲荷神社" }, "geometry": { "type": "Point", "coordinates": [ 139.78382, 35.6799624 ] } },
{ "type": "Feature", "properties": { "lat": 35.6761059, "lon": 139.7743188, "title": "天祖神社" }, "geometry": { "type": "Point", "coordinates": [ 139.7743188, 35.6761059 ] } },
{ "type": "Feature", "properties": { "lat": 35.6809747, "lon": 139.7857873, "title": "永久稲荷神社" }, "geometry": { "type": "Point", "coordinates": [ 139.78578730000001, 35.6809747 ] } },
{ "type": "Feature", "properties": { "lat": 35.6665166, "lon": 139.7565131, "title": "烏森神社" }, "geometry": { "type": "Point", "coordinates": [ 139.7565131, 35.6665166 ] } },
{ "type": "Feature", "properties": { "lat": 35.6650435, "lon": 139.7484781, "title": "愛宕神社" }, "geometry": { "type": "Point", "coordinates": [ 139.7484781, 35.6650435 ] } },
{ "type": "Feature", "properties": { "lat": 35.6634065, "lon": 139.7583782, "title": "日比谷神社" }, "geometry": { "type": "Point", "coordinates": [ 139.75837820000001, 35.6634065 ] } },
{ "type": "Feature", "properties": { "lat": 35.6686111, "lon": 139.7281282, "title": "乃木神社" }, "geometry": { "type": "Point", "coordinates": [ 139.728128199999986, 35.6686111 ] } },
{ "type": "Feature", "properties": { "lat": 35.6352679, "lon": 139.7378797, "title": "宗教法人高輪神社" }, "geometry": { "type": "Point", "coordinates": [ 139.7378797, 35.6352679 ] } },
{ "type": "Feature", "properties": { "lat": 35.6683173, "lon": 139.7361866, "title": "赤坂氷川神社" }, "geometry": { "type": "Point", "coordinates": [ 139.7361866, 35.6683173 ] } },
{ "type": "Feature", "properties": { "lat": 35.6569858, "lon": 139.7351614, "title": "十番稲荷神社" }, "geometry": { "type": "Point", "coordinates": [ 139.73516140000001, 35.6569858 ] } },
{ "type": "Feature", "properties": { "lat": 35.6431456, "lon": 139.7312962, "title": "白金氷川神社" }, "geometry": { "type": "Point", "coordinates": [ 139.7312962, 35.6431456 ] } },
{ "type": "Feature", "properties": { "lat": 35.6695952, "lon": 139.7480332, "title": "金刀比羅宮" }, "geometry": { "type": "Point", "coordinates": [ 139.7480332, 35.6695952 ] } },
{ "type": "Feature", "properties": { "lat": 35.6432179, "lon": 139.7414723, "title": "御田八幡神社" }, "geometry": { "type": "Point", "coordinates": [ 139.7414723, 35.6432179 ] } },
{ "type": "Feature", "properties": { "lat": 35.6576591, "lon": 139.7530653, "title": "芝大神宮" }, "geometry": { "type": "Point", "coordinates": [ 139.7530653, 35.6576591 ] } },
{ "type": "Feature", "properties": { "lat": 35.6528815, "lon": 139.7310499, "title": "麻布氷川神社" }, "geometry": { "type": "Point", "coordinates": [ 139.731049899999988, 35.6528815 ] } },
{ "type": "Feature", "properties": { "lat": 35.6504406, "lon": 139.7236252, "title": "廣尾稲荷神社" }, "geometry": { "type": "Point", "coordinates": [ 139.723625199999987, 35.6504406 ] } },
{ "type": "Feature", "properties": { "lat": 35.649697, "lon": 139.7444262, "title": "三田春日神社" }, "geometry": { "type": "Point", "coordinates": [ 139.7444262, 35.649697 ] } },
{ "type": "Feature", "properties": { "lat": 35.6651445, "lon": 139.7292387, "title": "天祖神社・龍土神明宮" }, "geometry": { "type": "Point", "coordinates": [ 139.7292387, 35.6651445 ] } },
{ "type": "Feature", "properties": { "lat": 35.6568885, "lon": 139.7229433, "title": "神道大教" }, "geometry": { "type": "Point", "coordinates": [ 139.7229433, 35.6568885 ] } },
{ "type": "Feature", "properties": { "lat": 35.6551089, "lon": 139.7486179, "title": "東照宮" }, "geometry": { "type": "Point", "coordinates": [ 139.7486179, 35.6551089 ] } },
{ "type": "Feature", "properties": { "lat": 35.6618568, "lon": 139.7325376, "title": "朝日神社" }, "geometry": { "type": "Point", "coordinates": [ 139.7325376, 35.6618568 ] } },
{ "type": "Feature", "properties": { "lat": 35.631498, "lon": 139.7295726, "title": "真先稲荷神社" }, "geometry": { "type": "Point", "coordinates": [ 139.729572600000012, 35.631498 ] } },
{ "type": "Feature", "properties": { "lat": 35.6528143, "lon": 139.7460393, "title": "柳神社" }, "geometry": { "type": "Point", "coordinates": [ 139.7460393, 35.6528143 ] } },
{ "type": "Feature", "properties": { "lat": 35.6657458, "lon": 139.7121877, "title": "秋葉神社" }, "geometry": { "type": "Point", "coordinates": [ 139.712187699999987, 35.6657458 ] } },
{ "type": "Feature", "properties": { "lat": 35.6374988, "lon": 139.7390627, "title": "稲荷神社" }, "geometry": { "type": "Point", "coordinates": [ 139.7390627, 35.6374988 ] } },
{ "type": "Feature", "properties": { "lat": 35.6384336, "lon": 139.7278121, "title": "古地老稲荷神社" }, "geometry": { "type": "Point", "coordinates": [ 139.7278121, 35.638433600000013 ] } },
{ "type": "Feature", "properties": { "lat": 35.6727766, "lon": 139.7317391, "title": "末廣稲荷神社" }, "geometry": { "type": "Point", "coordinates": [ 139.7317391, 35.6727766 ] } },
{ "type": "Feature", "properties": { "lat": 35.6534795, "lon": 139.740574, "title": "元神明宮" }, "geometry": { "type": "Point", "coordinates": [ 139.740574, 35.6534795 ] } },
{ "type": "Feature", "properties": { "lat": 35.6614287, "lon": 139.742592, "title": "西久保八幡神社" }, "geometry": { "type": "Point", "coordinates": [ 139.742592, 35.6614287 ] } },
{ "type": "Feature", "properties": { "lat": 35.627819, "lon": 139.773568, "title": "アクアシティお台場神社" }, "geometry": { "type": "Point", "coordinates": [ 139.773568, 35.627819 ] } },
{ "type": "Feature", "properties": { "lat": 35.6580813, "lon": 139.7515077, "title": "タワー大神宮" }, "geometry": { "type": "Point", "coordinates": [ 139.7515077, 35.658081300000013 ] } },
{ "type": "Feature", "properties": { "lat": 35.6670931, "lon": 139.7384339, "title": "久国神社" }, "geometry": { "type": "Point", "coordinates": [ 139.7384339, 35.6670931 ] } },
{ "type": "Feature", "properties": { "lat": 35.6585983, "lon": 139.7429392, "title": "飯倉熊野神社" }, "geometry": { "type": "Point", "coordinates": [ 139.7429392, 35.6585983 ] } },
{ "type": "Feature", "properties": { "lat": 35.6694078, "lon": 139.7203185, "title": "青山典範合資会社" }, "geometry": { "type": "Point", "coordinates": [ 139.7203185, 35.6694078 ] } },
{ "type": "Feature", "properties": { "lat": 35.6281947, "lon": 139.7372403, "title": "高山稲荷神社" }, "geometry": { "type": "Point", "coordinates": [ 139.7372403, 35.6281947 ] } },
{ "type": "Feature", "properties": { "lat": 35.6644079, "lon": 139.7134585, "title": "稲荷神社" }, "geometry": { "type": "Point", "coordinates": [ 139.7134585, 35.6644079 ] } },
{ "type": "Feature", "properties": { "lat": 35.6668439, "lon": 139.7171673, "title": "稲荷神社" }, "geometry": { "type": "Point", "coordinates": [ 139.7171673, 35.6668439 ] } },
{ "type": "Feature", "properties": { "lat": 35.63979, "lon": 139.73312, "title": "稲荷神社" }, "geometry": { "type": "Point", "coordinates": [ 139.73312, 35.63979 ] } },
{ "type": "Feature", "properties": { "lat": 35.6604873, "lon": 139.7460162, "title": "宗教法人幸稲荷神社" }, "geometry": { "type": "Point", "coordinates": [ 139.746016200000014, 35.6604873 ] } },
{ "type": "Feature", "properties": { "lat": 35.6710831, "lon": 139.7330456, "title": "椿大神社東京講本部" }, "geometry": { "type": "Point", "coordinates": [ 139.7330456, 35.6710831 ] } },
{ "type": "Feature", "properties": { "lat": 35.6645502, "lon": 139.7449284, "title": "葺城稲荷神社" }, "geometry": { "type": "Point", "coordinates": [ 139.7449284, 35.6645502 ] } },
{ "type": "Feature", "properties": { "lat": 35.6540506, "lon": 139.7561321, "title": "稲荷神社" }, "geometry": { "type": "Point", "coordinates": [ 139.7561321, 35.6540506 ] } },
{ "type": "Feature", "properties": { "lat": 35.6935764, "lon": 139.7052033, "title": "花園神社" }, "geometry": { "type": "Point", "coordinates": [ 139.7052033, 35.6935764 ] } },
{ "type": "Feature", "properties": { "lat": 35.7072839, "lon": 139.7172682, "title": "穴八幡宮" }, "geometry": { "type": "Point", "coordinates": [ 139.7172682, 35.7072839 ] } },
{ "type": "Feature", "properties": { "lat": 35.6901991, "lon": 139.6881833, "title": "熊野神社(十二社熊野神社)" }, "geometry": { "type": "Point", "coordinates": [ 139.6881833, 35.6901991 ] } },
{ "type": "Feature", "properties": { "lat": 35.7091255, "lon": 139.7076765, "title": "新宿諏訪神社" }, "geometry": { "type": "Point", "coordinates": [ 139.7076765, 35.7091255 ] } },
{ "type": "Feature", "properties": { "lat": 35.6960512, "lon": 139.6924688, "title": "成子天神社" }, "geometry": { "type": "Point", "coordinates": [ 139.6924688, 35.6960512 ] } },
{ "type": "Feature", "properties": { "lat": 35.7011319, "lon": 139.6994239, "title": "皆中稲荷神社" }, "geometry": { "type": "Point", "coordinates": [ 139.6994239, 35.7011319 ] } },
{ "type": "Feature", "properties": { "lat": 35.6978876, "lon": 139.7053291, "title": "稲荷鬼王神社" }, "geometry": { "type": "Point", "coordinates": [ 139.7053291, 35.6978876 ] } },
{ "type": "Feature", "properties": { "lat": 35.692733, "lon": 139.7337607, "title": "市谷亀岡八幡宮" }, "geometry": { "type": "Point", "coordinates": [ 139.7337607, 35.692733 ] } },
{ "type": "Feature", "properties": { "lat": 35.7023379, "lon": 139.7038517, "title": "夫婦木神社" }, "geometry": { "type": "Point", "coordinates": [ 139.7038517, 35.7023379 ] } },
{ "type": "Feature", "properties": { "lat": 35.7168637, "lon": 139.6992444, "title": "氷川神社" }, "geometry": { "type": "Point", "coordinates": [ 139.6992444, 35.7168637 ] } },
{ "type": "Feature", "properties": { "lat": 35.711246, "lon": 139.7159892, "title": "水稲荷神社" }, "geometry": { "type": "Point", "coordinates": [ 139.7159892, 35.711246 ] } },
{ "type": "Feature", "properties": { "lat": 35.7019089, "lon": 139.7324649, "title": "赤城神社" }, "geometry": { "type": "Point", "coordinates": [ 139.7324649, 35.7019089 ] } },
{ "type": "Feature", "properties": { "lat": 35.6853708, "lon": 139.7224543, "title": "須賀神社" }, "geometry": { "type": "Point", "coordinates": [ 139.72245430000001, 35.6853708 ] } },
{ "type": "Feature", "properties": { "lat": 35.7072839, "lon": 139.7172682, "title": "穴八幡神社" }, "geometry": { "type": "Point", "coordinates": [ 139.7172682, 35.7072839 ] } },
{ "type": "Feature", "properties": { "lat": 35.7045034, "lon": 139.6916352, "title": "鎧神社" }, "geometry": { "type": "Point", "coordinates": [ 139.6916352, 35.7045034 ] } },
{ "type": "Feature", "properties": { "lat": 35.6976146, "lon": 139.7133618, "title": "厳島神社抜弁天" }, "geometry": { "type": "Point", "coordinates": [ 139.7133618, 35.6976146 ] } },
{ "type": "Feature", "properties": { "lat": 35.7041743, "lon": 139.7288067, "title": "稲荷神社" }, "geometry": { "type": "Point", "coordinates": [ 139.7288067, 35.7041743 ] } },
{ "type": "Feature", "properties": { "lat": 35.6858988, "lon": 139.7187235, "title": "大京神社" }, "geometry": { "type": "Point", "coordinates": [ 139.71872350000001, 35.6858988 ] } },
{ "type": "Feature", "properties": { "lat": 35.6907555, "lon": 139.7272033, "title": "桝箕稲荷神社" }, "geometry": { "type": "Point", "coordinates": [ 139.727203300000014, 35.6907555 ] } },
{ "type": "Feature", "properties": { "lat": 35.7045127, "lon": 139.7223148, "title": "池立神社" }, "geometry": { "type": "Point", "coordinates": [ 139.7223148, 35.7045127 ] } },
{ "type": "Feature", "properties": { "lat": 35.7061517, "lon": 139.7305258, "title": "北野神社" }, "geometry": { "type": "Point", "coordinates": [ 139.7305258, 35.7061517 ] } },
{ "type": "Feature", "properties": { "lat": 35.6998595, "lon": 139.7227338, "title": "稲荷神社" }, "geometry": { "type": "Point", "coordinates": [ 139.722733799999986, 35.6998595 ] } },
{ "type": "Feature", "properties": { "lat": 35.7011034, "lon": 139.7370053, "title": "稲荷神社" }, "geometry": { "type": "Point", "coordinates": [ 139.7370053, 35.7011034 ] } },
{ "type": "Feature", "properties": { "lat": 35.6843325, "lon": 139.7153232, "title": "多武峯内藤神社" }, "geometry": { "type": "Point", "coordinates": [ 139.7153232, 35.6843325 ] } },
{ "type": "Feature", "properties": { "lat": 35.7177757, "lon": 139.70198, "title": "稲荷神社" }, "geometry": { "type": "Point", "coordinates": [ 139.70198, 35.7177757 ] } },
{ "type": "Feature", "properties": { "lat": 35.7127157, "lon": 139.7137359, "title": "天祖神社" }, "geometry": { "type": "Point", "coordinates": [ 139.713735899999989, 35.7127157 ] } },
{ "type": "Feature", "properties": { "lat": 35.6853619, "lon": 139.720958, "title": "田宮稲荷(お岩稲荷)神社" }, "geometry": { "type": "Point", "coordinates": [ 139.720958, 35.6853619 ] } },
{ "type": "Feature", "properties": { "lat": 35.7163712, "lon": 139.68031, "title": "御霊神社" }, "geometry": { "type": "Point", "coordinates": [ 139.68031, 35.7163712 ] } },
{ "type": "Feature", "properties": { "lat": 35.7007181, "lon": 139.7258764, "title": "天祖神社" }, "geometry": { "type": "Point", "coordinates": [ 139.7258764, 35.7007181 ] } },
{ "type": "Feature", "properties": { "lat": 35.6961861, "lon": 139.7112223, "title": "西向天神社" }, "geometry": { "type": "Point", "coordinates": [ 139.7112223, 35.6961861 ] } },
{ "type": "Feature", "properties": { "lat": 35.697526, "lon": 139.7169678, "title": "稲荷神社" }, "geometry": { "type": "Point", "coordinates": [ 139.7169678, 35.697526 ] } },
{ "type": "Feature", "properties": { "lat": 35.706971, "lon": 139.722316, "title": "天祖神社" }, "geometry": { "type": "Point", "coordinates": [ 139.722316, 35.706971 ] } },
{ "type": "Feature", "properties": { "lat": 35.7002611, "lon": 139.717307, "title": "稲荷神社" }, "geometry": { "type": "Point", "coordinates": [ 139.717307, 35.7002611 ] } },
{ "type": "Feature", "properties": { "lat": 35.70827, "lon": 139.726241, "title": "元赤城神社" }, "geometry": { "type": "Point", "coordinates": [ 139.726241, 35.70827 ] } },
{ "type": "Feature", "properties": { "lat": 35.6976146, "lon": 139.7133618, "title": "厳島神社" }, "geometry": { "type": "Point", "coordinates": [ 139.7133618, 35.6976146 ] } },
{ "type": "Feature", "properties": { "lat": 35.6843325, "lon": 139.7153232, "title": "多武峯内藤神社社務所" }, "geometry": { "type": "Point", "coordinates": [ 139.7153232, 35.6843325 ] } },
{ "type": "Feature", "properties": { "lat": 35.6824311, "lon": 139.7262056, "title": "宗教法人龍神総宮社東京支部" }, "geometry": { "type": "Point", "coordinates": [ 139.726205599999986, 35.6824311 ] } },
{ "type": "Feature", "properties": { "lat": 35.7031475, "lon": 139.8206483, "title": "亀戸天神社" }, "geometry": { "type": "Point", "coordinates": [ 139.820648299999988, 35.7031475 ] } },
{ "type": "Feature", "properties": { "lat": 35.6719227, "lon": 139.7995857, "title": "富岡八幡宮" }, "geometry": { "type": "Point", "coordinates": [ 139.7995857, 35.6719227 ] } },
{ "type": "Feature", "properties": { "lat": 35.6684558, "lon": 139.8077325, "title": "洲崎神社" }, "geometry": { "type": "Point", "coordinates": [ 139.807732499999986, 35.6684558 ] } },
{ "type": "Feature", "properties": { "lat": 35.6692852, "lon": 139.8375912, "title": "富賀岡八幡宮" }, "geometry": { "type": "Point", "coordinates": [ 139.8375912, 35.6692852 ] } },
{ "type": "Feature", "properties": { "lat": 35.7065576, "lon": 139.8209415, "title": "天祖神社" }, "geometry": { "type": "Point", "coordinates": [ 139.8209415, 35.7065576 ] } },
{ "type": "Feature", "properties": { "lat": 35.6822003, "lon": 139.8147263, "title": "宇迦八幡宮" }, "geometry": { "type": "Point", "coordinates": [ 139.8147263, 35.6822003 ] } },
{ "type": "Feature", "properties": { "lat": 35.6864054, "lon": 139.8366322, "title": "大島稲荷神社" }, "geometry": { "type": "Point", "coordinates": [ 139.8366322, 35.6864054 ] } },
{ "type": "Feature", "properties": { "lat": 35.6865668, "lon": 139.7974421, "title": "深川神明宮" }, "geometry": { "type": "Point", "coordinates": [ 139.797442100000012, 35.6865668 ] } },
{ "type": "Feature", "properties": { "lat": 35.691667, "lon": 139.8288013, "title": "稲荷神社" }, "geometry": { "type": "Point", "coordinates": [ 139.8288013, 35.691667 ] } },
{ "type": "Feature", "properties": { "lat": 35.6908443, "lon": 139.8409749, "title": "東大島神社" }, "geometry": { "type": "Point", "coordinates": [ 139.8409749, 35.690844299999988 ] } },
{ "type": "Feature", "properties": { "lat": 35.6862798, "lon": 139.8169845, "title": "猿江神社" }, "geometry": { "type": "Point", "coordinates": [ 139.8169845, 35.6862798 ] } },
{ "type": "Feature", "properties": { "lat": 35.7042914, "lon": 139.8252123, "title": "亀戸香取神社" }, "geometry": { "type": "Point", "coordinates": [ 139.8252123, 35.7042914 ] } },
{ "type": "Feature", "properties": { "lat": 35.6956189, "lon": 139.8444926, "title": "亀戸浅間神社" }, "geometry": { "type": "Point", "coordinates": [ 139.8444926, 35.6956189 ] } },
{ "type": "Feature", "properties": { "lat": 35.6700548, "lon": 139.804845, "title": "繁榮稲荷神社" }, "geometry": { "type": "Point", "coordinates": [ 139.804845, 35.6700548 ] } },
{ "type": "Feature", "properties": { "lat": 35.6775903, "lon": 139.8266429, "title": "志演尊空神社" }, "geometry": { "type": "Point", "coordinates": [ 139.8266429, 35.6775903 ] } },
{ "type": "Feature", "properties": { "lat": 35.6906663, "lon": 139.8234629, "title": "愛宕神社" }, "geometry": { "type": "Point", "coordinates": [ 139.82346290000001, 35.6906663 ] } },
{ "type": "Feature", "properties": { "lat": 35.6818584, "lon": 139.830571, "title": "治兵衛稲荷神社" }, "geometry": { "type": "Point", "coordinates": [ 139.830571, 35.6818584 ] } },
{ "type": "Feature", "properties": { "lat": 35.7031475, "lon": 139.8206483, "title": "御嶽神社" }, "geometry": { "type": "Point", "coordinates": [ 139.820648299999988, 35.7031475 ] } },
{ "type": "Feature", "properties": { "lat": 35.6771137, "lon": 139.8376318, "title": "天祖神社" }, "geometry": { "type": "Point", "coordinates": [ 139.8376318, 35.6771137 ] } },
{ "type": "Feature", "properties": { "lat": 35.6837164, "lon": 139.7944466, "title": "正木稲荷神社" }, "geometry": { "type": "Point", "coordinates": [ 139.794446599999986, 35.6837164 ] } },
{ "type": "Feature", "properties": { "lat": 35.6855347, "lon": 139.8457198, "title": "稲荷神社" }, "geometry": { "type": "Point", "coordinates": [ 139.845719800000012, 35.6855347 ] } },
{ "type": "Feature", "properties": { "lat": 35.6764044, "lon": 139.8405336, "title": "稲荷神社" }, "geometry": { "type": "Point", "coordinates": [ 139.840533599999986, 35.6764044 ] } },
{ "type": "Feature", "properties": { "lat": 35.6793072, "lon": 139.8327941, "title": "亀高神社" }, "geometry": { "type": "Point", "coordinates": [ 139.8327941, 35.6793072 ] } },
{ "type": "Feature", "properties": { "lat": 35.7023117, "lon": 139.8282867, "title": "石井神社" }, "geometry": { "type": "Point", "coordinates": [ 139.8282867, 35.7023117 ] } },
{ "type": "Feature", "properties": { "lat": 35.6788744, "lon": 139.7911301, "title": "稲荷神社" }, "geometry": { "type": "Point", "coordinates": [ 139.7911301, 35.6788744 ] } },
{ "type": "Feature", "properties": { "lat": 35.6866538, "lon": 139.8136373, "title": "日先神社" }, "geometry": { "type": "Point", "coordinates": [ 139.813637300000011, 35.686653799999988 ] } },
{ "type": "Feature", "properties": { "lat": 35.7011651, "lon": 139.8315648, "title": "水神社" }, "geometry": { "type": "Point", "coordinates": [ 139.8315648, 35.7011651 ] } },
{ "type": "Feature", "properties": { "lat": 35.6826274, "lon": 139.7977528, "title": "三穂道別稲荷神社" }, "geometry": { "type": "Point", "coordinates": [ 139.797752800000012, 35.6826274 ] } },
{ "type": "Feature", "properties": { "lat": 35.6707503, "lon": 139.7944366, "title": "稲荷神社" }, "geometry": { "type": "Point", "coordinates": [ 139.794436600000012, 35.6707503 ] } },
{ "type": "Feature", "properties": { "lat": 35.6815007, "lon": 139.8421933, "title": "稲荷神社" }, "geometry": { "type": "Point", "coordinates": [ 139.8421933, 35.6815007 ] } },
{ "type": "Feature", "properties": { "lat": 35.6731508, "lon": 139.8411203, "title": "天祖神社" }, "geometry": { "type": "Point", "coordinates": [ 139.8411203, 35.6731508 ] } },
{ "type": "Feature", "properties": { "lat": 35.7042914, "lon": 139.8252123, "title": "香取神社" }, "geometry": { "type": "Point", "coordinates": [ 139.8252123, 35.7042914 ] } },
{ "type": "Feature", "properties": { "lat": 35.6183265, "lon": 139.7398236, "title": "品川神社" }, "geometry": { "type": "Point", "coordinates": [ 139.7398236, 35.618326499999988 ] } },
{ "type": "Feature", "properties": { "lat": 35.6132955, "lon": 139.7202727, "title": "戸越八幡神社" }, "geometry": { "type": "Point", "coordinates": [ 139.72027270000001, 35.6132955 ] } },
{ "type": "Feature", "properties": { "lat": 35.620121, "lon": 139.7253346, "title": "大崎鎮守 居木神社" }, "geometry": { "type": "Point", "coordinates": [ 139.7253346, 35.620121 ] } },
{ "type": "Feature", "properties": { "lat": 35.6065452, "lon": 139.7264436, "title": "下神明天祖神社" }, "geometry": { "type": "Point", "coordinates": [ 139.72644360000001, 35.6065452 ] } },
{ "type": "Feature", "properties": { "lat": 35.624529, "lon": 139.7154026, "title": "氷川神社" }, "geometry": { "type": "Point", "coordinates": [ 139.7154026, 35.624529 ] } },
{ "type": "Feature", "properties": { "lat": 35.5956283, "lon": 139.730194, "title": "鹿島神社" }, "geometry": { "type": "Point", "coordinates": [ 139.730194, 35.5956283 ] } },
{ "type": "Feature", "properties": { "lat": 35.6025925, "lon": 139.715687, "title": "蛇窪神社" }, "geometry": { "type": "Point", "coordinates": [ 139.715687, 35.6025925 ] } },
{ "type": "Feature", "properties": { "lat": 35.634636, "lon": 139.7171673, "title": "誕生八幡神社" }, "geometry": { "type": "Point", "coordinates": [ 139.7171673, 35.634636 ] } },
{ "type": "Feature", "properties": { "lat": 35.604711, "lon": 139.7426697, "title": "鮫洲八幡神社" }, "geometry": { "type": "Point", "coordinates": [ 139.7426697, 35.604711 ] } },
{ "type": "Feature", "properties": { "lat": 35.6075018, "lon": 139.7318482, "title": "大井蔵王権現神社" }, "geometry": { "type": "Point", "coordinates": [ 139.7318482, 35.6075018 ] } },
{ "type": "Feature", "properties": { "lat": 35.6171848, "lon": 139.7027148, "title": "三谷八幡神社" }, "geometry": { "type": "Point", "coordinates": [ 139.7027148, 35.6171848 ] } },
{ "type": "Feature", "properties": { "lat": 35.6151221, "lon": 139.7264551, "title": "貴船神社" }, "geometry": { "type": "Point", "coordinates": [ 139.72645510000001, 35.6151221 ] } },
{ "type": "Feature", "properties": { "lat": 35.6171019, "lon": 139.7438487, "title": "荏原神社" }, "geometry": { "type": "Point", "coordinates": [ 139.7438487, 35.6171019 ] } },
{ "type": "Feature", "properties": { "lat": 35.6048218, "lon": 139.7080972, "title": "旗岡八幡神社" }, "geometry": { "type": "Point", "coordinates": [ 139.7080972, 35.6048218 ] } },
{ "type": "Feature", "properties": { "lat": 35.5971092, "lon": 139.7391969, "title": "天祖・諏訪神社" }, "geometry": { "type": "Point", "coordinates": [ 139.7391969, 35.5971092 ] } },
{ "type": "Feature", "properties": { "lat": 35.6214449, "lon": 139.751153, "title": "三岳神社" }, "geometry": { "type": "Point", "coordinates": [ 139.751153, 35.6214449 ] } },
{ "type": "Feature", "properties": { "lat": 35.5986744, "lon": 139.7281162, "title": "稲荷神社" }, "geometry": { "type": "Point", "coordinates": [ 139.728116199999988, 35.5986744 ] } },
{ "type": "Feature", "properties": { "lat": 35.6303319, "lon": 139.7290719, "title": "袖ヶ崎神社" }, "geometry": { "type": "Point", "coordinates": [ 139.7290719, 35.6303319 ] } },
{ "type": "Feature", "properties": { "lat": 35.6127317, "lon": 139.7028717, "title": "葛原神社" }, "geometry": { "type": "Point", "coordinates": [ 139.7028717, 35.6127317 ] } },
{ "type": "Feature", "properties": { "lat": 35.6181864, "lon": 139.7458512, "title": "洌崎会館" }, "geometry": { "type": "Point", "coordinates": [ 139.7458512, 35.6181864 ] } },
{ "type": "Feature", "properties": { "lat": 35.6181864, "lon": 139.7458512, "title": "寄木神社" }, "geometry": { "type": "Point", "coordinates": [ 139.7458512, 35.6181864 ] } },
{ "type": "Feature", "properties": { "lat": 35.6114364, "lon": 139.7409233, "title": "松下稲荷神社" }, "geometry": { "type": "Point", "coordinates": [ 139.7409233, 35.6114364 ] } },
{ "type": "Feature", "properties": { "lat": 35.6288404, "lon": 139.7267757, "title": "雉子神社" }, "geometry": { "type": "Point", "coordinates": [ 139.7267757, 35.6288404 ] } },
{ "type": "Feature", "properties": { "lat": 35.6013862, "lon": 139.7408784, "title": "稲荷神社" }, "geometry": { "type": "Point", "coordinates": [ 139.740878400000014, 35.6013862 ] } },
{ "type": "Feature", "properties": { "lat": 35.6112491, "lon": 139.744027, "title": "諏訪神社" }, "geometry": { "type": "Point", "coordinates": [ 139.744027, 35.611249099999988 ] } },
{ "type": "Feature", "properties": { "lat": 35.6127277, "lon": 139.7401948, "title": "稲荷神社" }, "geometry": { "type": "Point", "coordinates": [ 139.740194800000012, 35.6127277 ] } },
{ "type": "Feature", "properties": { "lat": 35.6043659, "lon": 139.7284745, "title": "稲荷神社" }, "geometry": { "type": "Point", "coordinates": [ 139.7284745, 35.6043659 ] } },
{ "type": "Feature", "properties": { "lat": 35.6209687, "lon": 139.7425039, "title": "利田神社" }, "geometry": { "type": "Point", "coordinates": [ 139.7425039, 35.6209687 ] } },
{ "type": "Feature", "properties": { "lat": 35.5928201, "lon": 139.7370714, "title": "浜川神社" }, "geometry": { "type": "Point", "coordinates": [ 139.7370714, 35.5928201 ] } },
{ "type": "Feature", "properties": { "lat": 35.604684, "lon": 139.699401, "title": "旗の台伏見稲荷神社" }, "geometry": { "type": "Point", "coordinates": [ 139.699401, 35.604684 ] } },
{ "type": "Feature", "properties": { "lat": 35.5957059, "lon": 139.7313539, "title": "鹿嶋神社" }, "geometry": { "type": "Point", "coordinates": [ 139.731353899999988, 35.5957059 ] } },
{ "type": "Feature", "properties": { "lat": 35.6257832, "lon": 139.719171, "title": "五反田人和会" }, "geometry": { "type": "Point", "coordinates": [ 139.719171, 35.6257832 ] } },
{ "type": "Feature", "properties": { "lat": 35.6730184, "lon": 139.7002877, "title": "明治神宮" }, "geometry": { "type": "Point", "coordinates": [ 139.7002877, 35.6730184 ] } },
{ "type": "Feature", "properties": { "lat": 35.6777218, "lon": 139.7094081, "title": "鳩森八幡神社" }, "geometry": { "type": "Point", "coordinates": [ 139.7094081, 35.6777218 ] } },
{ "type": "Feature", "properties": { "lat": 35.6716744, "lon": 139.7051773, "title": "東郷神社" }, "geometry": { "type": "Point", "coordinates": [ 139.7051773, 35.6716744 ] } },
{ "type": "Feature", "properties": { "lat": 35.6552282, "lon": 139.7104543, "title": "渋谷氷川神社" }, "geometry": { "type": "Point", "coordinates": [ 139.7104543, 35.6552282 ] } },
{ "type": "Feature", "properties": { "lat": 35.6828172, "lon": 139.6962664, "title": "平田神社" }, "geometry": { "type": "Point", "coordinates": [ 139.696266400000013, 35.6828172 ] } },
{ "type": "Feature", "properties": { "lat": 35.6649967, "lon": 139.7041491, "title": "穏田神社" }, "geometry": { "type": "Point", "coordinates": [ 139.7041491, 35.6649967 ] } },
{ "type": "Feature", "properties": { "lat": 35.648215, "lon": 139.700112, "title": "猿楽神社" }, "geometry": { "type": "Point", "coordinates": [ 139.700112, 35.648215 ] } },
{ "type": "Feature", "properties": { "lat": 35.6472367, "lon": 139.7077725, "title": "恵比寿神社" }, "geometry": { "type": "Point", "coordinates": [ 139.7077725, 35.6472367 ] } },
{ "type": "Feature", "properties": { "lat": 35.6554452, "lon": 139.6981899, "title": "惟神会" }, "geometry": { "type": "Point", "coordinates": [ 139.698189899999988, 35.6554452 ] } },
{ "type": "Feature", "properties": { "lat": 35.6514753, "lon": 139.7098159, "title": "稲荷神社" }, "geometry": { "type": "Point", "coordinates": [ 139.7098159, 35.6514753 ] } },
{ "type": "Feature", "properties": { "lat": 35.6851336, "lon": 139.6988355, "title": "金吾龍神社" }, "geometry": { "type": "Point", "coordinates": [ 139.6988355, 35.6851336 ] } },
{ "type": "Feature", "properties": { "lat": 35.6602563, "lon": 139.703564, "title": "宮益御嶽神社" }, "geometry": { "type": "Point", "coordinates": [ 139.703564, 35.6602563 ] } },
{ "type": "Feature", "properties": { "lat": 35.6575657, "lon": 139.7063103, "title": "金王八幡宮" }, "geometry": { "type": "Point", "coordinates": [ 139.706310300000013, 35.6575657 ] } },
{ "type": "Feature", "properties": { "lat": 35.6720378, "lon": 139.6889756, "title": "代々木八幡宮" }, "geometry": { "type": "Point", "coordinates": [ 139.6889756, 35.6720378 ] } },
{ "type": "Feature", "properties": { "lat": 35.6730184, "lon": 139.7002877, "title": "明治神宮 参集殿" }, "geometry": { "type": "Point", "coordinates": [ 139.7002877, 35.6730184 ] } },
{ "type": "Feature", "properties": { "lat": 35.6654027, "lon": 139.7003098, "title": "北谷稲荷神社" }, "geometry": { "type": "Point", "coordinates": [ 139.700309800000014, 35.6654027 ] } },
{ "type": "Feature", "properties": { "lat": 35.682123, "lon": 139.7007103, "title": "神社本廳" }, "geometry": { "type": "Point", "coordinates": [ 139.7007103, 35.682123 ] } },
{ "type": "Feature", "properties": { "lat": 35.6723578, "lon": 139.7141548, "title": "熊野神社" }, "geometry": { "type": "Point", "coordinates": [ 139.714154799999989, 35.6723578 ] } },
{ "type": "Feature", "properties": { "lat": 35.6748955, "lon": 139.6898612, "title": "代々木八幡" }, "geometry": { "type": "Point", "coordinates": [ 139.6898612, 35.6748955 ] } },
{ "type": "Feature", "properties": { "lat": 35.6596492, "lon": 139.6959173, "title": "千代田稲荷神社" }, "geometry": { "type": "Point", "coordinates": [ 139.6959173, 35.6596492 ] } },
{ "type": "Feature", "properties": { "lat": 35.6716744, "lon": 139.7051773, "title": "東郷会" }, "geometry": { "type": "Point", "coordinates": [ 139.7051773, 35.6716744 ] } },
{ "type": "Feature", "properties": { "lat": 35.7040921, "lon": 139.7727217, "title": "天理教 分教会 東神長" }, "geometry": { "type": "Point", "coordinates": [ 139.7727217, 35.7040921 ] } },
{ "type": "Feature", "properties": { "lat": 35.6841522, "lon": 139.7327545, "title": "S.J.ハウス・イエズス会修道院" }, "geometry": { "type": "Point", "coordinates": [ 139.7327545, 35.6841522 ] } },
{ "type": "Feature", "properties": { "lat": 35.6980296, "lon": 139.765504, "title": "東京復活大聖堂 (ニコライ堂)" }, "geometry": { "type": "Point", "coordinates": [ 139.765504, 35.6980296 ] } },
{ "type": "Feature", "properties": { "lat": 35.6987436, "lon": 139.7472018, "title": "日本ルーテル教団" }, "geometry": { "type": "Point", "coordinates": [ 139.7472018, 35.6987436 ] } },
{ "type": "Feature", "properties": { "lat": 35.6850816, "lon": 139.7310446, "title": "カトリック麹町聖イグナチオ教会" }, "geometry": { "type": "Point", "coordinates": [ 139.7310446, 35.6850816 ] } },
{ "type": "Feature", "properties": { "lat": 35.6994173, "lon": 139.7573941, "title": "カトリック東京大司教区 神田教会" }, "geometry": { "type": "Point", "coordinates": [ 139.7573941, 35.6994173 ] } },
{ "type": "Feature", "properties": { "lat": 35.701339, "lon": 139.7703386, "title": "真理舎" }, "geometry": { "type": "Point", "coordinates": [ 139.7703386, 35.701339 ] } },
{ "type": "Feature", "properties": { "lat": 35.6992223, "lon": 139.762699, "title": "お茶の水聖書学院" }, "geometry": { "type": "Point", "coordinates": [ 139.762699, 35.6992223 ] } },
{ "type": "Feature", "properties": { "lat": 35.6992223, "lon": 139.762699, "title": "日本福音自由教会協議会" }, "geometry": { "type": "Point", "coordinates": [ 139.762699, 35.6992223 ] } },
{ "type": "Feature", "properties": { "lat": 35.7019308, "lon": 139.7702997, "title": "神田キリスト教会" }, "geometry": { "type": "Point", "coordinates": [ 139.77029970000001, 35.7019308 ] } },
{ "type": "Feature", "properties": { "lat": 35.6992606, "lon": 139.7627366, "title": "東京プレヤーセンター" }, "geometry": { "type": "Point", "coordinates": [ 139.762736600000011, 35.6992606 ] } },
{ "type": "Feature", "properties": { "lat": 35.6955697, "lon": 139.7460872, "title": "シャルトル聖パウロ修道女会" }, "geometry": { "type": "Point", "coordinates": [ 139.7460872, 35.6955697 ] } },
{ "type": "Feature", "properties": { "lat": 35.6987436, "lon": 139.7472018, "title": "東京ルーテルセンター教会" }, "geometry": { "type": "Point", "coordinates": [ 139.7472018, 35.6987436 ] } },
{ "type": "Feature", "properties": { "lat": 35.7006211, "lon": 139.7560627, "title": "日本基督教団 三崎町教会" }, "geometry": { "type": "Point", "coordinates": [ 139.7560627, 35.7006211 ] } },
{ "type": "Feature", "properties": { "lat": 35.6958732, "lon": 139.7485807, "title": "九段教会" }, "geometry": { "type": "Point", "coordinates": [ 139.7485807, 35.6958732 ] } },
{ "type": "Feature", "properties": { "lat": 35.6861244, "lon": 139.7875151, "title": "日本基督教団日本橋教会" }, "geometry": { "type": "Point", "coordinates": [ 139.7875151, 35.6861244 ] } },
{ "type": "Feature", "properties": { "lat": 35.6728416, "lon": 139.7679866, "title": "金光教 銀座教会" }, "geometry": { "type": "Point", "coordinates": [ 139.7679866, 35.6728416 ] } },
{ "type": "Feature", "properties": { "lat": 35.6680252, "lon": 139.777191, "title": "カトリック築地教会" }, "geometry": { "type": "Point", "coordinates": [ 139.777191, 35.6680252 ] } },
{ "type": "Feature", "properties": { "lat": 35.6729215, "lon": 139.7643694, "title": "銀座教会" }, "geometry": { "type": "Point", "coordinates": [ 139.7643694, 35.6729215 ] } },
{ "type": "Feature", "properties": { "lat": 35.6888172, "lon": 139.7719483, "title": "金光教 日本橋教会" }, "geometry": { "type": "Point", "coordinates": [ 139.7719483, 35.6888172 ] } },
{ "type": "Feature", "properties": { "lat": 35.6730321, "lon": 139.7775543, "title": "救世軍京橋小隊" }, "geometry": { "type": "Point", "coordinates": [ 139.7775543, 35.6730321 ] } },
{ "type": "Feature", "properties": { "lat": 35.6903063, "lon": 139.7827048, "title": "神道禊教" }, "geometry": { "type": "Point", "coordinates": [ 139.7827048, 35.6903063 ] } },
{ "type": "Feature", "properties": { "lat": 35.6604663, "lon": 139.7833358, "title": "日本聖公会東京教区月島聖公会" }, "geometry": { "type": "Point", "coordinates": [ 139.7833358, 35.6604663 ] } },
{ "type": "Feature", "properties": { "lat": 35.668615, "lon": 139.7671847, "title": "東京福音センター" }, "geometry": { "type": "Point", "coordinates": [ 139.7671847, 35.668615 ] } },
{ "type": "Feature", "properties": { "lat": 35.6670757, "lon": 139.7421352, "title": "霊南坂教会" }, "geometry": { "type": "Point", "coordinates": [ 139.7421352, 35.6670757 ] } },
{ "type": "Feature", "properties": { "lat": 35.6568885, "lon": 139.7229433, "title": "神道大教" }, "geometry": { "type": "Point", "coordinates": [ 139.7229433, 35.6568885 ] } },
{ "type": "Feature", "properties": { "lat": 35.6681917, "lon": 139.7499267, "title": "日本基督教団 芝教会" }, "geometry": { "type": "Point", "coordinates": [ 139.7499267, 35.6681917 ] } },
{ "type": "Feature", "properties": { "lat": 35.6603998, "lon": 139.7344908, "title": "日本基督教団 鳥居坂教会" }, "geometry": { "type": "Point", "coordinates": [ 139.7344908, 35.6603998 ] } },
{ "type": "Feature", "properties": { "lat": 35.658267, "lon": 139.7227251, "title": "麻布霞町教会" }, "geometry": { "type": "Point", "coordinates": [ 139.7227251, 35.658267 ] } },
{ "type": "Feature", "properties": { "lat": 35.6523976, "lon": 139.7305267, "title": "日本基督教団 安藤記念教会" }, "geometry": { "type": "Point", "coordinates": [ 139.730526700000013, 35.6523976 ] } },
{ "type": "Feature", "properties": { "lat": 35.6691938, "lon": 139.7369617, "title": "赤坂教会" }, "geometry": { "type": "Point", "coordinates": [ 139.7369617, 35.6691938 ] } },
{ "type": "Feature", "properties": { "lat": 35.6603741, "lon": 139.7442365, "title": "聖アンデレ教会" }, "geometry": { "type": "Point", "coordinates": [ 139.7442365, 35.6603741 ] } },
{ "type": "Feature", "properties": { "lat": 35.6593038, "lon": 139.7252647, "title": "カトリック東京大司教区 麻布教会" }, "geometry": { "type": "Point", "coordinates": [ 139.7252647, 35.6593038 ] } },
{ "type": "Feature", "properties": { "lat": 35.6556392, "lon": 139.7312107, "title": "麻布グレイスゴスペル教会" }, "geometry": { "type": "Point", "coordinates": [ 139.7312107, 35.6556392 ] } },
{ "type": "Feature", "properties": { "lat": 35.6474265, "lon": 139.7409295, "title": "西蔵院" }, "geometry": { "type": "Point", "coordinates": [ 139.7409295, 35.6474265 ] } },
{ "type": "Feature", "properties": { "lat": 35.6651736, "lon": 139.7145663, "title": "南青山ル・アンジェ教会" }, "geometry": { "type": "Point", "coordinates": [ 139.7145663, 35.6651736 ] } },
{ "type": "Feature", "properties": { "lat": 35.6572511, "lon": 139.7399624, "title": "カトリック・グアダルペ宣教会日本管区本部" }, "geometry": { "type": "Point", "coordinates": [ 139.7399624, 35.6572511 ] } },
{ "type": "Feature", "properties": { "lat": 35.6348855, "lon": 139.733136, "title": "日本キリスト教団高輪教会" }, "geometry": { "type": "Point", "coordinates": [ 139.733136, 35.6348855 ] } },
{ "type": "Feature", "properties": { "lat": 35.656194, "lon": 139.7315136, "title": "麻布セント・メアリー教会" }, "geometry": { "type": "Point", "coordinates": [ 139.7315136, 35.656194 ] } },
{ "type": "Feature", "properties": { "lat": 35.651081, "lon": 139.7245595, "title": "日本基督教団 麻布南部坂教会" }, "geometry": { "type": "Point", "coordinates": [ 139.7245595, 35.651081 ] } },
{ "type": "Feature", "properties": { "lat": 35.6636741, "lon": 139.7565296, "title": "金光教芝教会" }, "geometry": { "type": "Point", "coordinates": [ 139.7565296, 35.6636741 ] } },
{ "type": "Feature", "properties": { "lat": 35.6668048, "lon": 139.7426808, "title": "神霊教" }, "geometry": { "type": "Point", "coordinates": [ 139.742680799999988, 35.6668048 ] } },
{ "type": "Feature", "properties": { "lat": 35.6648962, "lon": 139.7336351, "title": "カトリック東京大司教区 フランシスカンチャペルセンター" }, "geometry": { "type": "Point", "coordinates": [ 139.733635099999987, 35.6648962 ] } },
{ "type": "Feature", "properties": { "lat": 35.6603495, "lon": 139.7189513, "title": "曹洞宗東京都宗務所" }, "geometry": { "type": "Point", "coordinates": [ 139.718951299999986, 35.6603495 ] } },
{ "type": "Feature", "properties": { "lat": 35.6582415, "lon": 139.7295241, "title": "六本木ルーテル教会" }, "geometry": { "type": "Point", "coordinates": [ 139.7295241, 35.6582415 ] } },
{ "type": "Feature", "properties": { "lat": 35.6385691, "lon": 139.7330501, "title": "天理教 大教会 本芝" }, "geometry": { "type": "Point", "coordinates": [ 139.733050100000014, 35.6385691 ] } },
{ "type": "Feature", "properties": { "lat": 35.6292283, "lon": 139.7323791, "title": "カトリック東京大司教区 高輪教会" }, "geometry": { "type": "Point", "coordinates": [ 139.7323791, 35.6292283 ] } },
{ "type": "Feature", "properties": { "lat": 35.6490093, "lon": 139.7521511, "title": "立正佼成会港教会" }, "geometry": { "type": "Point", "coordinates": [ 139.7521511, 35.6490093 ] } },
{ "type": "Feature", "properties": { "lat": 35.6602119, "lon": 139.743274, "title": "霊友会 福祉センター" }, "geometry": { "type": "Point", "coordinates": [ 139.743274, 35.6602119 ] } },
{ "type": "Feature", "properties": { "lat": 35.6426306, "lon": 139.7382823, "title": "キリスト友会東京月会" }, "geometry": { "type": "Point", "coordinates": [ 139.7382823, 35.6426306 ] } },
{ "type": "Feature", "properties": { "lat": 35.6695828, "lon": 139.7286722, "title": "聖パウロ女子修道会" }, "geometry": { "type": "Point", "coordinates": [ 139.7286722, 35.6695828 ] } },
{ "type": "Feature", "properties": { "lat": 35.6480945, "lon": 139.7303988, "title": "宗教法人天理教新橋分教会" }, "geometry": { "type": "Point", "coordinates": [ 139.730398799999989, 35.6480945 ] } },
{ "type": "Feature", "properties": { "lat": 35.7011941, "lon": 139.6977187, "title": "淀橋教会" }, "geometry": { "type": "Point", "coordinates": [ 139.6977187, 35.7011941 ] } },
{ "type": "Feature", "properties": { "lat": 35.6958347, "lon": 139.706734, "title": "純福音東京教会" }, "geometry": { "type": "Point", "coordinates": [ 139.706734, 35.6958347 ] } },
{ "type": "Feature", "properties": { "lat": 35.7080251, "lon": 139.7163427, "title": "在日韓国人問題研究所" }, "geometry": { "type": "Point", "coordinates": [ 139.716342700000013, 35.7080251 ] } },
{ "type": "Feature", "properties": { "lat": 35.6980877, "lon": 139.7043032, "title": "日本基督教団 新宿西教会" }, "geometry": { "type": "Point", "coordinates": [ 139.7043032, 35.698087699999988 ] } },
{ "type": "Feature", "properties": { "lat": 35.6969526, "lon": 139.7357791, "title": "牛込払方町教会" }, "geometry": { "type": "Point", "coordinates": [ 139.7357791, 35.6969526 ] } },
{ "type": "Feature", "properties": { "lat": 35.7009506, "lon": 139.7040002, "title": "日本福音ルーテル東京教会" }, "geometry": { "type": "Point", "coordinates": [ 139.7040002, 35.700950600000013 ] } },
{ "type": "Feature", "properties": { "lat": 35.7080251, "lon": 139.7163427, "title": "日本基督教団" }, "geometry": { "type": "Point", "coordinates": [ 139.716342700000013, 35.7080251 ] } },
{ "type": "Feature", "properties": { "lat": 35.6991411, "lon": 139.7086084, "title": "大久保バプテスト教会" }, "geometry": { "type": "Point", "coordinates": [ 139.7086084, 35.6991411 ] } },
{ "type": "Feature", "properties": { "lat": 35.6940826, "lon": 139.7361647, "title": "日本福音ルーテル市ヶ谷教会" }, "geometry": { "type": "Point", "coordinates": [ 139.736164699999989, 35.6940826 ] } },
{ "type": "Feature", "properties": { "lat": 35.7151829, "lon": 139.7026553, "title": "国際福音キリスト教会中央チャペル" }, "geometry": { "type": "Point", "coordinates": [ 139.7026553, 35.715182899999988 ] } },
{ "type": "Feature", "properties": { "lat": 35.7037126, "lon": 139.6938296, "title": "大久保キリスト教会" }, "geometry": { "type": "Point", "coordinates": [ 139.693829599999987, 35.7037126 ] } },
{ "type": "Feature", "properties": { "lat": 35.7174593, "lon": 139.7041809, "title": "東京シティチャーチ" }, "geometry": { "type": "Point", "coordinates": [ 139.704180900000011, 35.7174593 ] } },
{ "type": "Feature", "properties": { "lat": 35.7001304, "lon": 139.6923536, "title": "日本ホーリネス教団 東京中央教会" }, "geometry": { "type": "Point", "coordinates": [ 139.6923536, 35.7001304 ] } },
{ "type": "Feature", "properties": { "lat": 35.7023887, "lon": 139.6948019, "title": "日本キリスト教会柏木教会" }, "geometry": { "type": "Point", "coordinates": [ 139.694801899999987, 35.7023887 ] } },
{ "type": "Feature", "properties": { "lat": 35.7191897, "lon": 139.7039372, "title": "日本バプテストキリスト教目白ヶ丘教会" }, "geometry": { "type": "Point", "coordinates": [ 139.703937200000013, 35.7191897 ] } },
{ "type": "Feature", "properties": { "lat": 35.6989468, "lon": 139.7198807, "title": "日本基督教団 東京信愛教会" }, "geometry": { "type": "Point", "coordinates": [ 139.7198807, 35.6989468 ] } },
{ "type": "Feature", "properties": { "lat": 35.703046, "lon": 139.7032547, "title": "天理教 分教会 錦開" }, "geometry": { "type": "Point", "coordinates": [ 139.7032547, 35.703046 ] } },
{ "type": "Feature", "properties": { "lat": 35.717745, "lon": 139.6790465, "title": "天理教 分教会 創祥" }, "geometry": { "type": "Point", "coordinates": [ 139.6790465, 35.717745 ] } },
{ "type": "Feature", "properties": { "lat": 35.7045127, "lon": 139.7223148, "title": "金光教 早稲田教会" }, "geometry": { "type": "Point", "coordinates": [ 139.7223148, 35.7045127 ] } },
{ "type": "Feature", "properties": { "lat": 35.7262587, "lon": 139.6770492, "title": "天理教多摩崎分教会" }, "geometry": { "type": "Point", "coordinates": [ 139.6770492, 35.7262587 ] } },
{ "type": "Feature", "properties": { "lat": 35.7077413, "lon": 139.7162335, "title": "日本基督教団 早稲田教会" }, "geometry": { "type": "Point", "coordinates": [ 139.716233499999987, 35.7077413 ] } },
{ "type": "Feature", "properties": { "lat": 35.7066384, "lon": 139.6901938, "title": "天理教 分教会 日江" }, "geometry": { "type": "Point", "coordinates": [ 139.6901938, 35.7066384 ] } },
{ "type": "Feature", "properties": { "lat": 35.7069909, "lon": 139.6917367, "title": "天理教 分教会 本常一" }, "geometry": { "type": "Point", "coordinates": [ 139.6917367, 35.7069909 ] } },
{ "type": "Feature", "properties": { "lat": 35.721653, "lon": 139.7007802, "title": "日本基督教団 目白教会" }, "geometry": { "type": "Point", "coordinates": [ 139.7007802, 35.721653 ] } },
{ "type": "Feature", "properties": { "lat": 35.6923682, "lon": 139.6856728, "title": "天理教 分教会 東日之宮" }, "geometry": { "type": "Point", "coordinates": [ 139.6856728, 35.6923682 ] } },
{ "type": "Feature", "properties": { "lat": 35.7077413, "lon": 139.7162335, "title": "日本バプテスト同盟・東京平和教会" }, "geometry": { "type": "Point", "coordinates": [ 139.716233499999987, 35.7077413 ] } },
{ "type": "Feature", "properties": { "lat": 35.7258155, "lon": 139.6771598, "title": "日本ホーリネス教団西落合キリスト教会" }, "geometry": { "type": "Point", "coordinates": [ 139.6771598, 35.7258155 ] } },
{ "type": "Feature", "properties": { "lat": 35.7080251, "lon": 139.7163427, "title": "宗教法人日本バプテスト同盟" }, "geometry": { "type": "Point", "coordinates": [ 139.716342700000013, 35.7080251 ] } },
{ "type": "Feature", "properties": { "lat": 35.7009506, "lon": 139.7040002, "title": "日本福音ルーテル教会婦人会連盟" }, "geometry": { "type": "Point", "coordinates": [ 139.7040002, 35.700950600000013 ] } },
{ "type": "Feature", "properties": { "lat": 35.6901338, "lon": 139.7168841, "title": "金光教 四谷教会" }, "geometry": { "type": "Point", "coordinates": [ 139.716884099999987, 35.6901338 ] } },
{ "type": "Feature", "properties": { "lat": 35.7117202, "lon": 139.6984167, "title": "日之教教団本部" }, "geometry": { "type": "Point", "coordinates": [ 139.6984167, 35.711720199999988 ] } },
{ "type": "Feature", "properties": { "lat": 35.7192947, "lon": 139.6750535, "title": "天理教南本所分教会" }, "geometry": { "type": "Point", "coordinates": [ 139.6750535, 35.7192947 ] } },
{ "type": "Feature", "properties": { "lat": 35.6891496, "lon": 139.7170875, "title": "日の御教東京教会" }, "geometry": { "type": "Point", "coordinates": [ 139.7170875, 35.6891496 ] } },
{ "type": "Feature", "properties": { "lat": 35.7148265, "lon": 139.6950464, "title": "日本基督教団高田馬場台湾教会" }, "geometry": { "type": "Point", "coordinates": [ 139.6950464, 35.7148265 ] } },
{ "type": "Feature", "properties": { "lat": 35.7232385, "lon": 139.683221, "title": "天理教 分教会 愛都" }, "geometry": { "type": "Point", "coordinates": [ 139.683221, 35.7232385 ] } },
{ "type": "Feature", "properties": { "lat": 35.7122151, "lon": 139.6886846, "title": "天理教 分教会 陽東" }, "geometry": { "type": "Point", "coordinates": [ 139.688684599999988, 35.7122151 ] } },
{ "type": "Feature", "properties": { "lat": 35.691652, "lon": 139.6866507, "title": "立正浄法会" }, "geometry": { "type": "Point", "coordinates": [ 139.6866507, 35.691652 ] } },
{ "type": "Feature", "properties": { "lat": 35.6914101, "lon": 139.719055, "title": "お茶の水教会" }, "geometry": { "type": "Point", "coordinates": [ 139.719055, 35.6914101 ] } },
{ "type": "Feature", "properties": { "lat": 35.7210876, "lon": 139.6834404, "title": "天理教本理世大教会" }, "geometry": { "type": "Point", "coordinates": [ 139.6834404, 35.7210876 ] } },
{ "type": "Feature", "properties": { "lat": 35.6987048, "lon": 139.7129653, "title": "東京バハイセンター" }, "geometry": { "type": "Point", "coordinates": [ 139.7129653, 35.6987048 ] } },
{ "type": "Feature", "properties": { "lat": 35.7085294, "lon": 139.7046995, "title": "シロアム教会" }, "geometry": { "type": "Point", "coordinates": [ 139.7046995, 35.7085294 ] } },
{ "type": "Feature", "properties": { "lat": 35.7013992, "lon": 139.707871, "title": "ライトハウス新宿チャーチ" }, "geometry": { "type": "Point", "coordinates": [ 139.707871, 35.7013992 ] } },
{ "type": "Feature", "properties": { "lat": 35.710952, "lon": 139.7021817, "title": "アライズ東京キリスト教会" }, "geometry": { "type": "Point", "coordinates": [ 139.702181700000011, 35.710952 ] } },
{ "type": "Feature", "properties": { "lat": 35.7143734, "lon": 139.712108, "title": "アガペ教会" }, "geometry": { "type": "Point", "coordinates": [ 139.712108, 35.7143734 ] } },
{ "type": "Feature", "properties": { "lat": 35.7096043, "lon": 139.7233824, "title": "ジャパンゴスペルワーク" }, "geometry": { "type": "Point", "coordinates": [ 139.7233824, 35.7096043 ] } },
{ "type": "Feature", "properties": { "lat": 35.6857721, "lon": 139.7287897, "title": "サンパウロ 聖品販売" }, "geometry": { "type": "Point", "coordinates": [ 139.7287897, 35.6857721 ] } },
{ "type": "Feature", "properties": { "lat": 35.7012026, "lon": 139.7057196, "title": "東京中央教会" }, "geometry": { "type": "Point", "coordinates": [ 139.7057196, 35.701202599999988 ] } },
{ "type": "Feature", "properties": { "lat": 35.6906492, "lon": 139.7262402, "title": "日本キリスト改革派東京教会" }, "geometry": { "type": "Point", "coordinates": [ 139.7262402, 35.6906492 ] } },
{ "type": "Feature", "properties": { "lat": 35.6901623, "lon": 139.7270921, "title": "日本基督教団 千代田教会" }, "geometry": { "type": "Point", "coordinates": [ 139.7270921, 35.6901623 ] } },
{ "type": "Feature", "properties": { "lat": 35.7021143, "lon": 139.6946764, "title": "ロゴスライフ教会" }, "geometry": { "type": "Point", "coordinates": [ 139.6946764, 35.7021143 ] } },
{ "type": "Feature", "properties": { "lat": 35.6858387, "lon": 139.7247796, "title": "聖パウロ修道会管区" }, "geometry": { "type": "Point", "coordinates": [ 139.7247796, 35.6858387 ] } },
{ "type": "Feature", "properties": { "lat": 35.6878986, "lon": 139.7256572, "title": "ぶどうの樹キリスト教会" }, "geometry": { "type": "Point", "coordinates": [ 139.7256572, 35.6878986 ] } },
{ "type": "Feature", "properties": { "lat": 35.711485, "lon": 139.704678, "title": "ビサイドチャーチ東京" }, "geometry": { "type": "Point", "coordinates": [ 139.704678, 35.711485 ] } },
{ "type": "Feature", "properties": { "lat": 35.7064628, "lon": 139.7225561, "title": "日本福音ルーテル・スオミ・キリスト教会" }, "geometry": { "type": "Point", "coordinates": [ 139.7225561, 35.7064628 ] } },
{ "type": "Feature", "properties": { "lat": 35.6980589, "lon": 139.8293563, "title": "三尊教会" }, "geometry": { "type": "Point", "coordinates": [ 139.8293563, 35.6980589 ] } },
{ "type": "Feature", "properties": { "lat": 35.6796824, "lon": 139.8320045, "title": "金光教 砂町教会" }, "geometry": { "type": "Point", "coordinates": [ 139.832004500000011, 35.6796824 ] } },
{ "type": "Feature", "properties": { "lat": 35.680759, "lon": 139.8342979, "title": "砂町教会" }, "geometry": { "type": "Point", "coordinates": [ 139.8342979, 35.680759 ] } },
{ "type": "Feature", "properties": { "lat": 35.6670881, "lon": 139.8070516, "title": "日本基督教団 深川教会" }, "geometry": { "type": "Point", "coordinates": [ 139.8070516, 35.6670881 ] } },
{ "type": "Feature", "properties": { "lat": 35.6913277, "lon": 139.8391811, "title": "日本基督教団大島シオン教会" }, "geometry": { "type": "Point", "coordinates": [ 139.8391811, 35.6913277 ] } },
{ "type": "Feature", "properties": { "lat": 35.6567177, "lon": 139.8167092, "title": "宗教法人カトリック中央協議会" }, "geometry": { "type": "Point", "coordinates": [ 139.8167092, 35.6567177 ] } },
{ "type": "Feature", "properties": { "lat": 35.6859095, "lon": 139.7967749, "title": "天理教 分教会 千代田" }, "geometry": { "type": "Point", "coordinates": [ 139.7967749, 35.6859095 ] } },
{ "type": "Feature", "properties": { "lat": 35.6824025, "lon": 139.8019062, "title": "日本バプテスト深川教会" }, "geometry": { "type": "Point", "coordinates": [ 139.8019062, 35.682402499999988 ] } },
{ "type": "Feature", "properties": { "lat": 35.6881986, "lon": 139.8169146, "title": "イムマヌエル綜合伝道団深川教会" }, "geometry": { "type": "Point", "coordinates": [ 139.8169146, 35.6881986 ] } },
{ "type": "Feature", "properties": { "lat": 35.6744374, "lon": 139.7885743, "title": "カトリック永代教会" }, "geometry": { "type": "Point", "coordinates": [ 139.7885743, 35.6744374 ] } },
{ "type": "Feature", "properties": { "lat": 35.6568411, "lon": 139.8163739, "title": "カトリック東京大司教区 潮見教会" }, "geometry": { "type": "Point", "coordinates": [ 139.8163739, 35.6568411 ] } },
{ "type": "Feature", "properties": { "lat": 35.692541, "lon": 139.8228808, "title": "天理教大島町分教会" }, "geometry": { "type": "Point", "coordinates": [ 139.8228808, 35.692541 ] } },
{ "type": "Feature", "properties": { "lat": 35.6960325, "lon": 139.8210825, "title": "東京ゴスペルハウス" }, "geometry": { "type": "Point", "coordinates": [ 139.821082499999989, 35.6960325 ] } },
{ "type": "Feature", "properties": { "lat": 35.6322919, "lon": 139.715282, "title": "カトリック東京大司教区 目黒教会" }, "geometry": { "type": "Point", "coordinates": [ 139.715282, 35.6322919 ] } },
{ "type": "Feature", "properties": { "lat": 35.6359598, "lon": 139.7147044, "title": "日本基督教団 白金教会" }, "geometry": { "type": "Point", "coordinates": [ 139.714704399999988, 35.635959799999988 ] } },
{ "type": "Feature", "properties": { "lat": 35.6064937, "lon": 139.7011292, "title": "日本聖公会東京教区 三光教会" }, "geometry": { "type": "Point", "coordinates": [ 139.7011292, 35.6064937 ] } },
{ "type": "Feature", "properties": { "lat": 35.6187685, "lon": 139.7429092, "title": "聖書友の会北品川教会" }, "geometry": { "type": "Point", "coordinates": [ 139.742909200000014, 35.6187685 ] } },
{ "type": "Feature", "properties": { "lat": 35.6225172, "lon": 139.7375472, "title": "キリスト品川教会" }, "geometry": { "type": "Point", "coordinates": [ 139.7375472, 35.6225172 ] } },
{ "type": "Feature", "properties": { "lat": 35.5970168, "lon": 139.7205823, "title": "日本基督教団 西大井教会" }, "geometry": { "type": "Point", "coordinates": [ 139.7205823, 35.597016800000013 ] } },
{ "type": "Feature", "properties": { "lat": 35.6183495, "lon": 139.7039449, "title": "日本基督教団 むさし小山教会" }, "geometry": { "type": "Point", "coordinates": [ 139.70394490000001, 35.6183495 ] } },
{ "type": "Feature", "properties": { "lat": 35.6066017, "lon": 139.7026655, "title": "日本基督教団洗足教会" }, "geometry": { "type": "Point", "coordinates": [ 139.7026655, 35.6066017 ] } },
{ "type": "Feature", "properties": { "lat": 35.5983431, "lon": 139.7300555, "title": "大井バプテスト教会" }, "geometry": { "type": "Point", "coordinates": [ 139.7300555, 35.5983431 ] } },
{ "type": "Feature", "properties": { "lat": 35.6016763, "lon": 139.7014167, "title": "旗の台キリスト教会" }, "geometry": { "type": "Point", "coordinates": [ 139.70141670000001, 35.6016763 ] } },
{ "type": "Feature", "properties": { "lat": 35.6090184, "lon": 139.7168082, "title": "聖イエス会栄光教会" }, "geometry": { "type": "Point", "coordinates": [ 139.7168082, 35.6090184 ] } },
{ "type": "Feature", "properties": { "lat": 35.6254083, "lon": 139.7317805, "title": "ドイツ語福音教会" }, "geometry": { "type": "Point", "coordinates": [ 139.731780500000013, 35.6254083 ] } },
{ "type": "Feature", "properties": { "lat": 35.6151953, "lon": 139.724444, "title": "日本聖公会東京教区 東京聖マリア教会" }, "geometry": { "type": "Point", "coordinates": [ 139.724444, 35.6151953 ] } },
{ "type": "Feature", "properties": { "lat": 35.6098673, "lon": 139.7160906, "title": "金光教大崎教会" }, "geometry": { "type": "Point", "coordinates": [ 139.7160906, 35.6098673 ] } },
{ "type": "Feature", "properties": { "lat": 35.6133179, "lon": 139.7069219, "title": "品川ベテル教会" }, "geometry": { "type": "Point", "coordinates": [ 139.7069219, 35.6133179 ] } },
{ "type": "Feature", "properties": { "lat": 35.6242757, "lon": 139.7063395, "title": "正法会" }, "geometry": { "type": "Point", "coordinates": [ 139.706339500000013, 35.6242757 ] } },
{ "type": "Feature", "properties": { "lat": 35.615485, "lon": 139.7287094, "title": "天元教" }, "geometry": { "type": "Point", "coordinates": [ 139.728709400000014, 35.615485 ] } },
{ "type": "Feature", "properties": { "lat": 35.6162678, "lon": 139.7043984, "title": "天理教 分教会 東瑞" }, "geometry": { "type": "Point", "coordinates": [ 139.7043984, 35.6162678 ] } },
{ "type": "Feature", "properties": { "lat": 35.628184, "lon": 139.7242982, "title": "天理教 大教会 日本橋" }, "geometry": { "type": "Point", "coordinates": [ 139.7242982, 35.628184 ] } },
{ "type": "Feature", "properties": { "lat": 35.610457, "lon": 139.6992942, "title": "宗教法人天理教平形分教会" }, "geometry": { "type": "Point", "coordinates": [ 139.6992942, 35.610457 ] } },
{ "type": "Feature", "properties": { "lat": 35.621399, "lon": 139.722245, "title": "天理教 分教会 本品川" }, "geometry": { "type": "Point", "coordinates": [ 139.722245, 35.621399 ] } },
{ "type": "Feature", "properties": { "lat": 35.6040072, "lon": 139.7270836, "title": "天理教 大教会 本荏" }, "geometry": { "type": "Point", "coordinates": [ 139.727083599999986, 35.6040072 ] } },
{ "type": "Feature", "properties": { "lat": 35.601615, "lon": 139.7057707, "title": "天理教 分教会 東平" }, "geometry": { "type": "Point", "coordinates": [ 139.705770699999988, 35.601615 ] } },
{ "type": "Feature", "properties": { "lat": 35.6019611, "lon": 139.7392444, "title": "天理教 分教会 本品" }, "geometry": { "type": "Point", "coordinates": [ 139.7392444, 35.6019611 ] } },
{ "type": "Feature", "properties": { "lat": 35.6069987, "lon": 139.7153266, "title": "天理教 分教会 南荏原" }, "geometry": { "type": "Point", "coordinates": [ 139.7153266, 35.6069987 ] } },
{ "type": "Feature", "properties": { "lat": 35.6207814, "lon": 139.7139665, "title": "天理教品川分教会" }, "geometry": { "type": "Point", "coordinates": [ 139.7139665, 35.6207814 ] } },
{ "type": "Feature", "properties": { "lat": 35.6142562, "lon": 139.7029043, "title": "天理教 分教会 本荏原" }, "geometry": { "type": "Point", "coordinates": [ 139.7029043, 35.6142562 ] } },
{ "type": "Feature", "properties": { "lat": 35.6112013, "lon": 139.7145271, "title": "天理教 分教会 城京" }, "geometry": { "type": "Point", "coordinates": [ 139.7145271, 35.6112013 ] } },
{ "type": "Feature", "properties": { "lat": 35.6094592, "lon": 139.7032434, "title": "パーフェクトリバティー教団品川教会" }, "geometry": { "type": "Point", "coordinates": [ 139.7032434, 35.6094592 ] } },
{ "type": "Feature", "properties": { "lat": 35.6145286, "lon": 139.71797, "title": "日本キリスト教団五反田教会" }, "geometry": { "type": "Point", "coordinates": [ 139.71797, 35.6145286 ] } },
{ "type": "Feature", "properties": { "lat": 35.6203751, "lon": 139.7431124, "title": "天理教 分教会 南泰" }, "geometry": { "type": "Point", "coordinates": [ 139.7431124, 35.6203751 ] } },
{ "type": "Feature", "properties": { "lat": 35.6614664, "lon": 139.6994873, "title": "日本基督教団 東京山手教会" }, "geometry": { "type": "Point", "coordinates": [ 139.699487299999987, 35.6614664 ] } },
{ "type": "Feature", "properties": { "lat": 35.6504622, "lon": 139.7036687, "title": "代官山教会" }, "geometry": { "type": "Point", "coordinates": [ 139.7036687, 35.6504622 ] } },
{ "type": "Feature", "properties": { "lat": 35.6443468, "lon": 139.7068058, "title": "聖徒教会" }, "geometry": { "type": "Point", "coordinates": [ 139.706805800000012, 35.6443468 ] } },
{ "type": "Feature", "properties": { "lat": 35.65858, "lon": 139.7036423, "title": "高校生聖書伝道協会" }, "geometry": { "type": "Point", "coordinates": [ 139.703642300000013, 35.65858 ] } },
{ "type": "Feature", "properties": { "lat": 35.6680486, "lon": 139.6765488, "title": "東京ジャーミイ・トルコ文化センター" }, "geometry": { "type": "Point", "coordinates": [ 139.6765488, 35.6680486 ] } },
{ "type": "Feature", "properties": { "lat": 35.6594729, "lon": 139.6930051, "title": "渋谷日本基督会" }, "geometry": { "type": "Point", "coordinates": [ 139.6930051, 35.6594729 ] } },
{ "type": "Feature", "properties": { "lat": 35.6748109, "lon": 139.6881723, "title": "カトリック東京大司教区 初台教会" }, "geometry": { "type": "Point", "coordinates": [ 139.6881723, 35.6748109 ] } },
{ "type": "Feature", "properties": { "lat": 35.678105, "lon": 139.7076416, "title": "グレース宣教会東京千駄ヶ谷チャペル" }, "geometry": { "type": "Point", "coordinates": [ 139.707641599999988, 35.678105 ] } },
{ "type": "Feature", "properties": { "lat": 35.6543647, "lon": 139.6969971, "title": "日本キリスト教団 聖ヶ丘教会" }, "geometry": { "type": "Point", "coordinates": [ 139.6969971, 35.6543647 ] } },
{ "type": "Feature", "properties": { "lat": 35.6528549, "lon": 139.6949883, "title": "カトリック東京大司教区 渋谷教会" }, "geometry": { "type": "Point", "coordinates": [ 139.6949883, 35.6528549 ] } },
{ "type": "Feature", "properties": { "lat": 35.6626572, "lon": 139.6946502, "title": "宗教法人世界平和統一家庭連合" }, "geometry": { "type": "Point", "coordinates": [ 139.694650200000012, 35.6626572 ] } },
{ "type": "Feature", "properties": { "lat": 35.6492285, "lon": 139.721324, "title": "21世紀キリスト教会 広尾チャペル" }, "geometry": { "type": "Point", "coordinates": [ 139.721324, 35.6492285 ] } },
{ "type": "Feature", "properties": { "lat": 35.6612926, "lon": 139.7031326, "title": "日本キリスト教団 美竹教会" }, "geometry": { "type": "Point", "coordinates": [ 139.7031326, 35.6612926 ] } },
{ "type": "Feature", "properties": { "lat": 35.6591509, "lon": 139.7054638, "title": "日本キリスト教団渋谷教会" }, "geometry": { "type": "Point", "coordinates": [ 139.7054638, 35.6591509 ] } },
{ "type": "Feature", "properties": { "lat": 35.6517535, "lon": 139.7055073, "title": "日本基督教団 本多記念教会" }, "geometry": { "type": "Point", "coordinates": [ 139.7055073, 35.6517535 ] } },
{ "type": "Feature", "properties": { "lat": 35.6467294, "lon": 139.7072049, "title": "東京国際基督教会" }, "geometry": { "type": "Point", "coordinates": [ 139.7072049, 35.6467294 ] } },
{ "type": "Feature", "properties": { "lat": 35.6672333, "lon": 139.6889856, "title": "日本基督教団 ベテル教会" }, "geometry": { "type": "Point", "coordinates": [ 139.6889856, 35.6672333 ] } },
{ "type": "Feature", "properties": { "lat": 35.6708423, "lon": 139.7139457, "title": "原宿教会" }, "geometry": { "type": "Point", "coordinates": [ 139.713945700000011, 35.6708423 ] } },
{ "type": "Feature", "properties": { "lat": 35.6467074, "lon": 139.704199, "title": "日本基督改革派東京恩寵教会" }, "geometry": { "type": "Point", "coordinates": [ 139.704199, 35.6467074 ] } },
{ "type": "Feature", "properties": { "lat": 35.6755839, "lon": 139.6782561, "title": "日本基督教団 城西教会" }, "geometry": { "type": "Point", "coordinates": [ 139.6782561, 35.6755839 ] } },
{ "type": "Feature", "properties": { "lat": 35.6823523, "lon": 139.6984783, "title": "東京に在る教会" }, "geometry": { "type": "Point", "coordinates": [ 139.6984783, 35.6823523 ] } },
{ "type": "Feature", "properties": { "lat": 35.6711845, "lon": 139.6865836, "title": "日本基督教団 代々木教会" }, "geometry": { "type": "Point", "coordinates": [ 139.6865836, 35.6711845 ] } },
{ "type": "Feature", "properties": { "lat": 35.6656685, "lon": 139.6773355, "title": "日本基督教団代々木上原教会" }, "geometry": { "type": "Point", "coordinates": [ 139.6773355, 35.6656685 ] } },
{ "type": "Feature", "properties": { "lat": 35.6501043, "lon": 139.7166982, "title": "広尾教会" }, "geometry": { "type": "Point", "coordinates": [ 139.7166982, 35.6501043 ] } },
{ "type": "Feature", "properties": { "lat": 35.652141, "lon": 139.7137623, "title": "日本聖公会東京教区 渋谷聖公会聖ミカエル教会" }, "geometry": { "type": "Point", "coordinates": [ 139.713762300000013, 35.652141 ] } },
{ "type": "Feature", "properties": { "lat": 35.6849724, "lon": 139.6986049, "title": "代々木中部教会" }, "geometry": { "type": "Point", "coordinates": [ 139.6986049, 35.6849724 ] } },
{ "type": "Feature", "properties": { "lat": 35.6450399, "lon": 139.7137929, "title": "金光教麻布教会" }, "geometry": { "type": "Point", "coordinates": [ 139.713792899999987, 35.6450399 ] } },
{ "type": "Feature", "properties": { "lat": 35.677747, "lon": 139.674887, "title": "天理教 分教会 本義" }, "geometry": { "type": "Point", "coordinates": [ 139.674887, 35.677747 ] } },
{ "type": "Feature", "properties": { "lat": 35.6651223, "lon": 139.6882401, "title": "東京キリストの教会" }, "geometry": { "type": "Point", "coordinates": [ 139.6882401, 35.6651223 ] } },
{ "type": "Feature", "properties": { "lat": 35.6661785, "lon": 139.7084152, "title": "東京第一科学者キリスト教教会" }, "geometry": { "type": "Point", "coordinates": [ 139.7084152, 35.6661785 ] } },
{ "type": "Feature", "properties": { "lat": 35.6747889, "lon": 139.6623795, "title": "天理教東右京分教会" }, "geometry": { "type": "Point", "coordinates": [ 139.662379499999986, 35.6747889 ] } },
{ "type": "Feature", "properties": { "lat": 35.6732612, "lon": 139.6836996, "title": "妙道会教団" }, "geometry": { "type": "Point", "coordinates": [ 139.683699600000011, 35.6732612 ] } },
{ "type": "Feature", "properties": { "lat": 35.6753966, "lon": 139.685534, "title": "天理教本明王分教会" }, "geometry": { "type": "Point", "coordinates": [ 139.685534, 35.6753966 ] } },
{ "type": "Feature", "properties": { "lat": 35.6822005, "lon": 139.7039433, "title": "天理教鶉山分教会" }, "geometry": { "type": "Point", "coordinates": [ 139.7039433, 35.6822005 ] } },
{ "type": "Feature", "properties": { "lat": 35.6751088, "lon": 139.6883614, "title": "聖母信心会" }, "geometry": { "type": "Point", "coordinates": [ 139.6883614, 35.6751088 ] } },
{ "type": "Feature", "properties": { "lat": 35.6476521, "lon": 139.7193575, "title": "天理教 分教会 本豊" }, "geometry": { "type": "Point", "coordinates": [ 139.7193575, 35.647652099999988 ] } },
{ "type": "Feature", "properties": { "lat": 35.6751088, "lon": 139.6883614, "title": "カトリックレデンプトール修道会管区本部" }, "geometry": { "type": "Point", "coordinates": [ 139.6883614, 35.6751088 ] } },
{ "type": "Feature", "properties": { "lat": 35.6716345, "lon": 139.6645751, "title": "天理教 分教会 本冨久" }, "geometry": { "type": "Point", "coordinates": [ 139.6645751, 35.6716345 ] } },
{ "type": "Feature", "properties": { "lat": 35.6745845, "lon": 139.6905591, "title": "栄光キリスト教会" }, "geometry": { "type": "Point", "coordinates": [ 139.6905591, 35.6745845 ] } },
{ "type": "Feature", "properties": { "lat": 35.6737881, "lon": 139.664242, "title": "笹塚キリスト教会" }, "geometry": { "type": "Point", "coordinates": [ 139.664242, 35.6737881 ] } },
{ "type": "Feature", "properties": { "lat": 35.6556292, "lon": 139.699094, "title": "末日聖徒イエス・キリスト教会 渋谷ワード・東京第四ワード" }, "geometry": { "type": "Point", "coordinates": [ 139.699094, 35.6556292 ] } },
{ "type": "Feature", "properties": { "lat": 35.7023399, "lon": 139.7682817, "title": "神田神社(神田明神)" }, "geometry": { "type": "Point", "coordinates": [ 139.768281699999989, 35.7023399 ] } },
{ "type": "Feature", "properties": { "lat": 35.7023399, "lon": 139.7682817, "title": "神田祭" }, "geometry": { "type": "Point", "coordinates": [ 139.768281699999989, 35.7023399 ] } },
{ "type": "Feature", "properties": { "lat": 35.701339, "lon": 139.7703386, "title": "神田寺" }, "geometry": { "type": "Point", "coordinates": [ 139.7703386, 35.701339 ] } },
{ "type": "Feature", "properties": { "lat": 35.6936472, "lon": 139.7415465, "title": "日本山妙法寺 九段道場" }, "geometry": { "type": "Point", "coordinates": [ 139.7415465, 35.6936472 ] } },
{ "type": "Feature", "properties": { "lat": 35.689887, "lon": 139.7471792, "title": "納涼の夕べ" }, "geometry": { "type": "Point", "coordinates": [ 139.7471792, 35.689887 ] } },
{ "type": "Feature", "properties": { "lat": 35.6857262, "lon": 139.7334752, "title": "心法寺" }, "geometry": { "type": "Point", "coordinates": [ 139.733475199999987, 35.6857262 ] } },
{ "type": "Feature", "properties": { "lat": 35.69698, "lon": 139.7517632, "title": "大光院" }, "geometry": { "type": "Point", "coordinates": [ 139.7517632, 35.69698 ] } },
{ "type": "Feature", "properties": { "lat": 35.6919407, "lon": 139.7423028, "title": "二七山不動院" }, "geometry": { "type": "Point", "coordinates": [ 139.7423028, 35.6919407 ] } },
{ "type": "Feature", "properties": { "lat": 35.6855956, "lon": 139.7826506, "title": "大観音寺" }, "geometry": { "type": "Point", "coordinates": [ 139.782650600000011, 35.6855956 ] } },
{ "type": "Feature", "properties": { "lat": 35.68723, "lon": 139.7892229, "title": "清正公寺" }, "geometry": { "type": "Point", "coordinates": [ 139.7892229, 35.68723 ] } },
{ "type": "Feature", "properties": { "lat": 35.6809205, "lon": 139.7793223, "title": "智泉院" }, "geometry": { "type": "Point", "coordinates": [ 139.7793223, 35.6809205 ] } },
{ "type": "Feature", "properties": { "lat": 35.665595, "lon": 139.7710186, "title": "円正寺" }, "geometry": { "type": "Point", "coordinates": [ 139.7710186, 35.665595 ] } },
{ "type": "Feature", "properties": { "lat": 35.6775698, "lon": 139.7774483, "title": "玉円寺" }, "geometry": { "type": "Point", "coordinates": [ 139.7774483, 35.6775698 ] } },
{ "type": "Feature", "properties": { "lat": 35.6841867, "lon": 139.7805694, "title": "どぶろく祭" }, "geometry": { "type": "Point", "coordinates": [ 139.7805694, 35.6841867 ] } },
{ "type": "Feature", "properties": { "lat": 35.69078, "lon": 139.7777696, "title": "身延別院" }, "geometry": { "type": "Point", "coordinates": [ 139.7777696, 35.69078 ] } },
{ "type": "Feature", "properties": { "lat": 35.6841867, "lon": 139.7805694, "title": "日本橋七福神詣" }, "geometry": { "type": "Point", "coordinates": [ 139.7805694, 35.6841867 ] } },
{ "type": "Feature", "properties": { "lat": 35.6927598, "lon": 139.785876, "title": "薬研堀不動院" }, "geometry": { "type": "Point", "coordinates": [ 139.785876, 35.6927598 ] } },
{ "type": "Feature", "properties": { "lat": 35.6651386, "lon": 139.7703497, "title": "称揚寺" }, "geometry": { "type": "Point", "coordinates": [ 139.7703497, 35.6651386 ] } },
{ "type": "Feature", "properties": { "lat": 35.6892402, "lon": 139.7769596, "title": "日本橋恵比寿講べったら市" }, "geometry": { "type": "Point", "coordinates": [ 139.7769596, 35.6892402 ] } },
{ "type": "Feature", "properties": { "lat": 35.668047, "lon": 139.7834305, "title": "住吉神社例大祭" }, "geometry": { "type": "Point", "coordinates": [ 139.7834305, 35.668047 ] } },
{ "type": "Feature", "properties": { "lat": 35.6671784, "lon": 139.7718858, "title": "築地本願寺" }, "geometry": { "type": "Point", "coordinates": [ 139.7718858, 35.6671784 ] } },
{ "type": "Feature", "properties": { "lat": 35.6624589, "lon": 139.780668, "title": "本芳寺" }, "geometry": { "type": "Point", "coordinates": [ 139.780668, 35.6624589 ] } },
{ "type": "Feature", "properties": { "lat": 35.6698135, "lon": 139.7687643, "title": "手紙寺 GINZA(ギンザ)" }, "geometry": { "type": "Point", "coordinates": [ 139.768764299999987, 35.6698135 ] } },
{ "type": "Feature", "properties": { "lat": 35.685412, "lon": 139.7848852, "title": "法華宗本門流宗務院" }, "geometry": { "type": "Point", "coordinates": [ 139.7848852, 35.685412 ] } },
{ "type": "Feature", "properties": { "lat": 35.6656996, "lon": 139.7718658, "title": "善林寺" }, "geometry": { "type": "Point", "coordinates": [ 139.7718658, 35.6656996 ] } },
{ "type": "Feature", "properties": { "lat": 35.6908558, "lon": 139.7780581, "title": "大安楽寺" }, "geometry": { "type": "Point", "coordinates": [ 139.77805810000001, 35.6908558 ] } },
{ "type": "Feature", "properties": { "lat": 35.6573157, "lon": 139.747806, "title": "増上寺" }, "geometry": { "type": "Point", "coordinates": [ 139.747806, 35.6573157 ] } },
{ "type": "Feature", "properties": { "lat": 35.6375184, "lon": 139.7361197, "title": "泉岳寺" }, "geometry": { "type": "Point", "coordinates": [ 139.736119699999989, 35.6375184 ] } },
{ "type": "Feature", "properties": { "lat": 35.6349345, "lon": 139.7339975, "title": "高野山東京別院" }, "geometry": { "type": "Point", "coordinates": [ 139.733997499999987, 35.6349345 ] } },
{ "type": "Feature", "properties": { "lat": 35.662088, "lon": 139.7287641, "title": "出雲大社東京分祠" }, "geometry": { "type": "Point", "coordinates": [ 139.7287641, 35.662088 ] } },
{ "type": "Feature", "properties": { "lat": 35.6481175, "lon": 139.7235809, "title": "天現寺" }, "geometry": { "type": "Point", "coordinates": [ 139.7235809, 35.648117500000012 ] } },
{ "type": "Feature", "properties": { "lat": 35.6607541, "lon": 139.7194617, "title": "大本山永平寺別院長谷寺" }, "geometry": { "type": "Point", "coordinates": [ 139.719461700000011, 35.6607541 ] } },
{ "type": "Feature", "properties": { "lat": 35.6766909, "lon": 139.732929, "title": "豊川稲荷別院" }, "geometry": { "type": "Point", "coordinates": [ 139.732929, 35.6766909 ] } },
{ "type": "Feature", "properties": { "lat": 35.6372736, "lon": 139.7270038, "title": "瑞聖寺" }, "geometry": { "type": "Point", "coordinates": [ 139.7270038, 35.6372736 ] } },
{ "type": "Feature", "properties": { "lat": 35.6474752, "lon": 139.7275778, "title": "光林寺" }, "geometry": { "type": "Point", "coordinates": [ 139.7275778, 35.6474752 ] } },
{ "type": "Feature", "properties": { "lat": 35.6695293, "lon": 139.7174216, "title": "浄土宗 梅窓院" }, "geometry": { "type": "Point", "coordinates": [ 139.7174216, 35.6695293 ] } },
{ "type": "Feature", "properties": { "lat": 35.6651491, "lon": 139.7479775, "title": "栄閑院猿寺" }, "geometry": { "type": "Point", "coordinates": [ 139.7479775, 35.6651491 ] } },
{ "type": "Feature", "properties": { "lat": 35.6396709, "lon": 139.7316467, "title": "清正公大祭" }, "geometry": { "type": "Point", "coordinates": [ 139.7316467, 35.6396709 ] } },
{ "type": "Feature", "properties": { "lat": 35.6766909, "lon": 139.732929, "title": "豊川稲荷 東京別院" }, "geometry": { "type": "Point", "coordinates": [ 139.732929, 35.6766909 ] } },
{ "type": "Feature", "properties": { "lat": 35.6536144, "lon": 139.7335205, "title": "麻布山 善福寺" }, "geometry": { "type": "Point", "coordinates": [ 139.7335205, 35.6536144 ] } },
{ "type": "Feature", "properties": { "lat": 35.6565346, "lon": 139.7465738, "title": "宝珠院" }, "geometry": { "type": "Point", "coordinates": [ 139.7465738, 35.6565346 ] } },
{ "type": "Feature", "properties": { "lat": 35.6340525, "lon": 139.7355647, "title": "東禅寺" }, "geometry": { "type": "Point", "coordinates": [ 139.7355647, 35.6340525 ] } },
{ "type": "Feature", "properties": { "lat": 35.6711257, "lon": 139.7327402, "title": "報土寺" }, "geometry": { "type": "Point", "coordinates": [ 139.7327402, 35.6711257 ] } },
{ "type": "Feature", "properties": { "lat": 35.643706, "lon": 139.7299371, "title": "西光寺" }, "geometry": { "type": "Point", "coordinates": [ 139.7299371, 35.643706 ] } },
{ "type": "Feature", "properties": { "lat": 35.6744882, "lon": 139.7356951, "title": "浄土寺" }, "geometry": { "type": "Point", "coordinates": [ 139.735695099999987, 35.6744882 ] } },
{ "type": "Feature", "properties": { "lat": 35.6594862, "lon": 139.7514485, "title": "天光院" }, "geometry": { "type": "Point", "coordinates": [ 139.7514485, 35.6594862 ] } },
{ "type": "Feature", "properties": { "lat": 35.6574448, "lon": 139.75373, "title": "東京 佛願寺" }, "geometry": { "type": "Point", "coordinates": [ 139.75373, 35.6574448 ] } },
{ "type": "Feature", "properties": { "lat": 35.6677592, "lon": 139.742268, "title": "澄泉寺" }, "geometry": { "type": "Point", "coordinates": [ 139.742268, 35.6677592 ] } },
{ "type": "Feature", "properties": { "lat": 35.6424067, "lon": 139.7375753, "title": "薬王寺" }, "geometry": { "type": "Point", "coordinates": [ 139.7375753, 35.6424067 ] } },
{ "type": "Feature", "properties": { "lat": 35.6575955, "lon": 139.7519116, "title": "常照院" }, "geometry": { "type": "Point", "coordinates": [ 139.7519116, 35.6575955 ] } },
{ "type": "Feature", "properties": { "lat": 35.6574959, "lon": 139.7523556, "title": "花岳院" }, "geometry": { "type": "Point", "coordinates": [ 139.752355599999987, 35.6574959 ] } },
{ "type": "Feature", "properties": { "lat": 35.6355057, "lon": 139.721847, "title": "妙圓寺" }, "geometry": { "type": "Point", "coordinates": [ 139.721847, 35.6355057 ] } },
{ "type": "Feature", "properties": { "lat": 35.6567025, "lon": 139.7519181, "title": "安養院" }, "geometry": { "type": "Point", "coordinates": [ 139.751918100000012, 35.6567025 ] } },
{ "type": "Feature", "properties": { "lat": 35.6438347, "lon": 139.7385086, "title": "玉鳳寺" }, "geometry": { "type": "Point", "coordinates": [ 139.738508599999989, 35.6438347 ] } },
{ "type": "Feature", "properties": { "lat": 35.6554288, "lon": 139.7329586, "title": "大法寺" }, "geometry": { "type": "Point", "coordinates": [ 139.732958599999989, 35.6554288 ] } },
{ "type": "Feature", "properties": { "lat": 35.6587028, "lon": 139.7527119, "title": "源宝院" }, "geometry": { "type": "Point", "coordinates": [ 139.7527119, 35.6587028 ] } },
{ "type": "Feature", "properties": { "lat": 35.6387806, "lon": 139.7323098, "title": "源昌寺" }, "geometry": { "type": "Point", "coordinates": [ 139.7323098, 35.6387806 ] } },
{ "type": "Feature", "properties": { "lat": 35.6394813, "lon": 139.7360686, "title": "保安寺" }, "geometry": { "type": "Point", "coordinates": [ 139.73606860000001, 35.6394813 ] } },
{ "type": "Feature", "properties": { "lat": 35.6436741, "lon": 139.7414607, "title": "済海寺" }, "geometry": { "type": "Point", "coordinates": [ 139.7414607, 35.6436741 ] } },
{ "type": "Feature", "properties": { "lat": 35.6630721, "lon": 139.7486703, "title": "青松寺" }, "geometry": { "type": "Point", "coordinates": [ 139.748670299999986, 35.6630721 ] } },
{ "type": "Feature", "properties": { "lat": 35.6475227, "lon": 139.7411176, "title": "大松寺" }, "geometry": { "type": "Point", "coordinates": [ 139.7411176, 35.6475227 ] } },
{ "type": "Feature", "properties": { "lat": 35.6440662, "lon": 139.7374699, "title": "長松寺" }, "geometry": { "type": "Point", "coordinates": [ 139.7374699, 35.6440662 ] } },
{ "type": "Feature", "properties": { "lat": 35.6611805, "lon": 139.7487847, "title": "雲晴院" }, "geometry": { "type": "Point", "coordinates": [ 139.748784699999987, 35.6611805 ] } },
{ "type": "Feature", "properties": { "lat": 35.6650005, "lon": 139.7473415, "title": "栄立院" }, "geometry": { "type": "Point", "coordinates": [ 139.7473415, 35.6650005 ] } },
{ "type": "Feature", "properties": { "lat": 35.6677592, "lon": 139.742268, "title": "正福寺" }, "geometry": { "type": "Point", "coordinates": [ 139.742268, 35.6677592 ] } },
{ "type": "Feature", "properties": { "lat": 35.6650484, "lon": 139.7478194, "title": "興昭院" }, "geometry": { "type": "Point", "coordinates": [ 139.7478194, 35.6650484 ] } },
{ "type": "Feature", "properties": { "lat": 35.6692375, "lon": 139.7390373, "title": "霊山観音赤坂別院" }, "geometry": { "type": "Point", "coordinates": [ 139.7390373, 35.6692375 ] } },
{ "type": "Feature", "properties": { "lat": 35.6591597, "lon": 139.7458455, "title": "金地院" }, "geometry": { "type": "Point", "coordinates": [ 139.7458455, 35.6591597 ] } },
{ "type": "Feature", "properties": { "lat": 35.6476893, "lon": 139.7540148, "title": "清法山 徳純院" }, "geometry": { "type": "Point", "coordinates": [ 139.7540148, 35.6476893 ] } },
{ "type": "Feature", "properties": { "lat": 35.6651843, "lon": 139.747394, "title": "光岳院" }, "geometry": { "type": "Point", "coordinates": [ 139.747394, 35.6651843 ] } },
{ "type": "Feature", "properties": { "lat": 35.6499479, "lon": 139.7440422, "title": "大本山弘法寺" }, "geometry": { "type": "Point", "coordinates": [ 139.7440422, 35.6499479 ] } },
{ "type": "Feature", "properties": { "lat": 35.6367575, "lon": 139.7340777, "title": "承教寺" }, "geometry": { "type": "Point", "coordinates": [ 139.7340777, 35.6367575 ] } },
{ "type": "Feature", "properties": { "lat": 35.6366535, "lon": 139.7330553, "title": "黄梅院" }, "geometry": { "type": "Point", "coordinates": [ 139.7330553, 35.6366535 ] } },
{ "type": "Feature", "properties": { "lat": 35.6603781, "lon": 139.7486523, "title": "安蓮社 総務" }, "geometry": { "type": "Point", "coordinates": [ 139.7486523, 35.6603781 ] } },
{ "type": "Feature", "properties": { "lat": 35.6435574, "lon": 139.7397016, "title": "実相寺" }, "geometry": { "type": "Point", "coordinates": [ 139.739701599999989, 35.6435574 ] } },
{ "type": "Feature", "properties": { "lat": 35.6565851, "lon": 139.7522068, "title": "浄運院" }, "geometry": { "type": "Point", "coordinates": [ 139.75220680000001, 35.6565851 ] } },
{ "type": "Feature", "properties": { "lat": 35.6426677, "lon": 139.7390871, "title": "荘厳寺" }, "geometry": { "type": "Point", "coordinates": [ 139.7390871, 35.6426677 ] } },
{ "type": "Feature", "properties": { "lat": 35.644545, "lon": 139.7401449, "title": "大増寺" }, "geometry": { "type": "Point", "coordinates": [ 139.7401449, 35.644545 ] } },
{ "type": "Feature", "properties": { "lat": 35.6542046, "lon": 139.7465042, "title": "妙定院" }, "geometry": { "type": "Point", "coordinates": [ 139.7465042, 35.6542046 ] } },
{ "type": "Feature", "properties": { "lat": 35.6429611, "lon": 139.739134, "title": "常教寺" }, "geometry": { "type": "Point", "coordinates": [ 139.739134, 35.6429611 ] } },
{ "type": "Feature", "properties": { "lat": 35.6442114, "lon": 139.7378597, "title": "忍願寺" }, "geometry": { "type": "Point", "coordinates": [ 139.7378597, 35.6442114 ] } },
{ "type": "Feature", "properties": { "lat": 35.6531551, "lon": 139.7335141, "title": "善通寺" }, "geometry": { "type": "Point", "coordinates": [ 139.7335141, 35.6531551 ] } },
{ "type": "Feature", "properties": { "lat": 35.6716823, "lon": 139.7323967, "title": "専福寺" }, "geometry": { "type": "Point", "coordinates": [ 139.73239670000001, 35.6716823 ] } },
{ "type": "Feature", "properties": { "lat": 35.6411671, "lon": 139.7405951, "title": "成覚寺" }, "geometry": { "type": "Point", "coordinates": [ 139.7405951, 35.6411671 ] } },
{ "type": "Feature", "properties": { "lat": 35.6354578, "lon": 139.737622, "title": "正覚寺" }, "geometry": { "type": "Point", "coordinates": [ 139.737622, 35.6354578 ] } },
{ "type": "Feature", "properties": { "lat": 35.6453833, "lon": 139.7394534, "title": "慈眼寺・曹洞宗" }, "geometry": { "type": "Point", "coordinates": [ 139.7394534, 35.6453833 ] } },
{ "type": "Feature", "properties": { "lat": 35.6658782, "lon": 139.7353352, "title": "妙像寺" }, "geometry": { "type": "Point", "coordinates": [ 139.7353352, 35.6658782 ] } },
{ "type": "Feature", "properties": { "lat": 35.6481965, "lon": 139.7330601, "title": "延命院" }, "geometry": { "type": "Point", "coordinates": [ 139.733060099999989, 35.6481965 ] } },
{ "type": "Feature", "properties": { "lat": 35.6703135, "lon": 139.723063, "title": "玉窓寺" }, "geometry": { "type": "Point", "coordinates": [ 139.723063, 35.6703135 ] } },
{ "type": "Feature", "properties": { "lat": 35.645194, "lon": 139.7390572, "title": "宗教法人林泉寺" }, "geometry": { "type": "Point", "coordinates": [ 139.7390572, 35.645194 ] } },
{ "type": "Feature", "properties": { "lat": 35.6430645, "lon": 139.7372638, "title": "宝徳寺" }, "geometry": { "type": "Point", "coordinates": [ 139.7372638, 35.6430645 ] } },
{ "type": "Feature", "properties": { "lat": 35.6670967, "lon": 139.727147, "title": "教運寺" }, "geometry": { "type": "Point", "coordinates": [ 139.727147, 35.6670967 ] } },
{ "type": "Feature", "properties": { "lat": 35.643917, "lon": 139.7389691, "title": "仙翁寺" }, "geometry": { "type": "Point", "coordinates": [ 139.7389691, 35.643917 ] } },
{ "type": "Feature", "properties": { "lat": 35.6617305, "lon": 139.7467015, "title": "光円寺" }, "geometry": { "type": "Point", "coordinates": [ 139.7467015, 35.6617305 ] } },
{ "type": "Feature", "properties": { "lat": 35.6499637, "lon": 139.7518916, "title": "法泉寺" }, "geometry": { "type": "Point", "coordinates": [ 139.7518916, 35.6499637 ] } },
{ "type": "Feature", "properties": { "lat": 35.6624489, "lon": 139.747642, "title": "考寿院" }, "geometry": { "type": "Point", "coordinates": [ 139.747642, 35.6624489 ] } },
{ "type": "Feature", "properties": { "lat": 35.669433, "lon": 139.7223547, "title": "龍泉寺" }, "geometry": { "type": "Point", "coordinates": [ 139.722354700000011, 35.669433 ] } },
{ "type": "Feature", "properties": { "lat": 35.6476265, "lon": 139.7235895, "title": "佑浩寺" }, "geometry": { "type": "Point", "coordinates": [ 139.7235895, 35.6476265 ] } },
{ "type": "Feature", "properties": { "lat": 35.6718733, "lon": 139.7148091, "title": "高徳寺" }, "geometry": { "type": "Point", "coordinates": [ 139.7148091, 35.6718733 ] } },
{ "type": "Feature", "properties": { "lat": 35.6449522, "lon": 139.7392214, "title": "明王院" }, "geometry": { "type": "Point", "coordinates": [ 139.7392214, 35.6449522 ] } },
{ "type": "Feature", "properties": { "lat": 35.6617706, "lon": 139.7322782, "title": "法典寺・日蓮宗" }, "geometry": { "type": "Point", "coordinates": [ 139.7322782, 35.6617706 ] } },
{ "type": "Feature", "properties": { "lat": 35.6586853, "lon": 139.7281253, "title": "妙経寺" }, "geometry": { "type": "Point", "coordinates": [ 139.728125299999988, 35.6586853 ] } },
{ "type": "Feature", "properties": { "lat": 35.6363144, "lon": 139.7326613, "title": "圓眞寺" }, "geometry": { "type": "Point", "coordinates": [ 139.7326613, 35.6363144 ] } },
{ "type": "Feature", "properties": { "lat": 35.666908, "lon": 139.7378797, "title": "永昌寺" }, "geometry": { "type": "Point", "coordinates": [ 139.7378797, 35.666908 ] } },
{ "type": "Feature", "properties": { "lat": 35.6604475, "lon": 139.7217178, "title": "慈眼院" }, "geometry": { "type": "Point", "coordinates": [ 139.7217178, 35.6604475 ] } },
{ "type": "Feature", "properties": { "lat": 35.6533917, "lon": 139.7338545, "title": "金蔵寺" }, "geometry": { "type": "Point", "coordinates": [ 139.7338545, 35.6533917 ] } },
{ "type": "Feature", "properties": { "lat": 35.6608692, "lon": 139.7212353, "title": "大安寺" }, "geometry": { "type": "Point", "coordinates": [ 139.721235299999989, 35.6608692 ] } },
{ "type": "Feature", "properties": { "lat": 35.6449601, "lon": 139.7395811, "title": "明福寺" }, "geometry": { "type": "Point", "coordinates": [ 139.7395811, 35.6449601 ] } },
{ "type": "Feature", "properties": { "lat": 35.6601627, "lon": 139.7457155, "title": "光宝寺" }, "geometry": { "type": "Point", "coordinates": [ 139.745715499999989, 35.6601627 ] } },
{ "type": "Feature", "properties": { "lat": 35.6464497, "lon": 139.7437516, "title": "蓮乗寺" }, "geometry": { "type": "Point", "coordinates": [ 139.7437516, 35.6464497 ] } },
{ "type": "Feature", "properties": { "lat": 35.6433263, "lon": 139.7377956, "title": "清久寺" }, "geometry": { "type": "Point", "coordinates": [ 139.7377956, 35.6433263 ] } },
{ "type": "Feature", "properties": { "lat": 35.659039, "lon": 139.7420526, "title": "一乗寺" }, "geometry": { "type": "Point", "coordinates": [ 139.7420526, 35.659039 ] } },
{ "type": "Feature", "properties": { "lat": 35.6437304, "lon": 139.7382668, "title": "南台寺" }, "geometry": { "type": "Point", "coordinates": [ 139.7382668, 35.6437304 ] } },
{ "type": "Feature", "properties": { "lat": 35.6465297, "lon": 139.7402298, "title": "大聖院" }, "geometry": { "type": "Point", "coordinates": [ 139.7402298, 35.646529699999988 ] } },
{ "type": "Feature", "properties": { "lat": 35.6426985, "lon": 139.7371004, "title": "徳玄寺" }, "geometry": { "type": "Point", "coordinates": [ 139.7371004, 35.6426985 ] } },
{ "type": "Feature", "properties": { "lat": 35.6385557, "lon": 139.7352753, "title": "護念山桐樹院 證誠寺" }, "geometry": { "type": "Point", "coordinates": [ 139.735275300000012, 35.6385557 ] } },
{ "type": "Feature", "properties": { "lat": 35.6573157, "lon": 139.747806, "title": "芝増上寺" }, "geometry": { "type": "Point", "coordinates": [ 139.747806, 35.6573157 ] } },
{ "type": "Feature", "properties": { "lat": 35.640682, "lon": 139.7374905, "title": "等覚寺" }, "geometry": { "type": "Point", "coordinates": [ 139.7374905, 35.640682 ] } },
{ "type": "Feature", "properties": { "lat": 35.642462, "lon": 139.7316692, "title": "臨済宗妙心寺派 重秀寺" }, "geometry": { "type": "Point", "coordinates": [ 139.7316692, 35.642462 ] } },
{ "type": "Feature", "properties": { "lat": 35.652916, "lon": 139.7374325, "title": "円徳寺" }, "geometry": { "type": "Point", "coordinates": [ 139.737432500000011, 35.652916 ] } },
{ "type": "Feature", "properties": { "lat": 35.6477585, "lon": 139.7292625, "title": "春桃院" }, "geometry": { "type": "Point", "coordinates": [ 139.7292625, 35.6477585 ] } },
{ "type": "Feature", "properties": { "lat": 35.6709811, "lon": 139.7163911, "title": "持法寺" }, "geometry": { "type": "Point", "coordinates": [ 139.71639110000001, 35.6709811 ] } },
{ "type": "Feature", "properties": { "lat": 35.6487216, "lon": 139.7330501, "title": "浄専寺" }, "geometry": { "type": "Point", "coordinates": [ 139.733050100000014, 35.6487216 ] } },
{ "type": "Feature", "properties": { "lat": 35.6477385, "lon": 139.7418459, "title": "長運寺" }, "geometry": { "type": "Point", "coordinates": [ 139.741845899999987, 35.6477385 ] } },
{ "type": "Feature", "properties": { "lat": 35.6504904, "lon": 139.7303848, "title": "遍照寺" }, "geometry": { "type": "Point", "coordinates": [ 139.7303848, 35.6504904 ] } },
{ "type": "Feature", "properties": { "lat": 35.6657734, "lon": 139.7400847, "title": "道源寺" }, "geometry": { "type": "Point", "coordinates": [ 139.740084700000011, 35.6657734 ] } },
{ "type": "Feature", "properties": { "lat": 35.6499479, "lon": 139.7440422, "title": "龍生院" }, "geometry": { "type": "Point", "coordinates": [ 139.7440422, 35.6499479 ] } },
{ "type": "Feature", "properties": { "lat": 35.6464743, "lon": 139.7370614, "title": "龍源寺" }, "geometry": { "type": "Point", "coordinates": [ 139.737061399999988, 35.6464743 ] } },
{ "type": "Feature", "properties": { "lat": 35.6666549, "lon": 139.712499, "title": "善光寺" }, "geometry": { "type": "Point", "coordinates": [ 139.712499, 35.6666549 ] } },
{ "type": "Feature", "properties": { "lat": 35.6582068, "lon": 139.7446027, "title": "浄土宗 心光院" }, "geometry": { "type": "Point", "coordinates": [ 139.7446027, 35.658206799999988 ] } },
{ "type": "Feature", "properties": { "lat": 35.6528466, "lon": 139.733611, "title": "専光寺" }, "geometry": { "type": "Point", "coordinates": [ 139.733611, 35.6528466 ] } },
{ "type": "Feature", "properties": { "lat": 35.6387537, "lon": 139.7395262, "title": "願生寺" }, "geometry": { "type": "Point", "coordinates": [ 139.7395262, 35.6387537 ] } },
{ "type": "Feature", "properties": { "lat": 35.64636, "lon": 139.7422317, "title": "阿含宗関東別院" }, "geometry": { "type": "Point", "coordinates": [ 139.7422317, 35.64636 ] } },
{ "type": "Feature", "properties": { "lat": 35.6576591, "lon": 139.7530653, "title": "め組半鐘祭" }, "geometry": { "type": "Point", "coordinates": [ 139.7530653, 35.6576591 ] } },
{ "type": "Feature", "properties": { "lat": 35.6511935, "lon": 139.7546142, "title": "勧勝寺" }, "geometry": { "type": "Point", "coordinates": [ 139.7546142, 35.651193500000012 ] } },
{ "type": "Feature", "properties": { "lat": 35.6369775, "lon": 139.7329838, "title": "浄土宗 清凉山 松光寺" }, "geometry": { "type": "Point", "coordinates": [ 139.7329838, 35.6369775 ] } },
{ "type": "Feature", "properties": { "lat": 35.6695293, "lon": 139.7174216, "title": "青山梅窓院墓苑" }, "geometry": { "type": "Point", "coordinates": [ 139.7174216, 35.6695293 ] } },
{ "type": "Feature", "properties": { "lat": 35.6641415, "lon": 139.7369993, "title": "圓林寺" }, "geometry": { "type": "Point", "coordinates": [ 139.7369993, 35.6641415 ] } },
{ "type": "Feature", "properties": { "lat": 35.6551772, "lon": 139.7336619, "title": "徳正寺" }, "geometry": { "type": "Point", "coordinates": [ 139.733661899999987, 35.6551772 ] } },
{ "type": "Feature", "properties": { "lat": 35.6567523, "lon": 139.7315313, "title": "安全寺" }, "geometry": { "type": "Point", "coordinates": [ 139.7315313, 35.6567523 ] } },
{ "type": "Feature", "properties": { "lat": 35.6565078, "lon": 139.7314703, "title": "広称寺" }, "geometry": { "type": "Point", "coordinates": [ 139.731470300000012, 35.6565078 ] } },
{ "type": "Feature", "properties": { "lat": 35.6763159, "lon": 139.735103, "title": "赤坂不動尊 威徳寺" }, "geometry": { "type": "Point", "coordinates": [ 139.735103, 35.6763159 ] } },
{ "type": "Feature", "properties": { "lat": 35.6647773, "lon": 139.7507438, "title": "鏡照院" }, "geometry": { "type": "Point", "coordinates": [ 139.7507438, 35.6647773 ] } },
{ "type": "Feature", "properties": { "lat": 35.6500953, "lon": 139.754526, "title": "圓珠寺" }, "geometry": { "type": "Point", "coordinates": [ 139.754526, 35.6500953 ] } },
{ "type": "Feature", "properties": { "lat": 35.6424273, "lon": 139.7372306, "title": "魚籃寺" }, "geometry": { "type": "Point", "coordinates": [ 139.7372306, 35.6424273 ] } },
{ "type": "Feature", "properties": { "lat": 35.6544887, "lon": 139.7333444, "title": "賢崇寺" }, "geometry": { "type": "Point", "coordinates": [ 139.7333444, 35.6544887 ] } },
{ "type": "Feature", "properties": { "lat": 35.6634471, "lon": 139.7314271, "title": "光専寺" }, "geometry": { "type": "Point", "coordinates": [ 139.7314271, 35.6634471 ] } },
{ "type": "Feature", "properties": { "lat": 35.636903, "lon": 139.7325413, "title": "正満寺" }, "geometry": { "type": "Point", "coordinates": [ 139.7325413, 35.636903 ] } },
{ "type": "Feature", "properties": { "lat": 35.6534592, "lon": 139.7336924, "title": "真福寺" }, "geometry": { "type": "Point", "coordinates": [ 139.7336924, 35.6534592 ] } },
{ "type": "Feature", "properties": { "lat": 35.6422072, "lon": 139.7242761, "title": "興禪寺" }, "geometry": { "type": "Point", "coordinates": [ 139.7242761, 35.6422072 ] } },
{ "type": "Feature", "properties": { "lat": 35.6662881, "lon": 139.739743, "title": "西光寺" }, "geometry": { "type": "Point", "coordinates": [ 139.739743, 35.6662881 ] } },
{ "type": "Feature", "properties": { "lat": 35.6656524, "lon": 139.7495746, "title": "真福寺" }, "geometry": { "type": "Point", "coordinates": [ 139.749574599999988, 35.6656524 ] } },
{ "type": "Feature", "properties": { "lat": 35.667709, "lon": 139.7424911, "title": "常國寺" }, "geometry": { "type": "Point", "coordinates": [ 139.7424911, 35.667709 ] } },
{ "type": "Feature", "properties": { "lat": 35.6624313, "lon": 139.7454696, "title": "光明寺" }, "geometry": { "type": "Point", "coordinates": [ 139.7454696, 35.6624313 ] } },
{ "type": "Feature", "properties": { "lat": 35.6475772, "lon": 139.733534, "title": "西福寺" }, "geometry": { "type": "Point", "coordinates": [ 139.733534, 35.6475772 ] } },
{ "type": "Feature", "properties": { "lat": 35.6573864, "lon": 139.7509463, "title": "廣度院" }, "geometry": { "type": "Point", "coordinates": [ 139.75094630000001, 35.6573864 ] } },
{ "type": "Feature", "properties": { "lat": 35.6440933, "lon": 139.7394125, "title": "常林寺" }, "geometry": { "type": "Point", "coordinates": [ 139.739412499999986, 35.6440933 ] } },
{ "type": "Feature", "properties": { "lat": 35.6522442, "lon": 139.7355661, "title": "浄広寺" }, "geometry": { "type": "Point", "coordinates": [ 139.7355661, 35.6522442 ] } },
{ "type": "Feature", "properties": { "lat": 35.6692878, "lon": 139.7149927, "title": "修験四恩寺" }, "geometry": { "type": "Point", "coordinates": [ 139.71499270000001, 35.6692878 ] } },
{ "type": "Feature", "properties": { "lat": 35.6709059, "lon": 139.7163015, "title": "実相寺" }, "geometry": { "type": "Point", "coordinates": [ 139.716301499999986, 35.6709059 ] } },
{ "type": "Feature", "properties": { "lat": 35.6519803, "lon": 139.7358624, "title": "称名寺" }, "geometry": { "type": "Point", "coordinates": [ 139.7358624, 35.6519803 ] } },
{ "type": "Feature", "properties": { "lat": 35.6517118, "lon": 139.7291721, "title": "天真寺" }, "geometry": { "type": "Point", "coordinates": [ 139.7291721, 35.6517118 ] } },
{ "type": "Feature", "properties": { "lat": 35.6492359, "lon": 139.7511511, "title": "宗光寺" },