{
"type": "FeatureCollection",
"name": "touristspots2025",
"crs": { "type": "name", "properties": { "name": "urn:ogc:def:crs:OGC:1.3:CRS84" } },
"features": [
{ "type": "Feature", "properties": { "lat": 35.6748413, "lon": 139.7884902, "title": "永代公園" }, "geometry": { "type": "Point", "coordinates": [ 139.788490200000012, 35.6748413 ] } },
{ "type": "Feature", "properties": { "lat": 35.6687489, "lon": 139.7897371, "title": "越中島公園" }, "geometry": { "type": "Point", "coordinates": [ 139.7897371, 35.6687489 ] } },
{ "type": "Feature", "properties": { "lat": 35.6677433, "lon": 139.7887714, "title": "中の島公園" }, "geometry": { "type": "Point", "coordinates": [ 139.7887714, 35.6677433 ] } },
{ "type": "Feature", "properties": { "lat": 35.6533777, "lon": 139.793127, "title": "豊洲公園" }, "geometry": { "type": "Point", "coordinates": [ 139.793127, 35.6533777 ] } },
{ "type": "Feature", "properties": { "lat": 35.6534771, "lon": 139.7920889, "title": "春海橋公園" }, "geometry": { "type": "Point", "coordinates": [ 139.79208890000001, 35.6534771 ] } },
{ "type": "Feature", "properties": { "lat": 35.6548755, "lon": 139.7911163, "title": "アーバンゲートブリッジ" }, "geometry": { "type": "Point", "coordinates": [ 139.7911163, 35.6548755 ] } },
{ "type": "Feature", "properties": { "lat": 35.6444036, "lon": 139.7920319, "title": "木遣り橋(きやりばし)" }, "geometry": { "type": "Point", "coordinates": [ 139.792031900000012, 35.6444036 ] } },
{ "type": "Feature", "properties": { "lat": 35.6456653, "lon": 139.7838003, "title": "豊洲江戸前通り" }, "geometry": { "type": "Point", "coordinates": [ 139.7838003, 35.6456653 ] } },
{ "type": "Feature", "properties": { "lat": 35.646484, "lon": 139.7916094, "title": "豊洲六丁目公園" }, "geometry": { "type": "Point", "coordinates": [ 139.7916094, 35.646484 ] } },
{ "type": "Feature", "properties": { "lat": 35.6467076, "lon": 139.7909781, "title": "豊洲６丁目SKYZ自治会（江東区コミュニティガーデン）" }, "geometry": { "type": "Point", "coordinates": [ 139.7909781, 35.6467076 ] } },
{ "type": "Feature", "properties": { "lat": 35.6454679, "lon": 139.7838591, "title": "豊洲目抜き大通り" }, "geometry": { "type": "Point", "coordinates": [ 139.7838591, 35.6454679 ] } },
{ "type": "Feature", "properties": { "lat": 35.6730826, "lon": 139.7959278, "title": "辰巳新道" }, "geometry": { "type": "Point", "coordinates": [ 139.795927799999987, 35.6730826 ] } },
{ "type": "Feature", "properties": { "lat": 35.6740021, "lon": 139.7949458, "title": "深川モダン館通り" }, "geometry": { "type": "Point", "coordinates": [ 139.7949458, 35.6740021 ] } },
{ "type": "Feature", "properties": { "lat": 35.6740164, "lon": 139.7951561, "title": "モダン館" }, "geometry": { "type": "Point", "coordinates": [ 139.795156100000014, 35.6740164 ] } },
{ "type": "Feature", "properties": { "lat": 35.6718509, "lon": 139.8000856, "title": "横綱力士碑" }, "geometry": { "type": "Point", "coordinates": [ 139.800085599999989, 35.6718509 ] } },
{ "type": "Feature", "properties": { "lat": 35.656345, "lon": 139.7913545, "title": "マジックスタジオ" }, "geometry": { "type": "Point", "coordinates": [ 139.791354500000011, 35.656345 ] } },
{ "type": "Feature", "properties": { "lat": 35.6731289, "lon": 139.7974781, "title": "深川なごみの庭（江東区コミュニティガーデン）" }, "geometry": { "type": "Point", "coordinates": [ 139.7974781, 35.6731289 ] } },
{ "type": "Feature", "properties": { "lat": 35.656345, "lon": 139.7913545, "title": "キッザニアパーティ 個室" }, "geometry": { "type": "Point", "coordinates": [ 139.791354500000011, 35.656345 ] } },
{ "type": "Feature", "properties": { "lat": 35.6572481, "lon": 139.7968687, "title": "豊洲セントラルガーデン（江東区コミュニティガーデン）" }, "geometry": { "type": "Point", "coordinates": [ 139.7968687, 35.6572481 ] } },
{ "type": "Feature", "properties": { "lat": 35.6710845, "lon": 139.7955127, "title": "石島橋" }, "geometry": { "type": "Point", "coordinates": [ 139.795512699999989, 35.6710845 ] } },
{ "type": "Feature", "properties": { "lat": 35.6689005, "lon": 139.7962707, "title": "牡丹2、３丁目笑寿会（江東区コミュニティガーデン）" }, "geometry": { "type": "Point", "coordinates": [ 139.7962707, 35.6689005 ] } },
{ "type": "Feature", "properties": { "lat": 35.6825961, "lon": 139.7961528, "title": "清澄テラスガーデン倶楽部（コミュニティガーデン）" }, "geometry": { "type": "Point", "coordinates": [ 139.796152799999987, 35.6825961 ] } },
{ "type": "Feature", "properties": { "lat": 35.6803133, "lon": 139.7974956, "title": "松島" }, "geometry": { "type": "Point", "coordinates": [ 139.7974956, 35.6803133 ] } },
{ "type": "Feature", "properties": { "lat": 35.6715938, "lon": 139.7941064, "title": "黒船橋" }, "geometry": { "type": "Point", "coordinates": [ 139.7941064, 35.6715938 ] } },
{ "type": "Feature", "properties": { "lat": 35.6872658, "lon": 139.7941901, "title": "街角の極楽鳥花（ストレリチア）" }, "geometry": { "type": "Point", "coordinates": [ 139.7941901, 35.6872658 ] } },
{ "type": "Feature", "properties": { "lat": 35.6862926, "lon": 139.7959193, "title": "八名川花の会（江東区コミュニティガーデン）" }, "geometry": { "type": "Point", "coordinates": [ 139.7959193, 35.6862926 ] } },
{ "type": "Feature", "properties": { "lat": 35.6802455, "lon": 139.7970889, "title": "傘亭" }, "geometry": { "type": "Point", "coordinates": [ 139.7970889, 35.6802455 ] } },
{ "type": "Feature", "properties": { "lat": 35.6798664, "lon": 139.7920136, "title": "油堀跡" }, "geometry": { "type": "Point", "coordinates": [ 139.7920136, 35.6798664 ] } },
{ "type": "Feature", "properties": { "lat": 35.6810462, "lon": 139.7981806, "title": "多層塔" }, "geometry": { "type": "Point", "coordinates": [ 139.7981806, 35.6810462 ] } },
{ "type": "Feature", "properties": { "lat": 35.6808782, "lon": 139.7974289, "title": "佐渡赤玉石" }, "geometry": { "type": "Point", "coordinates": [ 139.7974289, 35.6808782 ] } },
{ "type": "Feature", "properties": { "lat": 35.6809021, "lon": 139.7972649, "title": "清澄庭園" }, "geometry": { "type": "Point", "coordinates": [ 139.797264899999988, 35.6809021 ] } },
{ "type": "Feature", "properties": { "lat": 35.6803011, "lon": 139.7956774, "title": "清澄公園" }, "geometry": { "type": "Point", "coordinates": [ 139.795677399999988, 35.6803011 ] } },
{ "type": "Feature", "properties": { "lat": 35.6862434, "lon": 139.7997157, "title": "森の子575(江東区コミュニティガーデン)" }, "geometry": { "type": "Point", "coordinates": [ 139.7997157, 35.6862434 ] } },
{ "type": "Feature", "properties": { "lat": 35.6272832, "lon": 139.7788636, "title": "お台場ＳＫＹツーリストインフォメーション/スカイダック台場 | 水陸両用バスツアー" }, "geometry": { "type": "Point", "coordinates": [ 139.7788636, 35.6272832 ] } },
{ "type": "Feature", "properties": { "lat": 35.624451, "lon": 139.7754917, "title": "実物大ユニコーンガンダム立像" }, "geometry": { "type": "Point", "coordinates": [ 139.7754917, 35.624451 ] } },
{ "type": "Feature", "properties": { "lat": 35.6267458, "lon": 139.7803668, "title": "バクのオブジェ" }, "geometry": { "type": "Point", "coordinates": [ 139.7803668, 35.6267458 ] } },
{ "type": "Feature", "properties": { "lat": 35.6268349, "lon": 139.780792, "title": "夢の広場" }, "geometry": { "type": "Point", "coordinates": [ 139.780792, 35.6268349 ] } },
{ "type": "Feature", "properties": { "lat": 35.6258154, "lon": 139.7792663, "title": "お台場ビッグトップ" }, "geometry": { "type": "Point", "coordinates": [ 139.779266299999989, 35.6258154 ] } },
{ "type": "Feature", "properties": { "lat": 35.6254983, "lon": 139.7778514, "title": "紫陽花の小路" }, "geometry": { "type": "Point", "coordinates": [ 139.7778514, 35.6254983 ] } },
{ "type": "Feature", "properties": { "lat": 35.6234282, "lon": 139.7748435, "title": "セントラル広場" }, "geometry": { "type": "Point", "coordinates": [ 139.7748435, 35.6234282 ] } },
{ "type": "Feature", "properties": { "lat": 35.6274911, "lon": 139.7822121, "title": "シンボルプロムナード公園" }, "geometry": { "type": "Point", "coordinates": [ 139.78221210000001, 35.6274911 ] } },
{ "type": "Feature", "properties": { "lat": 35.6319472, "lon": 139.7813949, "title": "のぞみ橋" }, "geometry": { "type": "Point", "coordinates": [ 139.7813949, 35.6319472 ] } },
{ "type": "Feature", "properties": { "lat": 35.625004, "lon": 139.7827147, "title": "水の広場公園（西側地区）" }, "geometry": { "type": "Point", "coordinates": [ 139.782714700000014, 35.625004 ] } },
{ "type": "Feature", "properties": { "lat": 35.6259173, "lon": 139.7785881, "title": "いきものの谷" }, "geometry": { "type": "Point", "coordinates": [ 139.7785881, 35.6259173 ] } },
{ "type": "Feature", "properties": { "lat": 35.6308444, "lon": 139.7854833, "title": "東京都水の科学館" }, "geometry": { "type": "Point", "coordinates": [ 139.78548330000001, 35.6308444 ] } },
{ "type": "Feature", "properties": { "lat": 35.6232913, "lon": 139.7753198, "title": "桜の回廊" }, "geometry": { "type": "Point", "coordinates": [ 139.7753198, 35.6232913 ] } },
{ "type": "Feature", "properties": { "lat": 35.6241609, "lon": 139.7739598, "title": "「自由の炎 “LA FLAMME DE LA LIBERTE”」マルク・クチュリエ" }, "geometry": { "type": "Point", "coordinates": [ 139.7739598, 35.6241609 ] } },
{ "type": "Feature", "properties": { "lat": 35.6254768, "lon": 139.7761383, "title": "ガンダムベース 東京" }, "geometry": { "type": "Point", "coordinates": [ 139.776138300000014, 35.6254768 ] } },
{ "type": "Feature", "properties": { "lat": 35.6174613, "lon": 139.7804881, "title": "テレコムセンター 展望室" }, "geometry": { "type": "Point", "coordinates": [ 139.780488100000014, 35.6174613 ] } },
{ "type": "Feature", "properties": { "lat": 35.6180933, "lon": 139.7792012, "title": "滝の広場" }, "geometry": { "type": "Point", "coordinates": [ 139.779201199999989, 35.6180933 ] } },
{ "type": "Feature", "properties": { "lat": 35.6193359, "lon": 139.7763995, "title": "日本科学未来館" }, "geometry": { "type": "Point", "coordinates": [ 139.7763995, 35.6193359 ] } },
{ "type": "Feature", "properties": { "lat": 35.6187145, "lon": 139.7739592, "title": "青海北ふ頭公園" }, "geometry": { "type": "Point", "coordinates": [ 139.7739592, 35.6187145 ] } },
{ "type": "Feature", "properties": { "lat": 35.61607, "lon": 139.7756369, "title": "青海南ふ頭公園" }, "geometry": { "type": "Point", "coordinates": [ 139.7756369, 35.61607 ] } },
{ "type": "Feature", "properties": { "lat": 35.6254768, "lon": 139.7761383, "title": "ガンダムベース 東京" }, "geometry": { "type": "Point", "coordinates": [ 139.776138300000014, 35.6254768 ] } },
{ "type": "Feature", "properties": { "lat": 35.6324747, "lon": 139.7829215, "title": "有明北緑道公園" }, "geometry": { "type": "Point", "coordinates": [ 139.782921499999986, 35.6324747 ] } },
{ "type": "Feature", "properties": { "lat": 35.6176193, "lon": 139.7785674, "title": "東京臨海部広報展示室 TOKYO ミナトリエ" }, "geometry": { "type": "Point", "coordinates": [ 139.778567399999986, 35.6176193 ] } },
{ "type": "Feature", "properties": { "lat": 35.6272873, "lon": 139.7859087, "title": "あけみ橋" }, "geometry": { "type": "Point", "coordinates": [ 139.7859087, 35.6272873 ] } },
{ "type": "Feature", "properties": { "lat": 35.6334065, "lon": 139.7842541, "title": "東京都虹の下水道館" }, "geometry": { "type": "Point", "coordinates": [ 139.7842541, 35.6334065 ] } },
{ "type": "Feature", "properties": { "lat": 35.6303751, "lon": 139.7874441, "title": "つどい橋" }, "geometry": { "type": "Point", "coordinates": [ 139.787444099999988, 35.6303751 ] } },
{ "type": "Feature", "properties": { "lat": 35.6207856, "lon": 139.780251, "title": "青海中央ふ頭公園" }, "geometry": { "type": "Point", "coordinates": [ 139.780251, 35.6207856 ] } },
{ "type": "Feature", "properties": { "lat": 35.630858, "lon": 139.7906009, "title": "シャワーツリー35" }, "geometry": { "type": "Point", "coordinates": [ 139.790600899999987, 35.630858 ] } },
{ "type": "Feature", "properties": { "lat": 35.6293435, "lon": 139.7877461, "title": "東京ドリームパーク" }, "geometry": { "type": "Point", "coordinates": [ 139.7877461, 35.6293435 ] } },
{ "type": "Feature", "properties": { "lat": 35.6335757, "lon": 139.7933784, "title": "花富士" }, "geometry": { "type": "Point", "coordinates": [ 139.7933784, 35.6335757 ] } },
{ "type": "Feature", "properties": { "lat": 35.6272008, "lon": 139.7943775, "title": "有明西ふ頭公園" }, "geometry": { "type": "Point", "coordinates": [ 139.7943775, 35.6272008 ] } },
{ "type": "Feature", "properties": { "lat": 35.6323519, "lon": 139.7910935, "title": "有明聖火台（東京2020オリンピック・パラリンピック競技大会競技期間用聖火台）" }, "geometry": { "type": "Point", "coordinates": [ 139.791093499999988, 35.6323519 ] } },
{ "type": "Feature", "properties": { "lat": 35.6301384, "lon": 139.7831593, "title": "有明橋" }, "geometry": { "type": "Point", "coordinates": [ 139.7831593, 35.6301384 ] } },
{ "type": "Feature", "properties": { "lat": 35.64047, "lon": 139.78805, "title": "東京2020オリンピック競技大会 開催種目説明板" }, "geometry": { "type": "Point", "coordinates": [ 139.78805, 35.64047 ] } },
{ "type": "Feature", "properties": { "lat": 35.6349494, "lon": 139.7958032, "title": "東京臨海広域防災公園" }, "geometry": { "type": "Point", "coordinates": [ 139.7958032, 35.6349494 ] } },
{ "type": "Feature", "properties": { "lat": 35.6331129, "lon": 139.7837179, "title": "有明スポーツセンター(A棟)" }, "geometry": { "type": "Point", "coordinates": [ 139.7837179, 35.6331129 ] } },
{ "type": "Feature", "properties": { "lat": 35.6295651, "lon": 139.7924889, "title": "有明客船ターミナル" }, "geometry": { "type": "Point", "coordinates": [ 139.7924889, 35.6295651 ] } },
{ "type": "Feature", "properties": { "lat": 35.6191772, "lon": 139.8344957, "title": "若洲海浜公園" }, "geometry": { "type": "Point", "coordinates": [ 139.8344957, 35.6191772 ] } },
{ "type": "Feature", "properties": { "lat": 35.6127338, "lon": 139.8355847, "title": "岩のオブジェ" }, "geometry": { "type": "Point", "coordinates": [ 139.8355847, 35.6127338 ] } },
{ "type": "Feature", "properties": { "lat": 35.6213489, "lon": 139.8339763, "title": "江東区立若洲公園" }, "geometry": { "type": "Point", "coordinates": [ 139.833976299999989, 35.6213489 ] } },
{ "type": "Feature", "properties": { "lat": 35.6161078, "lon": 139.8324274, "title": "若洲海浜公園 海釣り施設" }, "geometry": { "type": "Point", "coordinates": [ 139.8324274, 35.6161078 ] } },
{ "type": "Feature", "properties": { "lat": 35.6155087, "lon": 139.8368121, "title": "ゲートブ リッジ若洲昇降タワー案内図" }, "geometry": { "type": "Point", "coordinates": [ 139.8368121, 35.6155087 ] } },
{ "type": "Feature", "properties": { "lat": 35.6149252, "lon": 139.8340508, "title": "若洲海浜公園サイクリングコース" }, "geometry": { "type": "Point", "coordinates": [ 139.8340508, 35.6149252 ] } },
{ "type": "Feature", "properties": { "lat": 35.647501, "lon": 139.8303145, "title": "夢の島緑道公園" }, "geometry": { "type": "Point", "coordinates": [ 139.830314499999986, 35.647501 ] } },
{ "type": "Feature", "properties": { "lat": 35.6511238, "lon": 139.82782, "title": "夢の島公園" }, "geometry": { "type": "Point", "coordinates": [ 139.82782, 35.6511238 ] } },
{ "type": "Feature", "properties": { "lat": 35.6512561, "lon": 139.82938, "title": "夢の島熱帯植物館" }, "geometry": { "type": "Point", "coordinates": [ 139.82938, 35.6512561 ] } },
{ "type": "Feature", "properties": { "lat": 35.6538205, "lon": 139.8244964, "title": "なぎさ橋" }, "geometry": { "type": "Point", "coordinates": [ 139.824496399999987, 35.6538205 ] } },
{ "type": "Feature", "properties": { "lat": 35.6510631, "lon": 139.8263184, "title": "第五福竜丸展示館" }, "geometry": { "type": "Point", "coordinates": [ 139.8263184, 35.6510631 ] } },
{ "type": "Feature", "properties": { "lat": 35.642127, "lon": 139.823514, "title": "新木場公園" }, "geometry": { "type": "Point", "coordinates": [ 139.823514, 35.642127 ] } },
{ "type": "Feature", "properties": { "lat": 35.6521397, "lon": 139.8355703, "title": "新砂水門" }, "geometry": { "type": "Point", "coordinates": [ 139.8355703, 35.6521397 ] } },
{ "type": "Feature", "properties": { "lat": 35.6551267, "lon": 139.8243385, "title": "夢の島大橋" }, "geometry": { "type": "Point", "coordinates": [ 139.82433850000001, 35.6551267 ] } },
{ "type": "Feature", "properties": { "lat": 35.6552989, "lon": 139.8147362, "title": "潮見さざなみ公園" }, "geometry": { "type": "Point", "coordinates": [ 139.8147362, 35.6552989 ] } },
{ "type": "Feature", "properties": { "lat": 35.6448, "lon": 139.8104959, "title": "辰巳富士（辰巳の森緑道公園）" }, "geometry": { "type": "Point", "coordinates": [ 139.8104959, 35.6448 ] } },
{ "type": "Feature", "properties": { "lat": 35.6541743, "lon": 139.8112812, "title": "七枝橋（ななえだばし）" }, "geometry": { "type": "Point", "coordinates": [ 139.8112812, 35.6541743 ] } },
{ "type": "Feature", "properties": { "lat": 35.6493154, "lon": 139.8131004, "title": "辰巳の森海浜公園" }, "geometry": { "type": "Point", "coordinates": [ 139.8131004, 35.6493154 ] } },
{ "type": "Feature", "properties": { "lat": 35.66215, "lon": 139.811071, "title": "しおかぜ橋塩浜公園" }, "geometry": { "type": "Point", "coordinates": [ 139.811071, 35.66215 ] } },
{ "type": "Feature", "properties": { "lat": 35.6607254, "lon": 139.8096282, "title": "しおかぜ橋" }, "geometry": { "type": "Point", "coordinates": [ 139.8096282, 35.6607254 ] } },
{ "type": "Feature", "properties": { "lat": 35.6257838, "lon": 139.7795198, "title": "八重桜の回廊" }, "geometry": { "type": "Point", "coordinates": [ 139.7795198, 35.6257838 ] } },
{ "type": "Feature", "properties": { "lat": 35.6150131, "lon": 139.7763813, "title": "展望広場" }, "geometry": { "type": "Point", "coordinates": [ 139.7763813, 35.6150131 ] } },
{ "type": "Feature", "properties": { "lat": 35.6081652, "lon": 139.7913997, "title": "暁ふ頭公園" }, "geometry": { "type": "Point", "coordinates": [ 139.7913997, 35.6081652 ] } },
{ "type": "Feature", "properties": { "lat": 35.6244291, "lon": 139.7754991, "title": "かつてのガンダムたち" }, "geometry": { "type": "Point", "coordinates": [ 139.7754991, 35.6244291 ] } },
{ "type": "Feature", "properties": { "lat": 35.6717672, "lon": 139.8338638, "title": "赤レンガLガーデン（江東区コミュニティガーデン）" }, "geometry": { "type": "Point", "coordinates": [ 139.833863799999989, 35.6717672 ] } },
{ "type": "Feature", "properties": { "lat": 35.6717809, "lon": 139.799519, "title": "富岡八幡宮(深川八幡)" }, "geometry": { "type": "Point", "coordinates": [ 139.799519, 35.6717809 ] } },
{ "type": "Feature", "properties": { "lat": 35.6718998, "lon": 139.8006787, "title": "八幡橋（歴史碑）" }, "geometry": { "type": "Point", "coordinates": [ 139.8006787, 35.6718998 ] } },
{ "type": "Feature", "properties": { "lat": 35.6692924, "lon": 139.8007666, "title": "東富橋" }, "geometry": { "type": "Point", "coordinates": [ 139.8007666, 35.6692924 ] } },
{ "type": "Feature", "properties": { "lat": 35.6706577, "lon": 139.7950082, "title": "古石場川親水公園" }, "geometry": { "type": "Point", "coordinates": [ 139.795008200000012, 35.6706577 ] } },
{ "type": "Feature", "properties": { "lat": 35.6743563, "lon": 139.8213459, "title": "南砂緑道公園" }, "geometry": { "type": "Point", "coordinates": [ 139.821345900000011, 35.6743563 ] } },
{ "type": "Feature", "properties": { "lat": 35.6734499, "lon": 139.8251963, "title": "松島橋緑化花公園（江東区コミュニティガーデン）" }, "geometry": { "type": "Point", "coordinates": [ 139.825196299999988, 35.6734499 ] } },
{ "type": "Feature", "properties": { "lat": 35.6734913, "lon": 139.8264232, "title": "憩う⭐︎花海どうの会（江東区コミュニティガーデン）" }, "geometry": { "type": "Point", "coordinates": [ 139.8264232, 35.6734913 ] } },
{ "type": "Feature", "properties": { "lat": 35.6705878, "lon": 139.823273, "title": "南砂二丁目南公園" }, "geometry": { "type": "Point", "coordinates": [ 139.823273, 35.6705878 ] } },
{ "type": "Feature", "properties": { "lat": 35.6761516, "lon": 139.8243401, "title": "キリン公フレンズ（江東区コミュニティガーデン）" }, "geometry": { "type": "Point", "coordinates": [ 139.8243401, 35.6761516 ] } },
{ "type": "Feature", "properties": { "lat": 35.6752477, "lon": 139.8257773, "title": "南砂線路公園" }, "geometry": { "type": "Point", "coordinates": [ 139.8257773, 35.6752477 ] } },
{ "type": "Feature", "properties": { "lat": 35.678895, "lon": 139.8217911, "title": "すこやか花壇クラブ（江東区コミュニティガーデン）" }, "geometry": { "type": "Point", "coordinates": [ 139.821791100000013, 35.678895 ] } },
{ "type": "Feature", "properties": { "lat": 35.6754375, "lon": 139.8216107, "title": "砂村新田六地蔵尊" }, "geometry": { "type": "Point", "coordinates": [ 139.8216107, 35.6754375 ] } },
{ "type": "Feature", "properties": { "lat": 35.6750331, "lon": 139.8293487, "title": "江東ハーブ会（江東区コミュニティガーデン）" }, "geometry": { "type": "Point", "coordinates": [ 139.8293487, 35.6750331 ] } },
{ "type": "Feature", "properties": { "lat": 35.6735629, "lon": 139.8356758, "title": "仙台堀川公園（砂町運河跡）" }, "geometry": { "type": "Point", "coordinates": [ 139.8356758, 35.6735629 ] } },
{ "type": "Feature", "properties": { "lat": 35.6699893, "lon": 139.8327994, "title": "南砂三丁目公園" }, "geometry": { "type": "Point", "coordinates": [ 139.8327994, 35.6699893 ] } },
{ "type": "Feature", "properties": { "lat": 35.6719369, "lon": 139.8095096, "title": "大横川散歩道 河津桜" }, "geometry": { "type": "Point", "coordinates": [ 139.809509600000013, 35.6719369 ] } },
{ "type": "Feature", "properties": { "lat": 35.6767467, "lon": 139.8200691, "title": "横十間川親水公園" }, "geometry": { "type": "Point", "coordinates": [ 139.820069100000012, 35.6767467 ] } },
{ "type": "Feature", "properties": { "lat": 35.6761053, "lon": 139.8283702, "title": "境川公園" }, "geometry": { "type": "Point", "coordinates": [ 139.8283702, 35.6761053 ] } },
{ "type": "Feature", "properties": { "lat": 35.674938, "lon": 139.832502, "title": "金森公園" }, "geometry": { "type": "Point", "coordinates": [ 139.832502, 35.674938 ] } },
{ "type": "Feature", "properties": { "lat": 35.6784318, "lon": 139.8202456, "title": "千砂橋" }, "geometry": { "type": "Point", "coordinates": [ 139.8202456, 35.6784318 ] } },
{ "type": "Feature", "properties": { "lat": 35.6803016, "lon": 139.8204632, "title": "海砂橋" }, "geometry": { "type": "Point", "coordinates": [ 139.8204632, 35.6803016 ] } },
{ "type": "Feature", "properties": { "lat": 35.6795044, "lon": 139.8258141, "title": "北砂二丁目公園" }, "geometry": { "type": "Point", "coordinates": [ 139.8258141, 35.6795044 ] } },
{ "type": "Feature", "properties": { "lat": 35.6650985, "lon": 139.811255, "title": "南開橋" }, "geometry": { "type": "Point", "coordinates": [ 139.811255, 35.6650985 ] } },
{ "type": "Feature", "properties": { "lat": 35.6735716, "lon": 139.8327562, "title": "砂町橋公園" }, "geometry": { "type": "Point", "coordinates": [ 139.8327562, 35.6735716 ] } },
{ "type": "Feature", "properties": { "lat": 35.6667675, "lon": 139.8308008, "title": "新砂のぞみ公園" }, "geometry": { "type": "Point", "coordinates": [ 139.8308008, 35.6667675 ] } },
{ "type": "Feature", "properties": { "lat": 35.6797307, "lon": 139.8312915, "title": "砂町銀座商店街" }, "geometry": { "type": "Point", "coordinates": [ 139.8312915, 35.6797307 ] } },
{ "type": "Feature", "properties": { "lat": 35.6802223, "lon": 139.8320848, "title": "北砂公園" }, "geometry": { "type": "Point", "coordinates": [ 139.8320848, 35.6802223 ] } },
{ "type": "Feature", "properties": { "lat": 35.6687423, "lon": 139.8112519, "title": "洲崎川緑道公園" }, "geometry": { "type": "Point", "coordinates": [ 139.8112519, 35.6687423 ] } },
{ "type": "Feature", "properties": { "lat": 35.6744673, "lon": 139.8195441, "title": "横十間川 親水公園" }, "geometry": { "type": "Point", "coordinates": [ 139.8195441, 35.6744673 ] } },
{ "type": "Feature", "properties": { "lat": 35.6783821, "lon": 139.8352008, "title": "北砂七丁目公園" }, "geometry": { "type": "Point", "coordinates": [ 139.8352008, 35.6783821 ] } },
{ "type": "Feature", "properties": { "lat": 35.6782798, "lon": 139.8264913, "title": "妙久寺" }, "geometry": { "type": "Point", "coordinates": [ 139.826491299999986, 35.6782798 ] } },
{ "type": "Feature", "properties": { "lat": 35.682989, "lon": 139.8205784, "title": "三島橋公園" }, "geometry": { "type": "Point", "coordinates": [ 139.820578399999988, 35.682989 ] } },
{ "type": "Feature", "properties": { "lat": 35.6791496, "lon": 139.816889, "title": "川南公園" }, "geometry": { "type": "Point", "coordinates": [ 139.816889, 35.6791496 ] } },
{ "type": "Feature", "properties": { "lat": 35.6698905, "lon": 139.8158768, "title": "東陽公園" }, "geometry": { "type": "Point", "coordinates": [ 139.815876800000012, 35.6698905 ] } },
{ "type": "Feature", "properties": { "lat": 35.6742124, "lon": 139.8395522, "title": "砂町公園" }, "geometry": { "type": "Point", "coordinates": [ 139.839552200000014, 35.6742124 ] } },
{ "type": "Feature", "properties": { "lat": 35.6663, "lon": 139.8376637, "title": "新砂めぐみ公園" }, "geometry": { "type": "Point", "coordinates": [ 139.8376637, 35.6663 ] } },
{ "type": "Feature", "properties": { "lat": 35.678633, "lon": 139.8452654, "title": "荒川·砂町水辺公園" }, "geometry": { "type": "Point", "coordinates": [ 139.845265399999988, 35.678633 ] } },
{ "type": "Feature", "properties": { "lat": 35.6728042, "lon": 139.8407175, "title": "東砂七丁目フローラーガーデン（江東区コミュニティガーデン）" }, "geometry": { "type": "Point", "coordinates": [ 139.840717500000011, 35.6728042 ] } },
{ "type": "Feature", "properties": { "lat": 35.6709993, "lon": 139.8383462, "title": "アクーユ７丁目ガーデン（江東区コミュニティガーデン）" }, "geometry": { "type": "Point", "coordinates": [ 139.838346199999989, 35.6709993 ] } },
{ "type": "Feature", "properties": { "lat": 35.6785638, "lon": 139.8383469, "title": "江東区立東砂幼稚園（江東区コミュニティガーデン）" }, "geometry": { "type": "Point", "coordinates": [ 139.8383469, 35.6785638 ] } },
{ "type": "Feature", "properties": { "lat": 35.6814067, "lon": 139.8385384, "title": "北砂中央永寿会（江東区コミュニティガーデン）" }, "geometry": { "type": "Point", "coordinates": [ 139.8385384, 35.6814067 ] } },
{ "type": "Feature", "properties": { "lat": 35.6791467, "lon": 139.8262679, "title": "北砂二丁目町会緑の里親会（江東区コミュニティガーデン）" }, "geometry": { "type": "Point", "coordinates": [ 139.8262679, 35.6791467 ] } },
{ "type": "Feature", "properties": { "lat": 35.6787508, "lon": 139.8388229, "title": "城東公園" }, "geometry": { "type": "Point", "coordinates": [ 139.8388229, 35.6787508 ] } },
{ "type": "Feature", "properties": { "lat": 35.6743349, "lon": 139.8412027, "title": "東砂六丁目公園" }, "geometry": { "type": "Point", "coordinates": [ 139.8412027, 35.6743349 ] } },
{ "type": "Feature", "properties": { "lat": 35.6814158, "lon": 139.838345, "title": "亀高公園" }, "geometry": { "type": "Point", "coordinates": [ 139.838345, 35.6814158 ] } },
{ "type": "Feature", "properties": { "lat": 35.6674603, "lon": 139.8325185, "title": "新砂あゆみ公園" }, "geometry": { "type": "Point", "coordinates": [ 139.8325185, 35.6674603 ] } },
{ "type": "Feature", "properties": { "lat": 35.6765179, "lon": 139.8180976, "title": "自然豊かな公園を作る会（江東区コミュニティガーデン）" }, "geometry": { "type": "Point", "coordinates": [ 139.818097599999987, 35.6765179 ] } },
{ "type": "Feature", "properties": { "lat": 35.6688107, "lon": 139.8326382, "title": "メトロスナチカ" }, "geometry": { "type": "Point", "coordinates": [ 139.8326382, 35.6688107 ] } },
{ "type": "Feature", "properties": { "lat": 35.6701912, "lon": 139.8173163, "title": "Nature Green（江東区コミュニティガーデン）" }, "geometry": { "type": "Point", "coordinates": [ 139.817316299999987, 35.6701912 ] } },
{ "type": "Feature", "properties": { "lat": 35.6789752, "lon": 139.8166615, "title": "^_^川南いろどりガーデン（江東区コミュニティガーデン）" }, "geometry": { "type": "Point", "coordinates": [ 139.8166615, 35.6789752 ] } },
{ "type": "Feature", "properties": { "lat": 35.6722498, "lon": 139.8166169, "title": "しだれ梅 東京の民生委員制度創設百周年記念" }, "geometry": { "type": "Point", "coordinates": [ 139.816616900000014, 35.6722498 ] } },
{ "type": "Feature", "properties": { "lat": 35.676774, "lon": 139.8076561, "title": "木場公園" }, "geometry": { "type": "Point", "coordinates": [ 139.8076561, 35.676774 ] } },
{ "type": "Feature", "properties": { "lat": 35.6657056, "lon": 139.8139468, "title": "江東区南陽幼稚園（江東区コミュニティガーデン）" }, "geometry": { "type": "Point", "coordinates": [ 139.8139468, 35.6657056 ] } },
{ "type": "Feature", "properties": { "lat": 35.674115, "lon": 139.8056164, "title": "木場親水公園" }, "geometry": { "type": "Point", "coordinates": [ 139.8056164, 35.674115 ] } },
{ "type": "Feature", "properties": { "lat": 35.668448, "lon": 139.807736, "title": "木場 洲﨑神社" }, "geometry": { "type": "Point", "coordinates": [ 139.807736, 35.668448 ] } },
{ "type": "Feature", "properties": { "lat": 35.6660036, "lon": 139.8125884, "title": "東陽一丁目第二公園" }, "geometry": { "type": "Point", "coordinates": [ 139.81258840000001, 35.6660036 ] } },
{ "type": "Feature", "properties": { "lat": 35.6671327, "lon": 139.8085253, "title": "東陽一丁目第一公園" }, "geometry": { "type": "Point", "coordinates": [ 139.808525300000014, 35.6671327 ] } },
{ "type": "Feature", "properties": { "lat": 35.6738486, "lon": 139.8081346, "title": "木場ミドリアム" }, "geometry": { "type": "Point", "coordinates": [ 139.808134599999988, 35.6738486 ] } },
{ "type": "Feature", "properties": { "lat": 35.6746225, "lon": 139.811348, "title": "豊住公園" }, "geometry": { "type": "Point", "coordinates": [ 139.811348, 35.6746225 ] } },
{ "type": "Feature", "properties": { "lat": 35.6703756, "lon": 139.8042923, "title": "木場二丁目町会・春和会（江東区コミュニティガーデン）" }, "geometry": { "type": "Point", "coordinates": [ 139.804292299999986, 35.6703756 ] } },
{ "type": "Feature", "properties": { "lat": 35.6748943, "lon": 139.8057746, "title": "親水ガーデン（江東区コミュニティガーデン）" }, "geometry": { "type": "Point", "coordinates": [ 139.8057746, 35.6748943 ] } },
{ "type": "Feature", "properties": { "lat": 35.668515, "lon": 139.8073433, "title": "名人竿忠の碑" }, "geometry": { "type": "Point", "coordinates": [ 139.807343300000014, 35.668515 ] } },
{ "type": "Feature", "properties": { "lat": 35.6745084, "lon": 139.8064618, "title": "タムスわんぱく保育園木場（江東区コミュニティガーデン）" }, "geometry": { "type": "Point", "coordinates": [ 139.8064618, 35.6745084 ] } },
{ "type": "Feature", "properties": { "lat": 35.6673055, "lon": 139.802495, "title": "ギャザリア·ビオガーデン フジクラ木場千年の森" }, "geometry": { "type": "Point", "coordinates": [ 139.802495, 35.6673055 ] } },
{ "type": "Feature", "properties": { "lat": 35.6703751, "lon": 139.8042947, "title": "木場二丁目公園" }, "geometry": { "type": "Point", "coordinates": [ 139.804294700000014, 35.6703751 ] } },
{ "type": "Feature", "properties": { "lat": 35.6734451, "lon": 139.8011383, "title": "冬木武田堀ガーデン（江東区コミュニティガーデン）" }, "geometry": { "type": "Point", "coordinates": [ 139.8011383, 35.6734451 ] } },
{ "type": "Feature", "properties": { "lat": 35.664702, "lon": 139.8114571, "title": "深川第八中学校（八中丸地域クルー）（江東区コミュニティガーデン）" }, "geometry": { "type": "Point", "coordinates": [ 139.811457100000013, 35.664702 ] } },
{ "type": "Feature", "properties": { "lat": 35.6727866, "lon": 139.7973518, "title": "深川公園(不動堂側)" }, "geometry": { "type": "Point", "coordinates": [ 139.7973518, 35.6727866 ] } },
{ "type": "Feature", "properties": { "lat": 35.677157, "lon": 139.8047092, "title": "福富川公園" }, "geometry": { "type": "Point", "coordinates": [ 139.8047092, 35.677157 ] } },
{ "type": "Feature", "properties": { "lat": 35.6749227, "lon": 139.8096135, "title": "南の冒険広場" }, "geometry": { "type": "Point", "coordinates": [ 139.809613500000012, 35.6749227 ] } },
{ "type": "Feature", "properties": { "lat": 35.6684987, "lon": 139.8073104, "title": "波除碑" }, "geometry": { "type": "Point", "coordinates": [ 139.8073104, 35.6684987 ] } },
{ "type": "Feature", "properties": { "lat": 35.6666809, "lon": 139.8075982, "title": "平久公園" }, "geometry": { "type": "Point", "coordinates": [ 139.8075982, 35.6666809 ] } },
{ "type": "Feature", "properties": { "lat": 35.6777035, "lon": 139.8099777, "title": "平野四丁目公園" }, "geometry": { "type": "Point", "coordinates": [ 139.8099777, 35.6777035 ] } },
{ "type": "Feature", "properties": { "lat": 35.6728566, "lon": 139.8029256, "title": "鶴歩橋" }, "geometry": { "type": "Point", "coordinates": [ 139.8029256, 35.6728566 ] } },
{ "type": "Feature", "properties": { "lat": 35.6695517, "lon": 139.8017721, "title": "汐見橋" }, "geometry": { "type": "Point", "coordinates": [ 139.8017721, 35.6695517 ] } },
{ "type": "Feature", "properties": { "lat": 35.6682296, "lon": 139.8079031, "title": "木場六丁目児童遊園" }, "geometry": { "type": "Point", "coordinates": [ 139.8079031, 35.6682296 ] } },
{ "type": "Feature", "properties": { "lat": 35.6651995, "lon": 139.8023779, "title": "石浜橋" }, "geometry": { "type": "Point", "coordinates": [ 139.80237790000001, 35.6651995 ] } },
{ "type": "Feature", "properties": { "lat": 35.668346, "lon": 139.801773, "title": "平久橋" }, "geometry": { "type": "Point", "coordinates": [ 139.801773, 35.668346 ] } },
{ "type": "Feature", "properties": { "lat": 35.6648356, "lon": 139.8052338, "title": "汐浜橋" }, "geometry": { "type": "Point", "coordinates": [ 139.8052338, 35.6648356 ] } },
{ "type": "Feature", "properties": { "lat": 35.6780866, "lon": 139.7978915, "title": "海辺橋" }, "geometry": { "type": "Point", "coordinates": [ 139.7978915, 35.6780866 ] } },
{ "type": "Feature", "properties": { "lat": 35.6760612, "lon": 139.8098961, "title": "崎川橋" }, "geometry": { "type": "Point", "coordinates": [ 139.8098961, 35.6760612 ] } },
{ "type": "Feature", "properties": { "lat": 35.6757796, "lon": 139.8028948, "title": "亀久橋" }, "geometry": { "type": "Point", "coordinates": [ 139.8028948, 35.6757796 ] } },
{ "type": "Feature", "properties": { "lat": 35.6781678, "lon": 139.8106217, "title": "福壽橋" }, "geometry": { "type": "Point", "coordinates": [ 139.810621700000013, 35.6781678 ] } },
{ "type": "Feature", "properties": { "lat": 35.6696268, "lon": 139.7951302, "title": "牡丹町公園" }, "geometry": { "type": "Point", "coordinates": [ 139.795130199999988, 35.6696268 ] } },
{ "type": "Feature", "properties": { "lat": 35.6782355, "lon": 139.7999721, "title": "ワイルドシルクミュージアム" }, "geometry": { "type": "Point", "coordinates": [ 139.7999721, 35.6782355 ] } },
{ "type": "Feature", "properties": { "lat": 35.6647821, "lon": 139.8148584, "title": "塩浜二丁目公園" }, "geometry": { "type": "Point", "coordinates": [ 139.8148584, 35.6647821 ] } },
{ "type": "Feature", "properties": { "lat": 35.6679577, "lon": 139.7985164, "title": "小津橋" }, "geometry": { "type": "Point", "coordinates": [ 139.798516400000011, 35.6679577 ] } },
{ "type": "Feature", "properties": { "lat": 35.6718423, "lon": 139.7925039, "title": "臨海公園" }, "geometry": { "type": "Point", "coordinates": [ 139.792503900000014, 35.6718423 ] } },
{ "type": "Feature", "properties": { "lat": 35.6675862, "lon": 139.8004155, "title": "琴平橋" }, "geometry": { "type": "Point", "coordinates": [ 139.800415500000014, 35.6675862 ] } },
{ "type": "Feature", "properties": { "lat": 35.6795188, "lon": 139.7922381, "title": "中の堀公園" }, "geometry": { "type": "Point", "coordinates": [ 139.7922381, 35.6795188 ] } },
{ "type": "Feature", "properties": { "lat": 35.6720807, "lon": 139.7979435, "title": "永代寺" }, "geometry": { "type": "Point", "coordinates": [ 139.7979435, 35.6720807 ] } },
{ "type": "Feature", "properties": { "lat": 35.6718799, "lon": 139.8006375, "title": "八幡橋(旧弾正橋)" }, "geometry": { "type": "Point", "coordinates": [ 139.8006375, 35.6718799 ] } },
{ "type": "Feature", "properties": { "lat": 35.6811859, "lon": 139.8005921, "title": "江東区深川江戸資料館" }, "geometry": { "type": "Point", "coordinates": [ 139.800592099999989, 35.6811859 ] } },
{ "type": "Feature", "properties": { "lat": 35.6727484, "lon": 139.7892371, "title": "越中島連絡橋" }, "geometry": { "type": "Point", "coordinates": [ 139.7892371, 35.6727484 ] } },
{ "type": "Feature", "properties": { "lat": 35.6602195, "lon": 139.8004303, "title": "コミュニティガーデン" }, "geometry": { "type": "Point", "coordinates": [ 139.800430299999988, 35.6602195 ] } },
{ "type": "Feature", "properties": { "lat": 35.6596785, "lon": 139.7999502, "title": "はまぞの花同好会" }, "geometry": { "type": "Point", "coordinates": [ 139.799950200000012, 35.6596785 ] } },
{ "type": "Feature", "properties": { "lat": 35.669059, "lon": 139.795737, "title": "雀橋" }, "geometry": { "type": "Point", "coordinates": [ 139.795737, 35.669059 ] } },
{ "type": "Feature", "properties": { "lat": 35.6679437, "lon": 139.7900664, "title": "明治丸海事ミュージアム" }, "geometry": { "type": "Point", "coordinates": [ 139.7900664, 35.6679437 ] } },
{ "type": "Feature", "properties": { "lat": 35.6673696, "lon": 139.7903157, "title": "明治丸" }, "geometry": { "type": "Point", "coordinates": [ 139.7903157, 35.6673696 ] } },
{ "type": "Feature", "properties": { "lat": 35.6591687, "lon": 139.7932966, "title": "IHIものづくり館アイミューズ" }, "geometry": { "type": "Point", "coordinates": [ 139.7932966, 35.6591687 ] } },
{ "type": "Feature", "properties": { "lat": 35.6675587, "lon": 139.7962698, "title": "調練橋公園" }, "geometry": { "type": "Point", "coordinates": [ 139.7962698, 35.6675587 ] } },
{ "type": "Feature", "properties": { "lat": 35.6267096, "lon": 139.7799935, "title": "「TOKYO」文字モニュメント" }, "geometry": { "type": "Point", "coordinates": [ 139.779993499999989, 35.6267096 ] } },
{ "type": "Feature", "properties": { "lat": 35.6381573, "lon": 139.7970313, "title": "角乗り橋" }, "geometry": { "type": "Point", "coordinates": [ 139.797031299999986, 35.6381573 ] } },
{ "type": "Feature", "properties": { "lat": 35.6504634, "lon": 139.7927032, "title": "豊洲六丁目第二公園" }, "geometry": { "type": "Point", "coordinates": [ 139.7927032, 35.6504634 ] } },
{ "type": "Feature", "properties": { "lat": 35.6506762, "lon": 139.7925456, "title": "豊洲おもてなしガーデン（江東区コミュニティガーデン）" }, "geometry": { "type": "Point", "coordinates": [ 139.792545600000011, 35.6506762 ] } },
{ "type": "Feature", "properties": { "lat": 35.6516312, "lon": 139.7921789, "title": "がすてなーに 屋上ひろば" }, "geometry": { "type": "Point", "coordinates": [ 139.79217890000001, 35.6516312 ] } },
{ "type": "Feature", "properties": { "lat": 35.6455684, "lon": 139.7833481, "title": "目利き横丁" }, "geometry": { "type": "Point", "coordinates": [ 139.783348100000012, 35.6455684 ] } },
{ "type": "Feature", "properties": { "lat": 35.6528337, "lon": 139.7928976, "title": "豊洲シーサイドガーデン（江東区コミュニティガーデン）" }, "geometry": { "type": "Point", "coordinates": [ 139.7928976, 35.6528337 ] } },
{ "type": "Feature", "properties": { "lat": 35.6407754, "lon": 139.777692, "title": "豊洲ぐるり公園" }, "geometry": { "type": "Point", "coordinates": [ 139.777692, 35.6407754 ] } },
{ "type": "Feature", "properties": { "lat": 35.649074, "lon": 139.7898213, "title": "チームラボプラネッツ TOKYO DMM" }, "geometry": { "type": "Point", "coordinates": [ 139.7898213, 35.649074 ] } },
{ "type": "Feature", "properties": { "lat": 35.6518383, "lon": 139.792461, "title": "がすてなーに ガスの科学館" }, "geometry": { "type": "Point", "coordinates": [ 139.792461, 35.6518383 ] } },
{ "type": "Feature", "properties": { "lat": 35.6548881, "lon": 139.7984586, "title": "とよ花の会（江東区コミュニティガーデン）" }, "geometry": { "type": "Point", "coordinates": [ 139.7984586, 35.6548881 ] } },
{ "type": "Feature", "properties": { "lat": 35.6563158, "lon": 139.7958937, "title": "メガバンクの看板" }, "geometry": { "type": "Point", "coordinates": [ 139.7958937, 35.6563158 ] } },
{ "type": "Feature", "properties": { "lat": 35.6546262, "lon": 139.7910137, "title": "東京石川島造船所の産業遺構" }, "geometry": { "type": "Point", "coordinates": [ 139.7910137, 35.6546262 ] } },
{ "type": "Feature", "properties": { "lat": 35.6577136, "lon": 139.796818, "title": "豊洲三丁目公園" }, "geometry": { "type": "Point", "coordinates": [ 139.796818, 35.6577136 ] } },
{ "type": "Feature", "properties": { "lat": 35.6546205, "lon": 139.7977757, "title": "さくらさくみらい豊洲保育園（江東区コミュニティガーデン）" }, "geometry": { "type": "Point", "coordinates": [ 139.797775699999988, 35.6546205 ] } },
{ "type": "Feature", "properties": { "lat": 35.6425691, "lon": 139.7776528, "title": "キラナガーデン豊洲" }, "geometry": { "type": "Point", "coordinates": [ 139.7776528, 35.6425691 ] } },
{ "type": "Feature", "properties": { "lat": 35.6539386, "lon": 139.7961521, "title": "ストリートピアノ シエル街角ピアノ" }, "geometry": { "type": "Point", "coordinates": [ 139.7961521, 35.6539386 ] } },
{ "type": "Feature", "properties": { "lat": 35.653032, "lon": 139.7956035, "title": "豊洲五丁目公園" }, "geometry": { "type": "Point", "coordinates": [ 139.7956035, 35.653032 ] } },
{ "type": "Feature", "properties": { "lat": 35.6541718, "lon": 139.7991602, "title": "豊洲四丁目公園" }, "geometry": { "type": "Point", "coordinates": [ 139.799160199999989, 35.6541718 ] } },
{ "type": "Feature", "properties": { "lat": 35.654587, "lon": 139.7977873, "title": "豊洲四丁目第二公園" }, "geometry": { "type": "Point", "coordinates": [ 139.79778730000001, 35.654587 ] } },
{ "type": "Feature", "properties": { "lat": 35.6463852, "lon": 139.8071463, "title": "辰巳桜橋" }, "geometry": { "type": "Point", "coordinates": [ 139.8071463, 35.6463852 ] } },
{ "type": "Feature", "properties": { "lat": 35.6460179, "lon": 139.8137756, "title": "十二支広場" }, "geometry": { "type": "Point", "coordinates": [ 139.813775600000014, 35.6460179 ] } },
{ "type": "Feature", "properties": { "lat": 35.6469042, "lon": 139.8092655, "title": "駅前の時計台" }, "geometry": { "type": "Point", "coordinates": [ 139.8092655, 35.6469042 ] } },
{ "type": "Feature", "properties": { "lat": 35.6457676, "lon": 139.8064979, "title": "東雲水辺公園" }, "geometry": { "type": "Point", "coordinates": [ 139.806497900000011, 35.6457676 ] } },
{ "type": "Feature", "properties": { "lat": 35.6464004, "lon": 139.8006369, "title": "東雲緑道公園" }, "geometry": { "type": "Point", "coordinates": [ 139.8006369, 35.6464004 ] } },
{ "type": "Feature", "properties": { "lat": 35.6430263, "lon": 139.8041482, "title": "東雲二丁目公園" }, "geometry": { "type": "Point", "coordinates": [ 139.804148199999986, 35.6430263 ] } },
{ "type": "Feature", "properties": { "lat": 35.6579405, "lon": 139.8022498, "title": "朝凪公園" }, "geometry": { "type": "Point", "coordinates": [ 139.8022498, 35.6579405 ] } },
{ "type": "Feature", "properties": { "lat": 35.6590402, "lon": 139.8083629, "title": "枝川三丁目公園" }, "geometry": { "type": "Point", "coordinates": [ 139.8083629, 35.6590402 ] } },
{ "type": "Feature", "properties": { "lat": 35.6554549, "lon": 139.805547, "title": "朝日児童遊園" }, "geometry": { "type": "Point", "coordinates": [ 139.805547, 35.6554549 ] } },
{ "type": "Feature", "properties": { "lat": 35.658934, "lon": 139.8016798, "title": "蛤橋（はまぐりばし）" }, "geometry": { "type": "Point", "coordinates": [ 139.801679799999988, 35.658934 ] } },
{ "type": "Feature", "properties": { "lat": 35.659253, "lon": 139.8136857, "title": "暁橋" }, "geometry": { "type": "Point", "coordinates": [ 139.8136857, 35.659253 ] } },
{ "type": "Feature", "properties": { "lat": 35.6624267, "lon": 139.8104242, "title": "塩浜二丁目第二公園" }, "geometry": { "type": "Point", "coordinates": [ 139.8104242, 35.6624267 ] } },
{ "type": "Feature", "properties": { "lat": 35.6660118, "lon": 139.8109925, "title": "南開橋第一児童遊園" }, "geometry": { "type": "Point", "coordinates": [ 139.8109925, 35.6660118 ] } },
{ "type": "Feature", "properties": { "lat": 35.6546535, "lon": 139.8160327, "title": "漣橋（さざなみばし）" }, "geometry": { "type": "Point", "coordinates": [ 139.8160327, 35.6546535 ] } },
{ "type": "Feature", "properties": { "lat": 35.6580974, "lon": 139.8022831, "title": "フェアリーガーデンあさなぎ（江東区コミュニティガーデン）" }, "geometry": { "type": "Point", "coordinates": [ 139.802283100000011, 35.6580974 ] } },
{ "type": "Feature", "properties": { "lat": 35.649074, "lon": 139.7898213, "title": "チームラボプラネッツ TOKYO DMM" }, "geometry": { "type": "Point", "coordinates": [ 139.7898213, 35.649074 ] } },
{ "type": "Feature", "properties": { "lat": 35.6559423, "lon": 139.795081, "title": "豐洲地鐵站" }, "geometry": { "type": "Point", "coordinates": [ 139.795081, 35.6559423 ] } },
{ "type": "Feature", "properties": { "lat": 35.6597349, "lon": 139.7922499, "title": "豊洲一丁目第二公園" }, "geometry": { "type": "Point", "coordinates": [ 139.7922499, 35.6597349 ] } },
{ "type": "Feature", "properties": { "lat": 35.649074, "lon": 139.7898213, "title": "チームラボプラネッツ TOKYO DMM" }, "geometry": { "type": "Point", "coordinates": [ 139.7898213, 35.649074 ] } },
{ "type": "Feature", "properties": { "lat": 35.6616951, "lon": 139.7933999, "title": "豊洲一丁目公園" }, "geometry": { "type": "Point", "coordinates": [ 139.7933999, 35.6616951 ] } },
{ "type": "Feature", "properties": { "lat": 35.6679542, "lon": 139.8321728, "title": "光と水のハーモニー（江東区コミュニティガーデン）" }, "geometry": { "type": "Point", "coordinates": [ 139.8321728, 35.6679542 ] } },
{ "type": "Feature", "properties": { "lat": 35.6488396, "lon": 139.8141475, "title": "辰巳の森グラウンドゴルフ" }, "geometry": { "type": "Point", "coordinates": [ 139.8141475, 35.6488396 ] } },
{ "type": "Feature", "properties": { "lat": 35.6573905, "lon": 139.8206746, "title": "砂潮橋" }, "geometry": { "type": "Point", "coordinates": [ 139.8206746, 35.6573905 ] } },
{ "type": "Feature", "properties": { "lat": 35.6588092, "lon": 139.8166905, "title": "潮見一・二丁目町会（江東区コミュニティガーデン）" }, "geometry": { "type": "Point", "coordinates": [ 139.8166905, 35.6588092 ] } },
{ "type": "Feature", "properties": { "lat": 35.6694256, "lon": 139.8346514, "title": "藤棚" }, "geometry": { "type": "Point", "coordinates": [ 139.834651400000013, 35.6694256 ] } },
{ "type": "Feature", "properties": { "lat": 35.6696584, "lon": 139.8334288, "title": "Garden（江東区コミュニティガーデン）" }, "geometry": { "type": "Point", "coordinates": [ 139.8334288, 35.6696584 ] } },
{ "type": "Feature", "properties": { "lat": 35.6618428, "lon": 139.8020295, "title": "浜園公園" }, "geometry": { "type": "Point", "coordinates": [ 139.8020295, 35.6618428 ] } },
{ "type": "Feature", "properties": { "lat": 35.6768891, "lon": 139.8003319, "title": "木更木橋" }, "geometry": { "type": "Point", "coordinates": [ 139.8003319, 35.6768891 ] } },
{ "type": "Feature", "properties": { "lat": 35.6625816, "lon": 139.7988028, "title": "浜園橋" }, "geometry": { "type": "Point", "coordinates": [ 139.7988028, 35.6625816 ] } },
{ "type": "Feature", "properties": { "lat": 35.656345, "lon": 139.7913545, "title": "中央広場" }, "geometry": { "type": "Point", "coordinates": [ 139.791354500000011, 35.656345 ] } },
{ "type": "Feature", "properties": { "lat": 35.6490743, "lon": 139.7901004, "title": "Big Bench" }, "geometry": { "type": "Point", "coordinates": [ 139.7901004, 35.6490743 ] } },
{ "type": "Feature", "properties": { "lat": 35.6857471, "lon": 139.8331921, "title": "砂島橋" }, "geometry": { "type": "Point", "coordinates": [ 139.8331921, 35.6857471 ] } },
{ "type": "Feature", "properties": { "lat": 35.6763856, "lon": 139.8108567, "title": "大栄橋" }, "geometry": { "type": "Point", "coordinates": [ 139.810856699999988, 35.6763856 ] } },
{ "type": "Feature", "properties": { "lat": 35.683802, "lon": 139.7939155, "title": "芭蕉庵史跡展望庭園" }, "geometry": { "type": "Point", "coordinates": [ 139.7939155, 35.683802 ] } },
{ "type": "Feature", "properties": { "lat": 35.6831998, "lon": 139.8006215, "title": "白河一丁目公園" }, "geometry": { "type": "Point", "coordinates": [ 139.8006215, 35.6831998 ] } },
{ "type": "Feature", "properties": { "lat": 35.6731538, "lon": 139.7895767, "title": "巽橋" }, "geometry": { "type": "Point", "coordinates": [ 139.7895767, 35.6731538 ] } },
{ "type": "Feature", "properties": { "lat": 35.6834569, "lon": 139.7946541, "title": "萬年橋" }, "geometry": { "type": "Point", "coordinates": [ 139.7946541, 35.6834569 ] } },
{ "type": "Feature", "properties": { "lat": 35.6806141, "lon": 139.8034745, "title": "龍徳山 雲光院" }, "geometry": { "type": "Point", "coordinates": [ 139.8034745, 35.6806141 ] } },
{ "type": "Feature", "properties": { "lat": 35.676068, "lon": 139.7970135, "title": "心行寺" }, "geometry": { "type": "Point", "coordinates": [ 139.7970135, 35.676068 ] } },
{ "type": "Feature", "properties": { "lat": 35.6768696, "lon": 139.7913106, "title": "佐賀町公園" }, "geometry": { "type": "Point", "coordinates": [ 139.7913106, 35.6768696 ] } },
{ "type": "Feature", "properties": { "lat": 35.6838659, "lon": 139.8007964, "title": "西深川橋" }, "geometry": { "type": "Point", "coordinates": [ 139.8007964, 35.6838659 ] } },
{ "type": "Feature", "properties": { "lat": 35.6776926, "lon": 139.7951121, "title": "亀堀公園" }, "geometry": { "type": "Point", "coordinates": [ 139.795112100000011, 35.6776926 ] } },
{ "type": "Feature", "properties": { "lat": 35.6740986, "lon": 139.7954665, "title": "油堀川公園" }, "geometry": { "type": "Point", "coordinates": [ 139.7954665, 35.6740986 ] } },
{ "type": "Feature", "properties": { "lat": 35.6864971, "lon": 139.8358856, "title": "スマートライフメンバーズ（江東区コミュニティガーデン）" }, "geometry": { "type": "Point", "coordinates": [ 139.835885600000012, 35.6864971 ] } },
{ "type": "Feature", "properties": { "lat": 35.6835953, "lon": 139.8398296, "title": "東砂一丁目公園" }, "geometry": { "type": "Point", "coordinates": [ 139.8398296, 35.6835953 ] } },
{ "type": "Feature", "properties": { "lat": 35.6866374, "lon": 139.8464305, "title": "中川船番所跡" }, "geometry": { "type": "Point", "coordinates": [ 139.8464305, 35.6866374 ] } },
{ "type": "Feature", "properties": { "lat": 35.672782, "lon": 139.8404701, "title": "舟入川公園" }, "geometry": { "type": "Point", "coordinates": [ 139.8404701, 35.672782 ] } },
{ "type": "Feature", "properties": { "lat": 35.6874422, "lon": 139.8468723, "title": "旧中川花畑クラブ（江東区コミュニティガーデン）" }, "geometry": { "type": "Point", "coordinates": [ 139.8468723, 35.6874422 ] } },
{ "type": "Feature", "properties": { "lat": 35.6845639, "lon": 139.8236143, "title": "北砂第二公園" }, "geometry": { "type": "Point", "coordinates": [ 139.8236143, 35.6845639 ] } },
{ "type": "Feature", "properties": { "lat": 35.6846968, "lon": 139.8227057, "title": "北砂花友ガーデン（江東区コミュニティガーデン）" }, "geometry": { "type": "Point", "coordinates": [ 139.8227057, 35.6846968 ] } },
{ "type": "Feature", "properties": { "lat": 35.6859293, "lon": 139.8364235, "title": "丸八橋" }, "geometry": { "type": "Point", "coordinates": [ 139.8364235, 35.6859293 ] } },
{ "type": "Feature", "properties": { "lat": 35.6854031, "lon": 139.8267124, "title": "進開橋" }, "geometry": { "type": "Point", "coordinates": [ 139.8267124, 35.6854031 ] } },
{ "type": "Feature", "properties": { "lat": 35.6796663, "lon": 139.8311839, "title": "砂町銀座商店街振興組合" }, "geometry": { "type": "Point", "coordinates": [ 139.831183900000013, 35.6796663 ] } },
{ "type": "Feature", "properties": { "lat": 35.686093, "lon": 139.8390273, "title": "塩の道橋" }, "geometry": { "type": "Point", "coordinates": [ 139.8390273, 35.686093 ] } },
{ "type": "Feature", "properties": { "lat": 35.6800803, "lon": 139.8175526, "title": "川南海辺公園" }, "geometry": { "type": "Point", "coordinates": [ 139.8175526, 35.6800803 ] } },
{ "type": "Feature", "properties": { "lat": 35.6844665, "lon": 139.8133452, "title": "扇橋閘門" }, "geometry": { "type": "Point", "coordinates": [ 139.813345199999986, 35.6844665 ] } },
{ "type": "Feature", "properties": { "lat": 35.6825, "lon": 139.8163848, "title": "江東公園" }, "geometry": { "type": "Point", "coordinates": [ 139.8163848, 35.6825 ] } },
{ "type": "Feature", "properties": { "lat": 35.6806257, "lon": 139.8118826, "title": "扇橋公園" }, "geometry": { "type": "Point", "coordinates": [ 139.8118826, 35.6806257 ] } },
{ "type": "Feature", "properties": { "lat": 35.6804408, "lon": 139.8103249, "title": "三石橋" }, "geometry": { "type": "Point", "coordinates": [ 139.810324900000012, 35.6804408 ] } },
{ "type": "Feature", "properties": { "lat": 35.690014, "lon": 139.8287148, "title": "大島緑道公園(都電砂町線廃線跡）" }, "geometry": { "type": "Point", "coordinates": [ 139.8287148, 35.690014 ] } },
{ "type": "Feature", "properties": { "lat": 35.6815201, "lon": 139.8101867, "title": "亥之堀橋" }, "geometry": { "type": "Point", "coordinates": [ 139.8101867, 35.6815201 ] } },
{ "type": "Feature", "properties": { "lat": 35.6817742, "lon": 139.8087531, "title": "元加賀ほほえみガーデン（江東区コミュニティガーデン）" }, "geometry": { "type": "Point", "coordinates": [ 139.8087531, 35.6817742 ] } },
{ "type": "Feature", "properties": { "lat": 35.6915186, "lon": 139.8232217, "title": "四季の花（江東区コミュニティガーデン）" }, "geometry": { "type": "Point", "coordinates": [ 139.8232217, 35.6915186 ] } },
{ "type": "Feature", "properties": { "lat": 35.6864783, "lon": 139.812803, "title": "猿江一丁目町会・スマイル（江東区コミュニティガーデン）" }, "geometry": { "type": "Point", "coordinates": [ 139.812803, 35.6864783 ] } },
{ "type": "Feature", "properties": { "lat": 35.6919098, "lon": 139.8241116, "title": "大島二丁目防災公園公園みどりの会（江東区コミュニティガーデン）" }, "geometry": { "type": "Point", "coordinates": [ 139.8241116, 35.6919098 ] } },
{ "type": "Feature", "properties": { "lat": 35.6850906, "lon": 139.8023092, "title": "田河水泡・のらくろ館" }, "geometry": { "type": "Point", "coordinates": [ 139.8023092, 35.6850906 ] } },
{ "type": "Feature", "properties": { "lat": 35.6777463, "lon": 139.8102674, "title": "でぃぐらぶユニバーサルガーデン平野（江東区コミュニティガーデン）" }, "geometry": { "type": "Point", "coordinates": [ 139.810267399999987, 35.6777463 ] } },
{ "type": "Feature", "properties": { "lat": 35.6806274, "lon": 139.8041464, "title": "良信院" }, "geometry": { "type": "Point", "coordinates": [ 139.8041464, 35.6806274 ] } },
{ "type": "Feature", "properties": { "lat": 35.6808771, "lon": 139.8026438, "title": "善徳寺" }, "geometry": { "type": "Point", "coordinates": [ 139.8026438, 35.6808771 ] } },
{ "type": "Feature", "properties": { "lat": 35.6900903, "lon": 139.818511, "title": "猿江恩賜公園" }, "geometry": { "type": "Point", "coordinates": [ 139.818511, 35.6900903 ] } },
{ "type": "Feature", "properties": { "lat": 35.684448, "lon": 139.811146, "title": "新扇橋" }, "geometry": { "type": "Point", "coordinates": [ 139.811146, 35.684448 ] } },
{ "type": "Feature", "properties": { "lat": 35.6864473, "lon": 139.8204788, "title": "大島橋" }, "geometry": { "type": "Point", "coordinates": [ 139.820478799999989, 35.6864473 ] } },
{ "type": "Feature", "properties": { "lat": 35.6880751, "lon": 139.8265511, "title": "四季の庭（江東区コミュニティガーデン）" }, "geometry": { "type": "Point", "coordinates": [ 139.826551099999989, 35.6880751 ] } },
{ "type": "Feature", "properties": { "lat": 35.6848003, "lon": 139.8161805, "title": "小名木川橋" }, "geometry": { "type": "Point", "coordinates": [ 139.8161805, 35.6848003 ] } },
{ "type": "Feature", "properties": { "lat": 35.6859453, "lon": 139.8096101, "title": "猿江橋" }, "geometry": { "type": "Point", "coordinates": [ 139.809610099999986, 35.6859453 ] } },
{ "type": "Feature", "properties": { "lat": 35.6891701, "lon": 139.8201938, "title": "本村橋" }, "geometry": { "type": "Point", "coordinates": [ 139.8201938, 35.6891701 ] } },
{ "type": "Feature", "properties": { "lat": 35.6864097, "lon": 139.7956729, "title": "八名川公園" }, "geometry": { "type": "Point", "coordinates": [ 139.7956729, 35.6864097 ] } },
{ "type": "Feature", "properties": { "lat": 35.6848591, "lon": 139.8025318, "title": "高森公園" }, "geometry": { "type": "Point", "coordinates": [ 139.8025318, 35.6848591 ] } },
{ "type": "Feature", "properties": { "lat": 35.6861506, "lon": 139.7940828, "title": "江東区芭蕉記念館" }, "geometry": { "type": "Point", "coordinates": [ 139.794082800000012, 35.6861506 ] } },
{ "type": "Feature", "properties": { "lat": 35.6896584, "lon": 139.7989356, "title": "五間堀公園" }, "geometry": { "type": "Point", "coordinates": [ 139.7989356, 35.6896584 ] } },
{ "type": "Feature", "properties": { "lat": 35.6826032, "lon": 139.7961478, "title": "清澄二丁目公園" }, "geometry": { "type": "Point", "coordinates": [ 139.7961478, 35.6826032 ] } },
{ "type": "Feature", "properties": { "lat": 35.6815359, "lon": 139.7998989, "title": "霊巌寺" }, "geometry": { "type": "Point", "coordinates": [ 139.799898899999988, 35.6815359 ] } },
{ "type": "Feature", "properties": { "lat": 35.6899078, "lon": 139.8127198, "title": "住利公園" }, "geometry": { "type": "Point", "coordinates": [ 139.8127198, 35.6899078 ] } },
{ "type": "Feature", "properties": { "lat": 35.6787218, "lon": 139.7977061, "title": "清澄庭園児童公園" }, "geometry": { "type": "Point", "coordinates": [ 139.7977061, 35.6787218 ] } },
{ "type": "Feature", "properties": { "lat": 35.6725957, "lon": 139.8149423, "title": "Tokyo Roads" }, "geometry": { "type": "Point", "coordinates": [ 139.814942300000013, 35.6725957 ] } },
{ "type": "Feature", "properties": { "lat": 35.6813759, "lon": 139.7976948, "title": "本誓寺" }, "geometry": { "type": "Point", "coordinates": [ 139.797694799999988, 35.6813759 ] } },
{ "type": "Feature", "properties": { "lat": 35.6811773, "lon": 139.7987261, "title": "清澄白河花壇の会（江東区コミュニティガーデン）" }, "geometry": { "type": "Point", "coordinates": [ 139.79872610000001, 35.6811773 ] } },
{ "type": "Feature", "properties": { "lat": 35.6888713, "lon": 139.8399015, "title": "BS東大島グリーンサークル（江東区コミュニティガーデン）" }, "geometry": { "type": "Point", "coordinates": [ 139.8399015, 35.6888713 ] } },
{ "type": "Feature", "properties": { "lat": 35.6878622, "lon": 139.8319459, "title": "大島四丁目町会長寿ひまわり園芸クラブ（江東区コミュニティガーデン）" }, "geometry": { "type": "Point", "coordinates": [ 139.8319459, 35.6878622 ] } },
{ "type": "Feature", "properties": { "lat": 35.6874729, "lon": 139.8468884, "title": "川の駅そよ風ガーデン（江東区コミュニティガーデン）" }, "geometry": { "type": "Point", "coordinates": [ 139.846888400000012, 35.6874729 ] } },
{ "type": "Feature", "properties": { "lat": 35.6878535, "lon": 139.8391771, "title": "大島ハーブガーデナーズ（江東区コミュニティガーデン）" }, "geometry": { "type": "Point", "coordinates": [ 139.8391771, 35.6878535 ] } },
{ "type": "Feature", "properties": { "lat": 35.6908356, "lon": 139.8409031, "title": "東大島神社" }, "geometry": { "type": "Point", "coordinates": [ 139.8409031, 35.6908356 ] } },
{ "type": "Feature", "properties": { "lat": 35.6916435, "lon": 139.8414444, "title": "旧三大小記念公園" }, "geometry": { "type": "Point", "coordinates": [ 139.8414444, 35.6916435 ] } },
{ "type": "Feature", "properties": { "lat": 35.6864334, "lon": 139.8357275, "title": "大島五丁目公園" }, "geometry": { "type": "Point", "coordinates": [ 139.8357275, 35.6864334 ] } },
{ "type": "Feature", "properties": { "lat": 35.6900009, "lon": 139.8435987, "title": "大島東公園" }, "geometry": { "type": "Point", "coordinates": [ 139.8435987, 35.6900009 ] } },
{ "type": "Feature", "properties": { "lat": 35.6878481, "lon": 139.8391819, "title": "大島八丁目公園" }, "geometry": { "type": "Point", "coordinates": [ 139.8391819, 35.6878481 ] } },
{ "type": "Feature", "properties": { "lat": 35.6914973, "lon": 139.8232207, "title": "大島二丁目公園" }, "geometry": { "type": "Point", "coordinates": [ 139.8232207, 35.6914973 ] } },
{ "type": "Feature", "properties": { "lat": 35.6919994, "lon": 139.8242704, "title": "大島防災公園" }, "geometry": { "type": "Point", "coordinates": [ 139.824270399999989, 35.6919994 ] } },
{ "type": "Feature", "properties": { "lat": 35.6878568, "lon": 139.8319566, "title": "大島四丁目公園" }, "geometry": { "type": "Point", "coordinates": [ 139.831956600000012, 35.6878568 ] } },
{ "type": "Feature", "properties": { "lat": 35.6889794, "lon": 139.8458266, "title": "わんさか広場" }, "geometry": { "type": "Point", "coordinates": [ 139.8458266, 35.6889794 ] } },
{ "type": "Feature", "properties": { "lat": 35.687677, "lon": 139.846285, "title": "江東区中川船番所資料館" }, "geometry": { "type": "Point", "coordinates": [ 139.846285, 35.687677 ] } },
{ "type": "Feature", "properties": { "lat": 35.6865006, "lon": 139.8324274, "title": "大島四丁目第二公園" }, "geometry": { "type": "Point", "coordinates": [ 139.8324274, 35.6865006 ] } },
{ "type": "Feature", "properties": { "lat": 35.698406, "lon": 139.8301801, "title": "亀戸五丁目第二公園" }, "geometry": { "type": "Point", "coordinates": [ 139.8301801, 35.698406 ] } },
{ "type": "Feature", "properties": { "lat": 35.6935275, "lon": 139.8340444, "title": "大島6丁目公園" }, "geometry": { "type": "Point", "coordinates": [ 139.83404440000001, 35.6935275 ] } },
{ "type": "Feature", "properties": { "lat": 35.6945001, "lon": 139.8478234, "title": "虹の大橋" }, "geometry": { "type": "Point", "coordinates": [ 139.84782340000001, 35.6945001 ] } },
{ "type": "Feature", "properties": { "lat": 35.6952778, "lon": 139.8283333, "title": "亀戸緑道公園" }, "geometry": { "type": "Point", "coordinates": [ 139.8283333, 35.6952778 ] } },
{ "type": "Feature", "properties": { "lat": 35.6876547, "lon": 139.8474539, "title": "中川大橋" }, "geometry": { "type": "Point", "coordinates": [ 139.8474539, 35.6876547 ] } },
{ "type": "Feature", "properties": { "lat": 35.6940775, "lon": 139.8297626, "title": "江東区立 竪川河川敷公園" }, "geometry": { "type": "Point", "coordinates": [ 139.8297626, 35.6940775 ] } },
{ "type": "Feature", "properties": { "lat": 35.7014172, "lon": 139.8257308, "title": "亀戸梅屋敷" }, "geometry": { "type": "Point", "coordinates": [ 139.8257308, 35.7014172 ] } },
{ "type": "Feature", "properties": { "lat": 35.6998788, "lon": 139.8195973, "title": "亀戸銭座跡" }, "geometry": { "type": "Point", "coordinates": [ 139.8195973, 35.6998788 ] } },
{ "type": "Feature", "properties": { "lat": 35.7030288, "lon": 139.8206618, "title": "亀戸天神社" }, "geometry": { "type": "Point", "coordinates": [ 139.820661800000011, 35.7030288 ] } },
{ "type": "Feature", "properties": { "lat": 35.7022776, "lon": 139.8207747, "title": "藤棚 亀戸天神" }, "geometry": { "type": "Point", "coordinates": [ 139.820774699999987, 35.7022776 ] } },
{ "type": "Feature", "properties": { "lat": 35.6956928, "lon": 139.8239027, "title": "亀戸公園" }, "geometry": { "type": "Point", "coordinates": [ 139.8239027, 35.6956928 ] } },
{ "type": "Feature", "properties": { "lat": 35.6979149, "lon": 139.8247236, "title": "亀戸駅前公園" }, "geometry": { "type": "Point", "coordinates": [ 139.8247236, 35.6979149 ] } },
{ "type": "Feature", "properties": { "lat": 35.7007269, "lon": 139.8363792, "title": "亀戸中央公園" }, "geometry": { "type": "Point", "coordinates": [ 139.83637920000001, 35.7007269 ] } },
{ "type": "Feature", "properties": { "lat": 35.6998082, "lon": 139.8251097, "title": "星街彗星stellar stellar取景地" }, "geometry": { "type": "Point", "coordinates": [ 139.825109700000013, 35.6998082 ] } },
{ "type": "Feature", "properties": { "lat": 35.7041471, "lon": 139.8253683, "title": "亀戸香取神社" }, "geometry": { "type": "Point", "coordinates": [ 139.8253683, 35.7041471 ] } },
{ "type": "Feature", "properties": { "lat": 35.7027431, "lon": 139.8206226, "title": "鷽の碑" }, "geometry": { "type": "Point", "coordinates": [ 139.8206226, 35.7027431 ] } },
{ "type": "Feature", "properties": { "lat": 35.7035309, "lon": 139.8272813, "title": "亀戸４丁目町会（江東区コミュニティガーデン）" }, "geometry": { "type": "Point", "coordinates": [ 139.82728130000001, 35.7035309 ] } },
{ "type": "Feature", "properties": { "lat": 35.7027191, "lon": 139.8206159, "title": "五歳の菅公像" }, "geometry": { "type": "Point", "coordinates": [ 139.8206159, 35.7027191 ] } },
{ "type": "Feature", "properties": { "lat": 35.6983932, "lon": 139.8301907, "title": "みどりの会（江東区コミュニティガーデン）" }, "geometry": { "type": "Point", "coordinates": [ 139.8301907, 35.6983932 ] } },
{ "type": "Feature", "properties": { "lat": 35.6982598, "lon": 139.822065, "title": "文泉公園" }, "geometry": { "type": "Point", "coordinates": [ 139.822065, 35.6982598 ] } },
{ "type": "Feature", "properties": { "lat": 35.6978353, "lon": 139.8248292, "title": "亀公園を美しくする会" }, "geometry": { "type": "Point", "coordinates": [ 139.824829200000011, 35.6978353 ] } },
{ "type": "Feature", "properties": { "lat": 35.7041188, "lon": 139.8194294, "title": "東友会（江東区コミュニティガーデン）" }, "geometry": { "type": "Point", "coordinates": [ 139.8194294, 35.7041188 ] } },
{ "type": "Feature", "properties": { "lat": 35.6977717, "lon": 139.8244711, "title": "江東区更生保護女性会（江東区コミュニティガーデン）" }, "geometry": { "type": "Point", "coordinates": [ 139.824471100000011, 35.6977717 ] } },
{ "type": "Feature", "properties": { "lat": 35.7000311, "lon": 139.8236262, "title": "フラワーフレンドクラブ（江東区コミュニティガーデン）" }, "geometry": { "type": "Point", "coordinates": [ 139.8236262, 35.7000311 ] } },
{ "type": "Feature", "properties": { "lat": 35.6957333, "lon": 139.8225977, "title": "亀戸西公園" }, "geometry": { "type": "Point", "coordinates": [ 139.822597699999989, 35.6957333 ] } },
{ "type": "Feature", "properties": { "lat": 35.70285, "lon": 139.8205511, "title": "御神牛" }, "geometry": { "type": "Point", "coordinates": [ 139.820551099999989, 35.70285 ] } },
{ "type": "Feature", "properties": { "lat": 35.690504, "lon": 139.819215, "title": "猿江恩賜公園 サービスセンター" }, "geometry": { "type": "Point", "coordinates": [ 139.819215, 35.690504 ] } },
{ "type": "Feature", "properties": { "lat": 35.6932261, "lon": 139.8178179, "title": "竪川親水公園" }, "geometry": { "type": "Point", "coordinates": [ 139.8178179, 35.6932261 ] } },
{ "type": "Feature", "properties": { "lat": 35.6808995, "lon": 139.7920595, "title": "平賀源内電気実験の地" }, "geometry": { "type": "Point", "coordinates": [ 139.7920595, 35.6808995 ] } },
{ "type": "Feature", "properties": { "lat": 35.6982727, "lon": 139.8429629, "title": "亀戸九丁目公園" }, "geometry": { "type": "Point", "coordinates": [ 139.8429629, 35.6982727 ] } },
{ "type": "Feature", "properties": { "lat": 35.698564, "lon": 139.844358, "title": "亀九緑化ガーデン（江東区コミュニティガーデン）" }, "geometry": { "type": "Point", "coordinates": [ 139.844358, 35.698564 ] } },
{ "type": "Feature", "properties": { "lat": 35.6961671, "lon": 139.8438309, "title": "サークル風花（江東区コミュニティガーデン）" }, "geometry": { "type": "Point", "coordinates": [ 139.8438309, 35.6961671 ] } },
{ "type": "Feature", "properties": { "lat": 35.6959194, "lon": 139.8445853, "title": "亀戸浅間公園" }, "geometry": { "type": "Point", "coordinates": [ 139.8445853, 35.6959194 ] } },
{ "type": "Feature", "properties": { "lat": 35.6967291, "lon": 139.8438795, "title": "亀戸緑地公園" }, "geometry": { "type": "Point", "coordinates": [ 139.843879500000014, 35.6967291 ] } },
{ "type": "Feature", "properties": { "lat": 35.6967301, "lon": 139.8352036, "title": "亀戸七丁目西公園" }, "geometry": { "type": "Point", "coordinates": [ 139.8352036, 35.6967301 ] } },
{ "type": "Feature", "properties": { "lat": 35.7009808, "lon": 139.8397137, "title": "旧中川あじさいクラブ（江東区コミュニティガーデン）" }, "geometry": { "type": "Point", "coordinates": [ 139.8397137, 35.7009808 ] } },
{ "type": "Feature", "properties": { "lat": 35.7025649, "lon": 139.8297713, "title": "亀戸四丁目公園けやきひろば" }, "geometry": { "type": "Point", "coordinates": [ 139.8297713, 35.7025649 ] } },
{ "type": "Feature", "properties": { "lat": 35.7020817, "lon": 139.8292228, "title": "水神公園" }, "geometry": { "type": "Point", "coordinates": [ 139.8292228, 35.7020817 ] } },
{ "type": "Feature", "properties": { "lat": 35.6962637, "lon": 139.8380371, "title": "亀戸七丁目南公園" }, "geometry": { "type": "Point", "coordinates": [ 139.8380371, 35.6962637 ] } },
{ "type": "Feature", "properties": { "lat": 35.7033074, "lon": 139.8228921, "title": "善應寺" }, "geometry": { "type": "Point", "coordinates": [ 139.8228921, 35.7033074 ] } },
{ "type": "Feature", "properties": { "lat": 35.7000127, "lon": 139.8236553, "title": "亀戸二丁目公園" }, "geometry": { "type": "Point", "coordinates": [ 139.823655300000013, 35.7000127 ] } },
{ "type": "Feature", "properties": { "lat": 35.6945071, "lon": 139.8320591, "title": "亀戸平岩公園" }, "geometry": { "type": "Point", "coordinates": [ 139.8320591, 35.6945071 ] } },
{ "type": "Feature", "properties": { "lat": 35.6953423, "lon": 139.8276991, "title": "亀戸南公園" }, "geometry": { "type": "Point", "coordinates": [ 139.8276991, 35.6953423 ] } },
{ "type": "Feature", "properties": { "lat": 35.7029308, "lon": 139.8357662, "title": "江東新橋" }, "geometry": { "type": "Point", "coordinates": [ 139.8357662, 35.7029308 ] } },
{ "type": "Feature", "properties": { "lat": 35.6940902, "lon": 139.8299873, "title": "竪川河川敷公園管理事務所" }, "geometry": { "type": "Point", "coordinates": [ 139.8299873, 35.6940902 ] } },
{ "type": "Feature", "properties": { "lat": 35.7055688, "lon": 139.8196111, "title": "龍眼寺" }, "geometry": { "type": "Point", "coordinates": [ 139.8196111, 35.7055688 ] } },
{ "type": "Feature", "properties": { "lat": 35.6995882, "lon": 139.8336615, "title": "八千代公園花倶楽部（江東区コミュニティガーデン）" }, "geometry": { "type": "Point", "coordinates": [ 139.8336615, 35.6995882 ] } },
{ "type": "Feature", "properties": { "lat": 35.7000111, "lon": 139.8289049, "title": "亀戸五丁目公園" }, "geometry": { "type": "Point", "coordinates": [ 139.8289049, 35.7000111 ] } },
{ "type": "Feature", "properties": { "lat": 35.7067969, "lon": 139.8194832, "title": "亀島小学校記念公園" }, "geometry": { "type": "Point", "coordinates": [ 139.8194832, 35.7067969 ] } },
{ "type": "Feature", "properties": { "lat": 35.7020724, "lon": 139.8245019, "title": "香取大門通り会（江東区コミュニティガーデン）" }, "geometry": { "type": "Point", "coordinates": [ 139.8245019, 35.7020724 ] } },
{ "type": "Feature", "properties": { "lat": 35.7055272, "lon": 139.8226504, "title": "亀島公園" }, "geometry": { "type": "Point", "coordinates": [ 139.822650399999986, 35.7055272 ] } },
{ "type": "Feature", "properties": { "lat": 35.6428268, "lon": 139.807288, "title": "新辰巳橋" }, "geometry": { "type": "Point", "coordinates": [ 139.807288, 35.6428268 ] } },
{ "type": "Feature", "properties": { "lat": 35.667067, "lon": 139.7576338, "title": "新橋駅西口広場（SL広場）" }, "geometry": { "type": "Point", "coordinates": [ 139.7576338, 35.667067 ] } },
{ "type": "Feature", "properties": { "lat": 35.6663773, "lon": 139.7527195, "title": "港区立南桜公園" }, "geometry": { "type": "Point", "coordinates": [ 139.752719500000012, 35.6663773 ] } },
{ "type": "Feature", "properties": { "lat": 35.6672392, "lon": 139.761147, "title": "銀座の柳碑" }, "geometry": { "type": "Point", "coordinates": [ 139.761147, 35.6672392 ] } },
{ "type": "Feature", "properties": { "lat": 35.6654333, "lon": 139.7567497, "title": "桜田公園" }, "geometry": { "type": "Point", "coordinates": [ 139.7567497, 35.6654333 ] } },
{ "type": "Feature", "properties": { "lat": 35.6685916, "lon": 139.7580123, "title": "幸橋門跡" }, "geometry": { "type": "Point", "coordinates": [ 139.7580123, 35.6685916 ] } },
{ "type": "Feature", "properties": { "lat": 35.669587, "lon": 139.752346, "title": "日本の酒情報館" }, "geometry": { "type": "Point", "coordinates": [ 139.752346, 35.669587 ] } },
{ "type": "Feature", "properties": { "lat": 35.6667276, "lon": 139.7452294, "title": "江戸見坂" }, "geometry": { "type": "Point", "coordinates": [ 139.7452294, 35.6667276 ] } },
{ "type": "Feature", "properties": { "lat": 35.6646681, "lon": 139.7490137, "title": "出世の石段" }, "geometry": { "type": "Point", "coordinates": [ 139.7490137, 35.6646681 ] } },
{ "type": "Feature", "properties": { "lat": 35.6673323, "lon": 139.7473131, "title": "TOKYO NODE SKY GARDEN & POOL | 東京ノード" }, "geometry": { "type": "Point", "coordinates": [ 139.747313100000014, 35.6673323 ] } },
{ "type": "Feature", "properties": { "lat": 35.6649659, "lon": 139.7487043, "title": "愛宕山" }, "geometry": { "type": "Point", "coordinates": [ 139.748704300000014, 35.6649659 ] } },
{ "type": "Feature", "properties": { "lat": 35.6615227, "lon": 139.7470526, "title": "切通し坂" }, "geometry": { "type": "Point", "coordinates": [ 139.747052599999989, 35.6615227 ] } },
{ "type": "Feature", "properties": { "lat": 35.6704056, "lon": 139.7496862, "title": "虎ノ門遺趾碑" }, "geometry": { "type": "Point", "coordinates": [ 139.749686200000014, 35.6704056 ] } },
{ "type": "Feature", "properties": { "lat": 35.6803545, "lon": 139.7287774, "title": "迎賓館赤坂離宮" }, "geometry": { "type": "Point", "coordinates": [ 139.728777400000013, 35.6803545 ] } },
{ "type": "Feature", "properties": { "lat": 35.6762968, "lon": 139.7326928, "title": "いなりん" }, "geometry": { "type": "Point", "coordinates": [ 139.7326928, 35.6762968 ] } },
{ "type": "Feature", "properties": { "lat": 35.6765268, "lon": 139.7343334, "title": "赤坂氷川山車展示スペース" }, "geometry": { "type": "Point", "coordinates": [ 139.7343334, 35.6765268 ] } },
{ "type": "Feature", "properties": { "lat": 35.6788247, "lon": 139.7362515, "title": "弁慶橋" }, "geometry": { "type": "Point", "coordinates": [ 139.7362515, 35.6788247 ] } },
{ "type": "Feature", "properties": { "lat": 35.6733017, "lon": 139.7354005, "title": "赤坂サカスの桜" }, "geometry": { "type": "Point", "coordinates": [ 139.7354005, 35.6733017 ] } },
{ "type": "Feature", "properties": { "lat": 35.6716753, "lon": 139.7385354, "title": "福吉坂" }, "geometry": { "type": "Point", "coordinates": [ 139.738535399999989, 35.6716753 ] } },
{ "type": "Feature", "properties": { "lat": 35.6644594, "lon": 139.7625223, "title": "SKY VIEW" }, "geometry": { "type": "Point", "coordinates": [ 139.7625223, 35.6644594 ] } },
{ "type": "Feature", "properties": { "lat": 35.6647784, "lon": 139.762191, "title": "アドミュージアム東京" }, "geometry": { "type": "Point", "coordinates": [ 139.762191, 35.6647784 ] } },
{ "type": "Feature", "properties": { "lat": 35.6641255, "lon": 139.7599544, "title": "日テレ大時計" }, "geometry": { "type": "Point", "coordinates": [ 139.7599544, 35.6641255 ] } },
{ "type": "Feature", "properties": { "lat": 35.6672784, "lon": 139.761209, "title": "新橋親柱" }, "geometry": { "type": "Point", "coordinates": [ 139.761209, 35.6672784 ] } },
{ "type": "Feature", "properties": { "lat": 35.6659066, "lon": 139.7619241, "title": "パナソニック汐留美術館" }, "geometry": { "type": "Point", "coordinates": [ 139.761924099999987, 35.6659066 ] } },
{ "type": "Feature", "properties": { "lat": 35.6660168, "lon": 139.7614997, "title": "旧新橋停車場 鉄道歴史展示室" }, "geometry": { "type": "Point", "coordinates": [ 139.7614997, 35.6660168 ] } },
{ "type": "Feature", "properties": { "lat": 35.6554915, "lon": 139.7611041, "title": "ひょうたん山の火山弾（三宅島）" }, "geometry": { "type": "Point", "coordinates": [ 139.761104100000011, 35.6554915 ] } },
{ "type": "Feature", "properties": { "lat": 35.6555467, "lon": 139.7584795, "title": "小池" }, "geometry": { "type": "Point", "coordinates": [ 139.7584795, 35.6555467 ] } },
{ "type": "Feature", "properties": { "lat": 35.654717, "lon": 139.7625957, "title": "モヤイ像（竹芝客船ターミナル）" }, "geometry": { "type": "Point", "coordinates": [ 139.7625957, 35.654717 ] } },
{ "type": "Feature", "properties": { "lat": 35.6553108, "lon": 139.7614259, "title": "赦免花（八丈島）" }, "geometry": { "type": "Point", "coordinates": [ 139.7614259, 35.6553108 ] } },
{ "type": "Feature", "properties": { "lat": 35.6551937, "lon": 139.7616294, "title": "青ヶ島のモニュメント" }, "geometry": { "type": "Point", "coordinates": [ 139.7616294, 35.6551937 ] } },
{ "type": "Feature", "properties": { "lat": 35.655486, "lon": 139.7565829, "title": "瓦斯燈" }, "geometry": { "type": "Point", "coordinates": [ 139.756582900000012, 35.655486 ] } },
{ "type": "Feature", "properties": { "lat": 35.6551537, "lon": 139.7585804, "title": "浮島" }, "geometry": { "type": "Point", "coordinates": [ 139.7585804, 35.6551537 ] } },
{ "type": "Feature", "properties": { "lat": 35.6563276, "lon": 139.7580924, "title": "浜松町駅−竹芝ふ頭 歩行者デッキ" }, "geometry": { "type": "Point", "coordinates": [ 139.75809240000001, 35.6563276 ] } },
{ "type": "Feature", "properties": { "lat": 35.6548502, "lon": 139.759252, "title": "あずまや" }, "geometry": { "type": "Point", "coordinates": [ 139.759252, 35.6548502 ] } },
{ "type": "Feature", "properties": { "lat": 35.6549505, "lon": 139.7587206, "title": "旧芝離宮恩賜庭園" }, "geometry": { "type": "Point", "coordinates": [ 139.7587206, 35.6549505 ] } },
{ "type": "Feature", "properties": { "lat": 35.659514, "lon": 139.7591846, "title": "イタリア公園" }, "geometry": { "type": "Point", "coordinates": [ 139.7591846, 35.659514 ] } },
{ "type": "Feature", "properties": { "lat": 35.6696344, "lon": 139.7480255, "title": "虎ノ門 金刀比羅宮" }, "geometry": { "type": "Point", "coordinates": [ 139.748025500000011, 35.6696344 ] } },
{ "type": "Feature", "properties": { "lat": 35.6669776, "lon": 139.7433302, "title": "大倉集古館" }, "geometry": { "type": "Point", "coordinates": [ 139.7433302, 35.6669776 ] } },
{ "type": "Feature", "properties": { "lat": 35.6650549, "lon": 139.7480102, "title": "杉田玄白墓" }, "geometry": { "type": "Point", "coordinates": [ 139.74801020000001, 35.6650549 ] } },
{ "type": "Feature", "properties": { "lat": 35.6615099, "lon": 139.7428881, "title": "西久保八幡神社" }, "geometry": { "type": "Point", "coordinates": [ 139.742888099999988, 35.6615099 ] } },
{ "type": "Feature", "properties": { "lat": 35.6611334, "lon": 139.7576256, "title": "汐留西公園" }, "geometry": { "type": "Point", "coordinates": [ 139.757625600000011, 35.6611334 ] } },
{ "type": "Feature", "properties": { "lat": 35.6585805, "lon": 139.7454329, "title": "東京タワー" }, "geometry": { "type": "Point", "coordinates": [ 139.7454329, 35.6585805 ] } },
{ "type": "Feature", "properties": { "lat": 35.6637951, "lon": 139.748291, "title": "NHK放送博物館" }, "geometry": { "type": "Point", "coordinates": [ 139.748291, 35.6637951 ] } },
{ "type": "Feature", "properties": { "lat": 35.6660019, "lon": 139.7445296, "title": "菊池寛実記念 智美術館" }, "geometry": { "type": "Point", "coordinates": [ 139.7445296, 35.6660019 ] } },
{ "type": "Feature", "properties": { "lat": 35.6636338, "lon": 139.7373853, "title": "なだれ坂" }, "geometry": { "type": "Point", "coordinates": [ 139.7373853, 35.6636338 ] } },
{ "type": "Feature", "properties": { "lat": 35.6728914, "lon": 139.7338235, "title": "円通寺坂公園" }, "geometry": { "type": "Point", "coordinates": [ 139.7338235, 35.6728914 ] } },
{ "type": "Feature", "properties": { "lat": 35.6709043, "lon": 139.7371892, "title": "氷川公園" }, "geometry": { "type": "Point", "coordinates": [ 139.737189199999989, 35.6709043 ] } },
{ "type": "Feature", "properties": { "lat": 35.661713, "lon": 139.7467036, "title": "光円寺" }, "geometry": { "type": "Point", "coordinates": [ 139.746703599999989, 35.661713 ] } },
{ "type": "Feature", "properties": { "lat": 35.6701293, "lon": 139.7529282, "title": "Gate J. 東京" }, "geometry": { "type": "Point", "coordinates": [ 139.752928200000014, 35.6701293 ] } },
{ "type": "Feature", "properties": { "lat": 35.6667809, "lon": 139.7568406, "title": "烏森神社" }, "geometry": { "type": "Point", "coordinates": [ 139.7568406, 35.6667809 ] } },
{ "type": "Feature", "properties": { "lat": 35.6584614, "lon": 139.7463888, "title": "蛇塚" }, "geometry": { "type": "Point", "coordinates": [ 139.7463888, 35.6584614 ] } },
{ "type": "Feature", "properties": { "lat": 35.6580922, "lon": 139.7461092, "title": "もみじの滝" }, "geometry": { "type": "Point", "coordinates": [ 139.7461092, 35.6580922 ] } },
{ "type": "Feature", "properties": { "lat": 35.6577816, "lon": 139.7462026, "title": "もみじ谷" }, "geometry": { "type": "Point", "coordinates": [ 139.7462026, 35.6577816 ] } },
{ "type": "Feature", "properties": { "lat": 35.666095, "lon": 139.739645, "title": "道源寺坂" }, "geometry": { "type": "Point", "coordinates": [ 139.739645, 35.666095 ] } },
{ "type": "Feature", "properties": { "lat": 35.6662818, "lon": 139.7573815, "title": "新橋マッスルビジョン" }, "geometry": { "type": "Point", "coordinates": [ 139.7573815, 35.6662818 ] } },
{ "type": "Feature", "properties": { "lat": 35.6659314, "lon": 139.7404212, "title": "スペイン坂(六本木)" }, "geometry": { "type": "Point", "coordinates": [ 139.740421199999986, 35.6659314 ] } },
{ "type": "Feature", "properties": { "lat": 35.6669253, "lon": 139.7408917, "title": "パイプオルゴール（からくり時計）" }, "geometry": { "type": "Point", "coordinates": [ 139.7408917, 35.6669253 ] } },
{ "type": "Feature", "properties": { "lat": 35.6597384, "lon": 139.7501298, "title": "セーラー戦士5人(水色)" }, "geometry": { "type": "Point", "coordinates": [ 139.7501298, 35.6597384 ] } },
{ "type": "Feature", "properties": { "lat": 35.6671368, "lon": 139.7574245, "title": "蒸気機関車C11 292号機" }, "geometry": { "type": "Point", "coordinates": [ 139.757424500000013, 35.6671368 ] } },
{ "type": "Feature", "properties": { "lat": 35.6646754, "lon": 139.7485778, "title": "将軍梅" }, "geometry": { "type": "Point", "coordinates": [ 139.7485778, 35.6646754 ] } },
{ "type": "Feature", "properties": { "lat": 35.672861, "lon": 139.7357203, "title": "サカス坂" }, "geometry": { "type": "Point", "coordinates": [ 139.7357203, 35.672861 ] } },
{ "type": "Feature", "properties": { "lat": 35.657479, "lon": 139.7482928, "title": "増上寺" }, "geometry": { "type": "Point", "coordinates": [ 139.7482928, 35.657479 ] } },
{ "type": "Feature", "properties": { "lat": 35.6552542, "lon": 139.7490194, "title": "芝東照宮ノ公孫樹" }, "geometry": { "type": "Point", "coordinates": [ 139.7490194, 35.6552542 ] } },
{ "type": "Feature", "properties": { "lat": 35.6613726, "lon": 139.7405691, "title": "麻布台ヒルズアリーナ" }, "geometry": { "type": "Point", "coordinates": [ 139.740569099999988, 35.6613726 ] } },
{ "type": "Feature", "properties": { "lat": 35.6645442, "lon": 139.7549171, "title": "新橋４丁目東交差点" }, "geometry": { "type": "Point", "coordinates": [ 139.7549171, 35.6645442 ] } },
{ "type": "Feature", "properties": { "lat": 35.6550966, "lon": 139.7486974, "title": "芝東照宮" }, "geometry": { "type": "Point", "coordinates": [ 139.7486974, 35.6550966 ] } },
{ "type": "Feature", "properties": { "lat": 35.6561733, "lon": 139.7496976, "title": "旧台徳院霊廟惣門" }, "geometry": { "type": "Point", "coordinates": [ 139.7496976, 35.6561733 ] } },
{ "type": "Feature", "properties": { "lat": 35.6561695, "lon": 139.7483555, "title": "芝公園" }, "geometry": { "type": "Point", "coordinates": [ 139.7483555, 35.6561695 ] } },
{ "type": "Feature", "properties": { "lat": 35.6572157, "lon": 139.7457815, "title": "도쿄타워 뷰2" }, "geometry": { "type": "Point", "coordinates": [ 139.7457815, 35.6572157 ] } },
{ "type": "Feature", "properties": { "lat": 35.6564722, "lon": 139.7454722, "title": "Tokyo Tower Photo Spot (Opposite of Raffine Shibakoen)" }, "geometry": { "type": "Point", "coordinates": [ 139.7454722, 35.6564722 ] } },
{ "type": "Feature", "properties": { "lat": 35.6571837, "lon": 139.7489292, "title": "芝公園 祐天桜" }, "geometry": { "type": "Point", "coordinates": [ 139.7489292, 35.6571837 ] } },
{ "type": "Feature", "properties": { "lat": 35.6551832, "lon": 139.7456643, "title": "赤羽橋拍照點" }, "geometry": { "type": "Point", "coordinates": [ 139.745664299999987, 35.6551832 ] } },
{ "type": "Feature", "properties": { "lat": 35.6593434, "lon": 139.7449612, "title": "東京鐵塔拍照點" }, "geometry": { "type": "Point", "coordinates": [ 139.7449612, 35.6593434 ] } },
{ "type": "Feature", "properties": { "lat": 35.6597485, "lon": 139.7501281, "title": "セーラー4戦士（新ブルー）" }, "geometry": { "type": "Point", "coordinates": [ 139.750128100000012, 35.6597485 ] } },
{ "type": "Feature", "properties": { "lat": 35.6570979, "lon": 139.7457514, "title": "Tōkyō Tower Hidden Stairs" }, "geometry": { "type": "Point", "coordinates": [ 139.745751399999989, 35.6570979 ] } },
{ "type": "Feature", "properties": { "lat": 35.6579729, "lon": 139.7489333, "title": "도쿄타워 포토스팟" }, "geometry": { "type": "Point", "coordinates": [ 139.7489333, 35.6579729 ] } },
{ "type": "Feature", "properties": { "lat": 35.6585805, "lon": 139.7454329, "title": "東京タワー" }, "geometry": { "type": "Point", "coordinates": [ 139.7454329, 35.6585805 ] } },
{ "type": "Feature", "properties": { "lat": 35.6571925, "lon": 139.7457595, "title": "도쿄타워 계단 포토스팟" }, "geometry": { "type": "Point", "coordinates": [ 139.7457595, 35.6571925 ] } },
{ "type": "Feature", "properties": { "lat": 35.6593761, "lon": 139.7448368, "title": "Tokyo Tower photo spots" }, "geometry": { "type": "Point", "coordinates": [ 139.7448368, 35.6593761 ] } },
{ "type": "Feature", "properties": { "lat": 35.6470459, "lon": 139.7499803, "title": "本芝公園" }, "geometry": { "type": "Point", "coordinates": [ 139.7499803, 35.6470459 ] } },
{ "type": "Feature", "properties": { "lat": 35.6554382, "lon": 139.7478156, "title": "芝丸山古墳" }, "geometry": { "type": "Point", "coordinates": [ 139.7478156, 35.6554382 ] } },
{ "type": "Feature", "properties": { "lat": 35.6571053, "lon": 139.7457213, "title": "Tokyo Tower Photo Spot (Staircase)" }, "geometry": { "type": "Point", "coordinates": [ 139.745721300000014, 35.6571053 ] } },
{ "type": "Feature", "properties": { "lat": 35.6585805, "lon": 139.7454329, "title": "東京タワー" }, "geometry": { "type": "Point", "coordinates": [ 139.7454329, 35.6585805 ] } },
{ "type": "Feature", "properties": { "lat": 35.645561, "lon": 139.7516646, "title": "芝浦公園" }, "geometry": { "type": "Point", "coordinates": [ 139.7516646, 35.645561 ] } },
{ "type": "Feature", "properties": { "lat": 35.6422458, "lon": 139.7397768, "title": "三田台公園" }, "geometry": { "type": "Point", "coordinates": [ 139.739776799999987, 35.6422458 ] } },
{ "type": "Feature", "properties": { "lat": 35.6614921, "lon": 139.7489043, "title": "松蓮社" }, "geometry": { "type": "Point", "coordinates": [ 139.7489043, 35.6614921 ] } },
{ "type": "Feature", "properties": { "lat": 35.6577277, "lon": 139.7484786, "title": "宝物展示室" }, "geometry": { "type": "Point", "coordinates": [ 139.7484786, 35.6577277 ] } },
{ "type": "Feature", "properties": { "lat": 35.6577043, "lon": 139.7533133, "title": "貯金塚" }, "geometry": { "type": "Point", "coordinates": [ 139.7533133, 35.6577043 ] } },
{ "type": "Feature", "properties": { "lat": 35.6595389, "lon": 139.7458168, "title": "勝林山 金地院" }, "geometry": { "type": "Point", "coordinates": [ 139.7458168, 35.6595389 ] } },
{ "type": "Feature", "properties": { "lat": 35.66106, "lon": 139.74587, "title": "Sailor Moon Kanaldeckel, grün" }, "geometry": { "type": "Point", "coordinates": [ 139.74587, 35.66106 ] } },
{ "type": "Feature", "properties": { "lat": 35.6417298, "lon": 139.7555405, "title": "埠頭公園" }, "geometry": { "type": "Point", "coordinates": [ 139.7555405, 35.6417298 ] } },
{ "type": "Feature", "properties": { "lat": 35.6567389, "lon": 139.7506431, "title": "ペルリ提督の像" }, "geometry": { "type": "Point", "coordinates": [ 139.7506431, 35.6567389 ] } },
{ "type": "Feature", "properties": { "lat": 35.6477556, "lon": 139.7467509, "title": "水野監物邸跡" }, "geometry": { "type": "Point", "coordinates": [ 139.7467509, 35.6477556 ] } },
{ "type": "Feature", "properties": { "lat": 35.653, "lon": 139.7452, "title": "Tokyo Tower Photo Spot" }, "geometry": { "type": "Point", "coordinates": [ 139.7452, 35.653 ] } },
{ "type": "Feature", "properties": { "lat": 35.6483953, "lon": 139.7422378, "title": "三田演説館" }, "geometry": { "type": "Point", "coordinates": [ 139.7422378, 35.6483953 ] } },
{ "type": "Feature", "properties": { "lat": 35.6431052, "lon": 139.7414462, "title": "御田八幡神社" }, "geometry": { "type": "Point", "coordinates": [ 139.741446200000013, 35.6431052 ] } },
{ "type": "Feature", "properties": { "lat": 35.6524163, "lon": 139.7586876, "title": "港区立新浜公園" }, "geometry": { "type": "Point", "coordinates": [ 139.7586876, 35.6524163 ] } },
{ "type": "Feature", "properties": { "lat": 35.6415273, "lon": 139.7507186, "title": "渚橋" }, "geometry": { "type": "Point", "coordinates": [ 139.7507186, 35.6415273 ] } },
{ "type": "Feature", "properties": { "lat": 35.6482192, "lon": 139.748147, "title": "芝五丁目児童遊園" }, "geometry": { "type": "Point", "coordinates": [ 139.748147, 35.6482192 ] } },
{ "type": "Feature", "properties": { "lat": 35.6447382, "lon": 139.7421066, "title": "元和キリシタン遺跡" }, "geometry": { "type": "Point", "coordinates": [ 139.7421066, 35.6447382 ] } },
{ "type": "Feature", "properties": { "lat": 35.6597605, "lon": 139.7502914, "title": "お台場の石垣石" }, "geometry": { "type": "Point", "coordinates": [ 139.7502914, 35.6597605 ] } },
{ "type": "Feature", "properties": { "lat": 35.6558022, "lon": 139.7376308, "title": "一の橋公園" }, "geometry": { "type": "Point", "coordinates": [ 139.7376308, 35.6558022 ] } },
{ "type": "Feature", "properties": { "lat": 35.6587945, "lon": 139.7456038, "title": "東京タワー メインデッキ" }, "geometry": { "type": "Point", "coordinates": [ 139.7456038, 35.6587945 ] } },
{ "type": "Feature", "properties": { "lat": 35.6347121, "lon": 139.744469, "title": "アース君" }, "geometry": { "type": "Point", "coordinates": [ 139.744469, 35.6347121 ] } },
{ "type": "Feature", "properties": { "lat": 35.6240903, "lon": 139.7468994, "title": "港南公園Ｄ面" }, "geometry": { "type": "Point", "coordinates": [ 139.7468994, 35.6240903 ] } },
{ "type": "Feature", "properties": { "lat": 35.6312103, "lon": 139.7531674, "title": "港南大橋" }, "geometry": { "type": "Point", "coordinates": [ 139.7531674, 35.6312103 ] } },
{ "type": "Feature", "properties": { "lat": 35.6299077, "lon": 139.7421423, "title": "こうなん星の公園" }, "geometry": { "type": "Point", "coordinates": [ 139.742142300000012, 35.6299077 ] } },
{ "type": "Feature", "properties": { "lat": 35.6296882, "lon": 139.7430696, "title": "\"PWM.\" WA!moto. motoka watanabe" }, "geometry": { "type": "Point", "coordinates": [ 139.743069600000013, 35.6296882 ] } },
{ "type": "Feature", "properties": { "lat": 35.6277166, "lon": 139.7414768, "title": "港区立汐の公園" }, "geometry": { "type": "Point", "coordinates": [ 139.741476799999987, 35.6277166 ] } },
{ "type": "Feature", "properties": { "lat": 35.631704, "lon": 139.7521622, "title": "ベイブリーズガーデン" }, "geometry": { "type": "Point", "coordinates": [ 139.752162199999987, 35.631704 ] } },
{ "type": "Feature", "properties": { "lat": 35.628609, "lon": 139.7352704, "title": "いちょう坂" }, "geometry": { "type": "Point", "coordinates": [ 139.7352704, 35.628609 ] } },
{ "type": "Feature", "properties": { "lat": 35.6338872, "lon": 139.7425522, "title": "港区立芝浦中央公園" }, "geometry": { "type": "Point", "coordinates": [ 139.7425522, 35.6338872 ] } },
{ "type": "Feature", "properties": { "lat": 35.6302343, "lon": 139.743555, "title": "渡邉庄吉氏之像" }, "geometry": { "type": "Point", "coordinates": [ 139.743555, 35.6302343 ] } },
{ "type": "Feature", "properties": { "lat": 35.6264849, "lon": 139.7412977, "title": "品川セントラルガーデン" }, "geometry": { "type": "Point", "coordinates": [ 139.7412977, 35.6264849 ] } },
{ "type": "Feature", "properties": { "lat": 35.6286301, "lon": 139.7513278, "title": "港南緑水公園" }, "geometry": { "type": "Point", "coordinates": [ 139.751327800000013, 35.6286301 ] } },
{ "type": "Feature", "properties": { "lat": 35.6334842, "lon": 139.7502364, "title": "港南三丁目遊び場" }, "geometry": { "type": "Point", "coordinates": [ 139.7502364, 35.6334842 ] } },
{ "type": "Feature", "properties": { "lat": 35.6302578, "lon": 139.7483482, "title": "港南和楽公園" }, "geometry": { "type": "Point", "coordinates": [ 139.7483482, 35.6302578 ] } },
{ "type": "Feature", "properties": { "lat": 35.6334677, "lon": 139.7508636, "title": "第一芝浦丸" }, "geometry": { "type": "Point", "coordinates": [ 139.7508636, 35.6334677 ] } },
{ "type": "Feature", "properties": { "lat": 35.6406572, "lon": 139.7450418, "title": "新芝運河沿緑地" }, "geometry": { "type": "Point", "coordinates": [ 139.7450418, 35.6406572 ] } },
{ "type": "Feature", "properties": { "lat": 35.6378623, "lon": 139.7591054, "title": "レインボーブリッジ遊歩道" }, "geometry": { "type": "Point", "coordinates": [ 139.75910540000001, 35.6378623 ] } },
{ "type": "Feature", "properties": { "lat": 35.6579648, "lon": 139.7509898, "title": "浅岡飯炊きの井" }, "geometry": { "type": "Point", "coordinates": [ 139.750989800000013, 35.6579648 ] } },
{ "type": "Feature", "properties": { "lat": 35.6552683, "lon": 139.7479123, "title": "伊能忠敬測地遺功表" }, "geometry": { "type": "Point", "coordinates": [ 139.7479123, 35.6552683 ] } },
{ "type": "Feature", "properties": { "lat": 35.6425662, "lon": 139.7375241, "title": "魚籃寺" }, "geometry": { "type": "Point", "coordinates": [ 139.7375241, 35.6425662 ] } },
{ "type": "Feature", "properties": { "lat": 35.6377397, "lon": 139.7364006, "title": "泉岳寺" }, "geometry": { "type": "Point", "coordinates": [ 139.7364006, 35.6377397 ] } },
{ "type": "Feature", "properties": { "lat": 35.6557099, "lon": 139.7438591, "title": "飯倉公園" }, "geometry": { "type": "Point", "coordinates": [ 139.7438591, 35.6557099 ] } },
{ "type": "Feature", "properties": { "lat": 35.6537918, "lon": 139.7575461, "title": "ガス創業の地" }, "geometry": { "type": "Point", "coordinates": [ 139.757546100000013, 35.6537918 ] } },
{ "type": "Feature", "properties": { "lat": 35.6544591, "lon": 139.7355369, "title": "網代公園" }, "geometry": { "type": "Point", "coordinates": [ 139.7355369, 35.6544591 ] } },
{ "type": "Feature", "properties": { "lat": 35.6306374, "lon": 139.7549427, "title": "品川北ふ頭公園" }, "geometry": { "type": "Point", "coordinates": [ 139.754942699999987, 35.6306374 ] } },
{ "type": "Feature", "properties": { "lat": 35.6251588, "lon": 139.7412034, "title": "港区立杜の公園" }, "geometry": { "type": "Point", "coordinates": [ 139.741203399999989, 35.6251588 ] } },
{ "type": "Feature", "properties": { "lat": 35.6293391, "lon": 139.7377735, "title": "品川駅創業記念碑" }, "geometry": { "type": "Point", "coordinates": [ 139.7377735, 35.6293391 ] } },
{ "type": "Feature", "properties": { "lat": 35.6274059, "lon": 139.7464827, "title": "港南公園Ｂ面" }, "geometry": { "type": "Point", "coordinates": [ 139.7464827, 35.6274059 ] } },
{ "type": "Feature", "properties": { "lat": 35.6275253, "lon": 139.7482086, "title": "東京海洋大学マリンサイエンスミュージアム" }, "geometry": { "type": "Point", "coordinates": [ 139.7482086, 35.6275253 ] } },
{ "type": "Feature", "properties": { "lat": 35.6456509, "lon": 139.7535798, "title": "芝浦の御衣黄桜" }, "geometry": { "type": "Point", "coordinates": [ 139.753579800000011, 35.6456509 ] } },
{ "type": "Feature", "properties": { "lat": 35.6415064, "lon": 139.753208, "title": "芝浦桟橋" }, "geometry": { "type": "Point", "coordinates": [ 139.753208, 35.6415064 ] } },
{ "type": "Feature", "properties": { "lat": 35.6407996, "lon": 139.7481506, "title": "トリニティー芝浦緑地" }, "geometry": { "type": "Point", "coordinates": [ 139.7481506, 35.6407996 ] } },
{ "type": "Feature", "properties": { "lat": 35.6405246, "lon": 139.752181, "title": "プラタナス公園" }, "geometry": { "type": "Point", "coordinates": [ 139.752181, 35.6405246 ] } },
{ "type": "Feature", "properties": { "lat": 35.6405127, "lon": 139.7530997, "title": "汐彩橋" }, "geometry": { "type": "Point", "coordinates": [ 139.7530997, 35.6405127 ] } },
{ "type": "Feature", "properties": { "lat": 35.6368391, "lon": 139.7466258, "title": "高浜橋" }, "geometry": { "type": "Point", "coordinates": [ 139.7466258, 35.6368391 ] } },
{ "type": "Feature", "properties": { "lat": 35.6373568, "lon": 139.7367212, "title": "首洗い井戸" }, "geometry": { "type": "Point", "coordinates": [ 139.7367212, 35.6373568 ] } },
{ "type": "Feature", "properties": { "lat": 35.6660168, "lon": 139.7614997, "title": "旧新橋停車場 鉄道歴史展示室" }, "geometry": { "type": "Point", "coordinates": [ 139.7614997, 35.6660168 ] } },
{ "type": "Feature", "properties": { "lat": 35.6630596, "lon": 139.7548939, "title": "塩釜公園" }, "geometry": { "type": "Point", "coordinates": [ 139.754893900000013, 35.6630596 ] } },
{ "type": "Feature", "properties": { "lat": 35.6674348, "lon": 139.7553705, "title": "送水口博物館" }, "geometry": { "type": "Point", "coordinates": [ 139.7553705, 35.6674348 ] } },
{ "type": "Feature", "properties": { "lat": 35.6628624, "lon": 139.748567, "title": "萬年山 青松寺" }, "geometry": { "type": "Point", "coordinates": [ 139.748567, 35.6628624 ] } },
{ "type": "Feature", "properties": { "lat": 35.6702472, "lon": 139.7527793, "title": "Japanese Sake Information Centre" }, "geometry": { "type": "Point", "coordinates": [ 139.752779299999986, 35.6702472 ] } },
{ "type": "Feature", "properties": { "lat": 35.6610507, "lon": 139.7438929, "title": "Tokyo Tower view point" }, "geometry": { "type": "Point", "coordinates": [ 139.7438929, 35.6610507 ] } },
{ "type": "Feature", "properties": { "lat": 35.6585805, "lon": 139.7454329, "title": "東京タワー" }, "geometry": { "type": "Point", "coordinates": [ 139.7454329, 35.6585805 ] } },
{ "type": "Feature", "properties": { "lat": 35.6727172, "lon": 139.7205745, "title": "外苑いちょう並木" }, "geometry": { "type": "Point", "coordinates": [ 139.7205745, 35.6727172 ] } },
{ "type": "Feature", "properties": { "lat": 35.6709544, "lon": 139.7248, "title": "港区立青葉公園" }, "geometry": { "type": "Point", "coordinates": [ 139.7248, 35.6709544 ] } },
{ "type": "Feature", "properties": { "lat": 35.6629909, "lon": 139.7220253, "title": "大和田建樹の墓" }, "geometry": { "type": "Point", "coordinates": [ 139.722025300000013, 35.6629909 ] } },
{ "type": "Feature", "properties": { "lat": 35.661308, "lon": 139.715583, "title": "岡本太郎記念館" }, "geometry": { "type": "Point", "coordinates": [ 139.715583, 35.661308 ] } },
{ "type": "Feature", "properties": { "lat": 35.6678032, "lon": 139.7169221, "title": "南青山三丁目緑地" }, "geometry": { "type": "Point", "coordinates": [ 139.7169221, 35.6678032 ] } },
{ "type": "Feature", "properties": { "lat": 35.6656277, "lon": 139.7220659, "title": "青山霊園" }, "geometry": { "type": "Point", "coordinates": [ 139.7220659, 35.6656277 ] } },
{ "type": "Feature", "properties": { "lat": 35.6635688, "lon": 139.7247901, "title": "青山公園（南地区）" }, "geometry": { "type": "Point", "coordinates": [ 139.7247901, 35.6635688 ] } },
{ "type": "Feature", "properties": { "lat": 35.6674967, "lon": 139.7267444, "title": "TOTOギャラリー・間" }, "geometry": { "type": "Point", "coordinates": [ 139.7267444, 35.6674967 ] } },
{ "type": "Feature", "properties": { "lat": 35.6624053, "lon": 139.7133204, "title": "恐竜博士" }, "geometry": { "type": "Point", "coordinates": [ 139.713320399999986, 35.6624053 ] } },
{ "type": "Feature", "properties": { "lat": 35.661573, "lon": 139.7176565, "title": "弘仁亭・無事庵" }, "geometry": { "type": "Point", "coordinates": [ 139.7176565, 35.661573 ] } },
{ "type": "Feature", "properties": { "lat": 35.6665433, "lon": 139.71237, "title": "浄土宗 南命山 善光寺" }, "geometry": { "type": "Point", "coordinates": [ 139.71237, 35.6665433 ] } },
{ "type": "Feature", "properties": { "lat": 35.6599599, "lon": 139.7143401, "title": "南青山六丁目児童遊園" }, "geometry": { "type": "Point", "coordinates": [ 139.714340099999987, 35.6599599 ] } },
{ "type": "Feature", "properties": { "lat": 35.6679674, "lon": 139.7274786, "title": "乃木公園" }, "geometry": { "type": "Point", "coordinates": [ 139.727478600000012, 35.6679674 ] } },
{ "type": "Feature", "properties": { "lat": 35.6622028, "lon": 139.7116376, "title": "Botanicaflower SCHOOL [東京南青山]" }, "geometry": { "type": "Point", "coordinates": [ 139.711637599999989, 35.6622028 ] } },
{ "type": "Feature", "properties": { "lat": 35.664386, "lon": 139.7203384, "title": "青山橋" }, "geometry": { "type": "Point", "coordinates": [ 139.7203384, 35.664386 ] } },
{ "type": "Feature", "properties": { "lat": 35.6599304, "lon": 139.7179445, "title": "紅ミュージアム" }, "geometry": { "type": "Point", "coordinates": [ 139.717944499999987, 35.6599304 ] } },
{ "type": "Feature", "properties": { "lat": 35.6638362, "lon": 139.7116307, "title": "高野長英隠れ家跡" }, "geometry": { "type": "Point", "coordinates": [ 139.7116307, 35.6638362 ] } },
{ "type": "Feature", "properties": { "lat": 35.673673, "lon": 139.7288999, "title": "高橋是清翁記念公園" }, "geometry": { "type": "Point", "coordinates": [ 139.728899899999988, 35.673673 ] } },
{ "type": "Feature", "properties": { "lat": 35.6700458, "lon": 139.72295, "title": "崑崙山 玉窓寺" }, "geometry": { "type": "Point", "coordinates": [ 139.72295, 35.6700458 ] } },
{ "type": "Feature", "properties": { "lat": 35.6688249, "lon": 139.7279607, "title": "乃木神社" }, "geometry": { "type": "Point", "coordinates": [ 139.727960700000011, 35.6688249 ] } },
{ "type": "Feature", "properties": { "lat": 35.6730443, "lon": 139.7166981, "title": "TEPIA 先端技術館" }, "geometry": { "type": "Point", "coordinates": [ 139.7166981, 35.6730443 ] } },
{ "type": "Feature", "properties": { "lat": 35.6672495, "lon": 139.7304848, "title": "ミッドタウン・ガーデン" }, "geometry": { "type": "Point", "coordinates": [ 139.7304848, 35.6672495 ] } },
{ "type": "Feature", "properties": { "lat": 35.6603225, "lon": 139.7304934, "title": "毛利庭園" }, "geometry": { "type": "Point", "coordinates": [ 139.7304934, 35.6603225 ] } },
{ "type": "Feature", "properties": { "lat": 35.6691445, "lon": 139.7347068, "title": "勝海舟邸跡" }, "geometry": { "type": "Point", "coordinates": [ 139.7347068, 35.6691445 ] } },
{ "type": "Feature", "properties": { "lat": 35.6669098, "lon": 139.732213, "title": "檜町公園" }, "geometry": { "type": "Point", "coordinates": [ 139.732213, 35.6669098 ] } },
{ "type": "Feature", "properties": { "lat": 35.6633551, "lon": 139.7298333, "title": "六本木西公園" }, "geometry": { "type": "Point", "coordinates": [ 139.7298333, 35.6633551 ] } },
{ "type": "Feature", "properties": { "lat": 35.6708108, "lon": 139.7334276, "title": "一ツ木公園" }, "geometry": { "type": "Point", "coordinates": [ 139.7334276, 35.6708108 ] } },
{ "type": "Feature", "properties": { "lat": 35.6758439, "lon": 139.7339671, "title": "牛鳴坂" }, "geometry": { "type": "Point", "coordinates": [ 139.7339671, 35.6758439 ] } },
{ "type": "Feature", "properties": { "lat": 35.6722658, "lon": 139.7237512, "title": "ホンダウエルカムプラザ 青山" }, "geometry": { "type": "Point", "coordinates": [ 139.7237512, 35.6722658 ] } },
{ "type": "Feature", "properties": { "lat": 35.663374, "lon": 139.717637, "title": "秋山庄太郎写真芸術館" }, "geometry": { "type": "Point", "coordinates": [ 139.717637, 35.663374 ] } },
{ "type": "Feature", "properties": { "lat": 35.6637995, "lon": 139.7134728, "title": "Rat Hole Gallery" }, "geometry": { "type": "Point", "coordinates": [ 139.7134728, 35.6637995 ] } },
{ "type": "Feature", "properties": { "lat": 35.676217, "lon": 139.7327907, "title": "豊川稲荷縁起説明板" }, "geometry": { "type": "Point", "coordinates": [ 139.73279070000001, 35.676217 ] } },
{ "type": "Feature", "properties": { "lat": 35.6725379, "lon": 139.7357921, "title": "Harry Potter 階段とタイムターナー" }, "geometry": { "type": "Point", "coordinates": [ 139.7357921, 35.6725379 ] } },
{ "type": "Feature", "properties": { "lat": 35.6711984, "lon": 139.7335169, "title": "三分坂" }, "geometry": { "type": "Point", "coordinates": [ 139.733516900000012, 35.6711984 ] } },
{ "type": "Feature", "properties": { "lat": 35.6689449, "lon": 139.736234, "title": "氷川坂" }, "geometry": { "type": "Point", "coordinates": [ 139.736234, 35.6689449 ] } },
{ "type": "Feature", "properties": { "lat": 35.6764056, "lon": 139.73285, "title": "豊川稲荷東京別院" },