{
  "type" : "FeatureCollection",
  "features" : [{"type":"Feature","id":1,"geometry":{"type":"Point","coordinates":[139.70090100000004,35.647516000000053]},"properties":{"OBJECTID":1,"name":"旧朝倉家住宅","lon":139.70090099999999,"lat":35.647516000000003}},{"type":"Feature","id":2,"geometry":{"type":"Point","coordinates":[139.78753600000005,35.676297000000034]},"properties":{"OBJECTID":2,"name":"永代橋","lon":139.78753599999999,"lat":35.676296999999998}},{"type":"Feature","id":3,"geometry":{"type":"Point","coordinates":[139.75259300000005,35.692766000000063]},"properties":{"OBJECTID":3,"name":"旧江戸城清水門","lon":139.75259299999999,"lat":35.692765999999999}},{"type":"Feature","id":4,"geometry":{"type":"Point","coordinates":[139.75259300000005,35.692766000000063]},"properties":{"OBJECTID":4,"name":"旧江戸城清水門","lon":139.75259299999999,"lat":35.692765999999999}},{"type":"Feature","id":5,"geometry":{"type":"Point","coordinates":[139.75379300000009,35.678623000000073]},"properties":{"OBJECTID":5,"name":"旧江戸城外桜田門","lon":139.753793,"lat":35.678623000000002}},{"type":"Feature","id":6,"geometry":{"type":"Point","coordinates":[139.75259300000005,35.692766000000063]},"properties":{"OBJECTID":6,"name":"旧江戸城田安門","lon":139.75259299999999,"lat":35.692765999999999}},{"type":"Feature","id":7,"geometry":{"type":"Point","coordinates":[139.70911500000011,35.707206000000042]},"properties":{"OBJECTID":7,"name":"学習院旧正門","lon":139.709115,"lat":35.707205999999999}},{"type":"Feature","id":8,"geometry":{"type":"Point","coordinates":[139.77491800000007,35.662235000000067]},"properties":{"OBJECTID":8,"name":"勝鬨橋","lon":139.77491800000001,"lat":35.662235000000003}},{"type":"Feature","id":9,"geometry":{"type":"Point","coordinates":[139.72081300000002,35.635675000000049]},"properties":{"OBJECTID":9,"name":"旧朝香宮邸","lon":139.72081299999999,"lat":35.635674999999999}},{"type":"Feature","id":10,"geometry":{"type":"Point","coordinates":[139.72081300000002,35.635675000000049]},"properties":{"OBJECTID":10,"name":"旧朝香宮邸","lon":139.72081299999999,"lat":35.635674999999999}},{"type":"Feature","id":11,"geometry":{"type":"Point","coordinates":[139.72081300000002,35.635675000000049]},"properties":{"OBJECTID":11,"name":"旧朝香宮邸","lon":139.72081299999999,"lat":35.635674999999999}},{"type":"Feature","id":12,"geometry":{"type":"Point","coordinates":[139.72081300000002,35.635675000000049]},"properties":{"OBJECTID":12,"name":"旧朝香宮邸","lon":139.72081299999999,"lat":35.635674999999999}},{"type":"Feature","id":13,"geometry":{"type":"Point","coordinates":[139.72081300000002,35.635675000000049]},"properties":{"OBJECTID":13,"name":"旧朝香宮邸","lon":139.72081299999999,"lat":35.635674999999999}},{"type":"Feature","id":14,"geometry":{"type":"Point","coordinates":[139.70090100000004,35.647516000000053]},"properties":{"OBJECTID":14,"name":"旧朝倉家住宅","lon":139.70090099999999,"lat":35.647516000000003}},{"type":"Feature","id":15,"geometry":{"type":"Point","coordinates":[139.75379300000009,35.678623000000073]},"properties":{"OBJECTID":15,"name":"旧江戸城外桜田門","lon":139.753793,"lat":35.678623000000002}},{"type":"Feature","id":16,"geometry":{"type":"Point","coordinates":[139.75259300000005,35.692766000000063]},"properties":{"OBJECTID":16,"name":"旧江戸城田安門","lon":139.75259299999999,"lat":35.692765999999999}},{"type":"Feature","id":17,"geometry":{"type":"Point","coordinates":[139.72036800000001,35.654428000000053]},"properties":{"OBJECTID":17,"name":"旧久邇宮邸（聖心女子大学）","lon":139.72036800000001,"lat":35.654428000000003}},{"type":"Feature","id":18,"geometry":{"type":"Point","coordinates":[139.72036800000001,35.654428000000053]},"properties":{"OBJECTID":18,"name":"旧久邇宮邸（聖心女子大学）","lon":139.72036800000001,"lat":35.654428000000003}},{"type":"Feature","id":19,"geometry":{"type":"Point","coordinates":[139.72958900000003,35.630727000000036]},"properties":{"OBJECTID":19,"name":"旧島津家本邸","lon":139.729589,"lat":35.630727}},{"type":"Feature","id":20,"geometry":{"type":"Point","coordinates":[139.72958900000003,35.630727000000036]},"properties":{"OBJECTID":20,"name":"旧島津家本邸","lon":139.729589,"lat":35.630727}},{"type":"Feature","id":21,"geometry":{"type":"Point","coordinates":[139.73849000000007,35.698422000000051]},"properties":{"OBJECTID":21,"name":"旧馬場家牛込邸","lon":139.73849000000001,"lat":35.698422000000001}},{"type":"Feature","id":22,"geometry":{"type":"Point","coordinates":[139.7918820000001,35.682424000000026]},"properties":{"OBJECTID":22,"name":"清洲橋","lon":139.79188199999999,"lat":35.682423999999997}},{"type":"Feature","id":23,"geometry":{"type":"Point","coordinates":[139.74228300000004,35.648298000000068]},"properties":{"OBJECTID":23,"name":"慶応義塾図書館","lon":139.74228299999999,"lat":35.648297999999997}},{"type":"Feature","id":24,"geometry":{"type":"Point","coordinates":[139.74228300000004,35.648298000000068]},"properties":{"OBJECTID":24,"name":"慶応義塾三田演説館","lon":139.74228299999999,"lat":35.648297999999997}},{"type":"Feature","id":25,"geometry":{"type":"Point","coordinates":[139.75259300000005,35.692766000000063]},"properties":{"OBJECTID":25,"name":"旧近衛師団司令部庁舎","lon":139.75259299999999,"lat":35.692765999999999}},{"type":"Feature","id":26,"geometry":{"type":"Point","coordinates":[139.71097800000007,35.686931000000072]},"properties":{"OBJECTID":26,"name":"新宿御苑旧洋館御休所","lon":139.71097800000001,"lat":35.686931000000001}},{"type":"Feature","id":27,"geometry":{"type":"Point","coordinates":[139.74757700000009,35.677866000000051]},"properties":{"OBJECTID":27,"name":"水準原点","lon":139.74757700000001,"lat":35.677866000000002}},{"type":"Feature","id":28,"geometry":{"type":"Point","coordinates":[139.74757700000009,35.677866000000051]},"properties":{"OBJECTID":28,"name":"水準原点","lon":139.74757700000001,"lat":35.677866000000002}},{"type":"Feature","id":29,"geometry":{"type":"Point","coordinates":[139.72693300000003,35.637294000000054]},"properties":{"OBJECTID":29,"name":"瑞聖寺大雄宝殿","lon":139.726933,"lat":35.637293999999997}},{"type":"Feature","id":30,"geometry":{"type":"Point","coordinates":[139.7176300000001,35.678772000000038]},"properties":{"OBJECTID":30,"name":"聖徳記念絵画館","lon":139.71763000000001,"lat":35.678772000000002}},{"type":"Feature","id":31,"geometry":{"type":"Point","coordinates":[139.75002700000005,35.657245000000046]},"properties":{"OBJECTID":31,"name":"増上寺三解脱門","lon":139.75002699999999,"lat":35.657245000000003}},{"type":"Feature","id":32,"geometry":{"type":"Point","coordinates":[139.74983800000007,35.656134000000065]},"properties":{"OBJECTID":32,"name":"旧台徳院霊廟惣門","lon":139.74983800000001,"lat":35.656134000000002}},{"type":"Feature","id":33,"geometry":{"type":"Point","coordinates":[139.77347800000007,35.680783000000076]},"properties":{"OBJECTID":33,"name":"髙島屋東京店","lon":139.77347800000001,"lat":35.680782999999998}},{"type":"Feature","id":34,"geometry":{"type":"Point","coordinates":[139.80060800000001,35.671857000000045]},"properties":{"OBJECTID":34,"name":"旧弾正橋（八幡橋）","lon":139.80060800000001,"lat":35.671857000000003}},{"type":"Feature","id":35,"geometry":{"type":"Point","coordinates":[139.77227200000004,35.666512000000068]},"properties":{"OBJECTID":35,"name":"築地本願寺本堂","lon":139.77227199999999,"lat":35.666511999999997}},{"type":"Feature","id":36,"geometry":{"type":"Point","coordinates":[139.76601000000005,35.681384000000037]},"properties":{"OBJECTID":36,"name":"東京駅丸ノ内本屋","lon":139.76600999999999,"lat":35.681384000000001}},{"type":"Feature","id":37,"geometry":{"type":"Point","coordinates":[139.72875800000008,35.680217000000027]},"properties":{"OBJECTID":37,"name":"旧東宮御所（迎賓館赤坂離宮）","lon":139.728758,"lat":35.680216999999999}},{"type":"Feature","id":38,"geometry":{"type":"Point","coordinates":[139.77154000000007,35.686562000000038]},"properties":{"OBJECTID":38,"name":"日本銀行本店本館","lon":139.77153999999999,"lat":35.686562000000002}},{"type":"Feature","id":39,"geometry":{"type":"Point","coordinates":[139.77449300000012,35.684057000000053]},"properties":{"OBJECTID":39,"name":"日本橋","lon":139.77449300000001,"lat":35.684057000000003}},{"type":"Feature","id":40,"geometry":{"type":"Point","coordinates":[139.76554500000009,35.697994000000051]},"properties":{"OBJECTID":40,"name":"日本ハリストス正教会教団復活大聖堂（ニコライ堂）","lon":139.765545,"lat":35.697994000000001}},{"type":"Feature","id":41,"geometry":{"type":"Point","coordinates":[139.73348600000008,35.675128000000029]},"properties":{"OBJECTID":41,"name":"武家屋敷門","lon":139.733486,"lat":35.675128000000001}},{"type":"Feature","id":42,"geometry":{"type":"Point","coordinates":[139.71002200000009,35.626408000000026]},"properties":{"OBJECTID":42,"name":"宝篋印塔","lon":139.71002200000001,"lat":35.626407999999998}},{"type":"Feature","id":43,"geometry":{"type":"Point","coordinates":[139.71002200000009,35.626408000000026]},"properties":{"OBJECTID":43,"name":"宝篋印塔","lon":139.71002200000001,"lat":35.626407999999998}},{"type":"Feature","id":44,"geometry":{"type":"Point","coordinates":[139.75338900000008,35.676402000000053]},"properties":{"OBJECTID":44,"name":"法務省旧本館","lon":139.753389,"lat":35.676402000000003}},{"type":"Feature","id":45,"geometry":{"type":"Point","coordinates":[139.73348600000008,35.675128000000029]},"properties":{"OBJECTID":45,"name":"三井本館","lon":139.733486,"lat":35.675128000000001}},{"type":"Feature","id":46,"geometry":{"type":"Point","coordinates":[139.77335200000005,35.68559700000003]},"properties":{"OBJECTID":46,"name":"三越日本橋本店","lon":139.77335199999999,"lat":35.685597000000001}},{"type":"Feature","id":47,"geometry":{"type":"Point","coordinates":[139.73111500000005,35.636790000000076]},"properties":{"OBJECTID":47,"name":"明治学院インブリー館","lon":139.73111499999999,"lat":35.636789999999998}},{"type":"Feature","id":48,"geometry":{"type":"Point","coordinates":[139.70260500000006,35.673008000000038]},"properties":{"OBJECTID":48,"name":"明治神宮","lon":139.70260500000001,"lat":35.673008000000003}},{"type":"Feature","id":49,"geometry":{"type":"Point","coordinates":[139.70260500000006,35.673008000000038]},"properties":{"OBJECTID":49,"name":"明治神宮","lon":139.70260500000001,"lat":35.673008000000003}},{"type":"Feature","id":50,"geometry":{"type":"Point","coordinates":[139.70260500000006,35.673008000000038]},"properties":{"OBJECTID":50,"name":"明治神宮","lon":139.70260500000001,"lat":35.673008000000003}},{"type":"Feature","id":51,"geometry":{"type":"Point","coordinates":[139.70260500000006,35.673008000000038]},"properties":{"OBJECTID":51,"name":"明治神宮","lon":139.70260500000001,"lat":35.673008000000003}},{"type":"Feature","id":52,"geometry":{"type":"Point","coordinates":[139.70260500000006,35.673008000000038]},"properties":{"OBJECTID":52,"name":"明治神宮","lon":139.70260500000001,"lat":35.673008000000003}},{"type":"Feature","id":53,"geometry":{"type":"Point","coordinates":[139.70260500000006,35.673008000000038]},"properties":{"OBJECTID":53,"name":"明治神宮","lon":139.70260500000001,"lat":35.673008000000003}},{"type":"Feature","id":54,"geometry":{"type":"Point","coordinates":[139.70260500000006,35.673008000000038]},"properties":{"OBJECTID":54,"name":"明治神宮","lon":139.70260500000001,"lat":35.673008000000003}},{"type":"Feature","id":55,"geometry":{"type":"Point","coordinates":[139.70260500000006,35.673008000000038]},"properties":{"OBJECTID":55,"name":"明治神宮","lon":139.70260500000001,"lat":35.673008000000003}},{"type":"Feature","id":56,"geometry":{"type":"Point","coordinates":[139.70260500000006,35.673008000000038]},"properties":{"OBJECTID":56,"name":"明治神宮","lon":139.70260500000001,"lat":35.673008000000003}},{"type":"Feature","id":57,"geometry":{"type":"Point","coordinates":[139.70260500000006,35.673008000000038]},"properties":{"OBJECTID":57,"name":"明治神宮","lon":139.70260500000001,"lat":35.673008000000003}},{"type":"Feature","id":58,"geometry":{"type":"Point","coordinates":[139.70260500000006,35.673008000000038]},"properties":{"OBJECTID":58,"name":"明治神宮","lon":139.70260500000001,"lat":35.673008000000003}},{"type":"Feature","id":59,"geometry":{"type":"Point","coordinates":[139.70260500000006,35.673008000000038]},"properties":{"OBJECTID":59,"name":"明治神宮","lon":139.70260500000001,"lat":35.673008000000003}},{"type":"Feature","id":60,"geometry":{"type":"Point","coordinates":[139.70260500000006,35.673008000000038]},"properties":{"OBJECTID":60,"name":"明治神宮","lon":139.70260500000001,"lat":35.673008000000003}},{"type":"Feature","id":61,"geometry":{"type":"Point","coordinates":[139.70260500000006,35.673008000000038]},"properties":{"OBJECTID":61,"name":"明治神宮","lon":139.70260500000001,"lat":35.673008000000003}},{"type":"Feature","id":62,"geometry":{"type":"Point","coordinates":[139.70260500000006,35.673008000000038]},"properties":{"OBJECTID":62,"name":"明治神宮","lon":139.70260500000001,"lat":35.673008000000003}},{"type":"Feature","id":63,"geometry":{"type":"Point","coordinates":[139.70260500000006,35.673008000000038]},"properties":{"OBJECTID":63,"name":"明治神宮","lon":139.70260500000001,"lat":35.673008000000003}},{"type":"Feature","id":64,"geometry":{"type":"Point","coordinates":[139.70260500000006,35.673008000000038]},"properties":{"OBJECTID":64,"name":"明治神宮","lon":139.70260500000001,"lat":35.673008000000003}},{"type":"Feature","id":65,"geometry":{"type":"Point","coordinates":[139.70260500000006,35.673008000000038]},"properties":{"OBJECTID":65,"name":"明治神宮","lon":139.70260500000001,"lat":35.673008000000003}},{"type":"Feature","id":66,"geometry":{"type":"Point","coordinates":[139.70260500000006,35.673008000000038]},"properties":{"OBJECTID":66,"name":"明治神宮","lon":139.70260500000001,"lat":35.673008000000003}},{"type":"Feature","id":67,"geometry":{"type":"Point","coordinates":[139.70260500000006,35.673008000000038]},"properties":{"OBJECTID":67,"name":"明治神宮","lon":139.70260500000001,"lat":35.673008000000003}},{"type":"Feature","id":68,"geometry":{"type":"Point","coordinates":[139.70260500000006,35.673008000000038]},"properties":{"OBJECTID":68,"name":"明治神宮","lon":139.70260500000001,"lat":35.673008000000003}},{"type":"Feature","id":69,"geometry":{"type":"Point","coordinates":[139.70260500000006,35.673008000000038]},"properties":{"OBJECTID":69,"name":"明治神宮","lon":139.70260500000001,"lat":35.673008000000003}},{"type":"Feature","id":70,"geometry":{"type":"Point","coordinates":[139.70260500000006,35.673008000000038]},"properties":{"OBJECTID":70,"name":"明治神宮","lon":139.70260500000001,"lat":35.673008000000003}},{"type":"Feature","id":71,"geometry":{"type":"Point","coordinates":[139.70260500000006,35.673008000000038]},"properties":{"OBJECTID":71,"name":"明治神宮","lon":139.70260500000001,"lat":35.673008000000003}},{"type":"Feature","id":72,"geometry":{"type":"Point","coordinates":[139.70260500000006,35.673008000000038]},"properties":{"OBJECTID":72,"name":"明治神宮","lon":139.70260500000001,"lat":35.673008000000003}},{"type":"Feature","id":73,"geometry":{"type":"Point","coordinates":[139.70260500000006,35.673008000000038]},"properties":{"OBJECTID":73,"name":"明治神宮","lon":139.70260500000001,"lat":35.673008000000003}},{"type":"Feature","id":74,"geometry":{"type":"Point","coordinates":[139.70260500000006,35.673008000000038]},"properties":{"OBJECTID":74,"name":"明治神宮","lon":139.70260500000001,"lat":35.673008000000003}},{"type":"Feature","id":75,"geometry":{"type":"Point","coordinates":[139.70260500000006,35.673008000000038]},"properties":{"OBJECTID":75,"name":"明治神宮","lon":139.70260500000001,"lat":35.673008000000003}},{"type":"Feature","id":76,"geometry":{"type":"Point","coordinates":[139.70260500000006,35.673008000000038]},"properties":{"OBJECTID":76,"name":"明治神宮","lon":139.70260500000001,"lat":35.673008000000003}},{"type":"Feature","id":77,"geometry":{"type":"Point","coordinates":[139.70260500000006,35.673008000000038]},"properties":{"OBJECTID":77,"name":"明治神宮","lon":139.70260500000001,"lat":35.673008000000003}},{"type":"Feature","id":78,"geometry":{"type":"Point","coordinates":[139.70260500000006,35.673008000000038]},"properties":{"OBJECTID":78,"name":"明治神宮","lon":139.70260500000001,"lat":35.673008000000003}},{"type":"Feature","id":79,"geometry":{"type":"Point","coordinates":[139.70260500000006,35.673008000000038]},"properties":{"OBJECTID":79,"name":"明治神宮","lon":139.70260500000001,"lat":35.673008000000003}},{"type":"Feature","id":80,"geometry":{"type":"Point","coordinates":[139.70260500000006,35.673008000000038]},"properties":{"OBJECTID":80,"name":"明治神宮","lon":139.70260500000001,"lat":35.673008000000003}},{"type":"Feature","id":81,"geometry":{"type":"Point","coordinates":[139.70260500000006,35.673008000000038]},"properties":{"OBJECTID":81,"name":"明治神宮","lon":139.70260500000001,"lat":35.673008000000003}},{"type":"Feature","id":82,"geometry":{"type":"Point","coordinates":[139.70260500000006,35.673008000000038]},"properties":{"OBJECTID":82,"name":"明治神宮","lon":139.70260500000001,"lat":35.673008000000003}},{"type":"Feature","id":83,"geometry":{"type":"Point","coordinates":[139.70260500000006,35.673008000000038]},"properties":{"OBJECTID":83,"name":"明治神宮","lon":139.70260500000001,"lat":35.673008000000003}},{"type":"Feature","id":84,"geometry":{"type":"Point","coordinates":[139.69811500000003,35.679583000000036]},"properties":{"OBJECTID":84,"name":"明治神宮宝物殿","lon":139.698115,"lat":35.679583000000001}},{"type":"Feature","id":85,"geometry":{"type":"Point","coordinates":[139.69811500000003,35.679583000000036]},"properties":{"OBJECTID":85,"name":"明治神宮宝物殿","lon":139.698115,"lat":35.679583000000001}},{"type":"Feature","id":86,"geometry":{"type":"Point","coordinates":[139.69811500000003,35.679583000000036]},"properties":{"OBJECTID":86,"name":"明治神宮宝物殿","lon":139.698115,"lat":35.679583000000001}},{"type":"Feature","id":87,"geometry":{"type":"Point","coordinates":[139.69811500000003,35.679583000000036]},"properties":{"OBJECTID":87,"name":"明治神宮宝物殿","lon":139.698115,"lat":35.679583000000001}},{"type":"Feature","id":88,"geometry":{"type":"Point","coordinates":[139.69811500000003,35.679583000000036]},"properties":{"OBJECTID":88,"name":"明治神宮宝物殿","lon":139.698115,"lat":35.679583000000001}},{"type":"Feature","id":89,"geometry":{"type":"Point","coordinates":[139.69811500000003,35.679583000000036]},"properties":{"OBJECTID":89,"name":"明治神宮宝物殿","lon":139.698115,"lat":35.679583000000001}},{"type":"Feature","id":90,"geometry":{"type":"Point","coordinates":[139.69811500000003,35.679583000000036]},"properties":{"OBJECTID":90,"name":"明治神宮宝物殿","lon":139.698115,"lat":35.679583000000001}},{"type":"Feature","id":91,"geometry":{"type":"Point","coordinates":[139.69811500000003,35.679583000000036]},"properties":{"OBJECTID":91,"name":"明治神宮宝物殿","lon":139.698115,"lat":35.679583000000001}},{"type":"Feature","id":92,"geometry":{"type":"Point","coordinates":[139.69811500000003,35.679583000000036]},"properties":{"OBJECTID":92,"name":"明治神宮宝物殿","lon":139.698115,"lat":35.679583000000001}},{"type":"Feature","id":93,"geometry":{"type":"Point","coordinates":[139.69811500000003,35.679583000000036]},"properties":{"OBJECTID":93,"name":"明治神宮宝物殿","lon":139.698115,"lat":35.679583000000001}},{"type":"Feature","id":94,"geometry":{"type":"Point","coordinates":[139.69811500000003,35.679583000000036]},"properties":{"OBJECTID":94,"name":"明治神宮宝物殿","lon":139.698115,"lat":35.679583000000001}},{"type":"Feature","id":95,"geometry":{"type":"Point","coordinates":[139.69811500000003,35.679583000000036]},"properties":{"OBJECTID":95,"name":"明治神宮宝物殿","lon":139.698115,"lat":35.679583000000001}},{"type":"Feature","id":96,"geometry":{"type":"Point","coordinates":[139.69811500000003,35.679583000000036]},"properties":{"OBJECTID":96,"name":"明治神宮宝物殿","lon":139.698115,"lat":35.679583000000001}},{"type":"Feature","id":97,"geometry":{"type":"Point","coordinates":[139.76163200000008,35.678965000000062]},"properties":{"OBJECTID":97,"name":"明治生命保険相互会社本社本館","lon":139.76163199999999,"lat":35.678964999999998}},{"type":"Feature","id":98,"geometry":{"type":"Point","coordinates":[139.79314000000011,35.666590000000042]},"properties":{"OBJECTID":98,"name":"明治丸","lon":139.79313999999999,"lat":35.666589999999999}},{"type":"Feature","id":99,"geometry":{"type":"Point","coordinates":[139.75036200000011,35.659156000000053]},"properties":{"OBJECTID":99,"name":"有章院（徳川家継）霊廟二天門","lon":139.750362,"lat":35.659156000000003}},{"type":"Feature","id":100,"geometry":{"type":"Point","coordinates":[139.6985810000001,35.666472000000056]},"properties":{"OBJECTID":100,"name":"代々木競技場","lon":139.69858099999999,"lat":35.666471999999999}},{"type":"Feature","id":101,"geometry":{"type":"Point","coordinates":[139.6985810000001,35.666472000000056]},"properties":{"OBJECTID":101,"name":"代々木競技場","lon":139.69858099999999,"lat":35.666471999999999}},{"type":"Feature","id":102,"geometry":{"type":"Point","coordinates":[139.72153600000001,35.70891400000005]},"properties":{"OBJECTID":102,"name":"早稲田大学大隈記念講堂","lon":139.72153599999999,"lat":35.708914}},{"type":"Feature","id":103,"geometry":{"type":"Point","coordinates":[139.76111000000003,35.676759000000061]},"properties":{"OBJECTID":103,"name":"赤楽兎文香合〈光悦作／〉","lon":139.76111,"lat":35.676758999999997}},{"type":"Feature","id":104,"geometry":{"type":"Point","coordinates":[139.71708300000012,35.662251000000026]},"properties":{"OBJECTID":104,"name":"秋野蒔絵手箱","lon":139.717083,"lat":35.662250999999998}},{"type":"Feature","id":105,"geometry":{"type":"Point","coordinates":[139.71708300000012,35.662251000000026]},"properties":{"OBJECTID":105,"name":"蘆屋松梅図真形釜","lon":139.717083,"lat":35.662250999999998}},{"type":"Feature","id":106,"geometry":{"type":"Point","coordinates":[139.71708300000012,35.662251000000026]},"properties":{"OBJECTID":106,"name":"飛鳥井雅経筆懐紙（詠暁紅葉和歌）","lon":139.717083,"lat":35.662250999999998}},{"type":"Feature","id":107,"geometry":{"type":"Point","coordinates":[139.75386900000001,35.690255000000036]},"properties":{"OBJECTID":107,"name":"吾妻鏡（北条本）","lon":139.75386900000001,"lat":35.690255000000001}},{"type":"Feature","id":108,"geometry":{"type":"Point","coordinates":[139.71708300000012,35.662251000000026]},"properties":{"OBJECTID":108,"name":"雨漏茶碗","lon":139.717083,"lat":35.662250999999998}},{"type":"Feature","id":109,"geometry":{"type":"Point","coordinates":[139.71204000000012,35.655642000000057]},"properties":{"OBJECTID":109,"name":"石枕（立花二箇共）","lon":139.71204,"lat":35.655642}},{"type":"Feature","id":110,"geometry":{"type":"Point","coordinates":[139.76321200000007,35.696783000000039]},"properties":{"OBJECTID":110,"name":"医心方〈巻第廿ニ／〉","lon":139.76321200000001,"lat":35.696783000000003}},{"type":"Feature","id":111,"geometry":{"type":"Point","coordinates":[139.71708300000012,35.662251000000026]},"properties":{"OBJECTID":111,"name":"一山一寧墨蹟（正和丙辰十月下澣）","lon":139.717083,"lat":35.662250999999998}},{"type":"Feature","id":112,"geometry":{"type":"Point","coordinates":[139.71708300000012,35.662251000000026]},"properties":{"OBJECTID":112,"name":"井戸茶碗（柴田）","lon":139.717083,"lat":35.662250999999998}},{"type":"Feature","id":113,"geometry":{"type":"Point","coordinates":[139.73071400000003,35.666850000000068]},"properties":{"OBJECTID":113,"name":"色絵花鳥文八角大壺〈伊万里／〉","lon":139.73071400000001,"lat":35.666849999999997}},{"type":"Feature","id":114,"geometry":{"type":"Point","coordinates":[139.76075900000012,35.676597000000072]},"properties":{"OBJECTID":114,"name":"色絵花鳥文八角大壺〈伊万里／〉","lon":139.76075900000001,"lat":35.676597000000001}},{"type":"Feature","id":115,"geometry":{"type":"Point","coordinates":[139.76075900000012,35.676597000000072]},"properties":{"OBJECTID":115,"name":"色絵罌粟文茶壺〈仁清作／〉","lon":139.76075900000001,"lat":35.676597000000001}},{"type":"Feature","id":116,"geometry":{"type":"Point","coordinates":[139.73071400000003,35.666850000000068]},"properties":{"OBJECTID":116,"name":"色絵五艘船図大平鉢〈伊万里／〉","lon":139.73071400000001,"lat":35.666849999999997}},{"type":"Feature","id":117,"geometry":{"type":"Point","coordinates":[139.76075900000012,35.676597000000072]},"properties":{"OBJECTID":117,"name":"色絵鳳凰文壺〈仁清作／〉","lon":139.76075900000001,"lat":35.676597000000001}},{"type":"Feature","id":118,"geometry":{"type":"Point","coordinates":[139.71708300000012,35.662251000000026]},"properties":{"OBJECTID":118,"name":"色絵山寺図茶壺〈仁清作／〉","lon":139.717083,"lat":35.662250999999998}},{"type":"Feature","id":119,"geometry":{"type":"Point","coordinates":[139.76176500000008,35.697717000000068]},"properties":{"OBJECTID":119,"name":"岩宿遺跡出土品","lon":139.761765,"lat":35.697716999999997}},{"type":"Feature","id":120,"geometry":{"type":"Point","coordinates":[139.74215400000003,35.69569800000005]},"properties":{"OBJECTID":120,"name":"謡本〈百二十番／（車屋本）鳥養道晰筆〉","lon":139.742154,"lat":35.695698}},{"type":"Feature","id":121,"geometry":{"type":"Point","coordinates":[139.77061000000003,35.675503000000049]},"properties":{"OBJECTID":121,"name":"映画フィルム「小林富次郎葬儀」","lon":139.77061,"lat":35.675502999999999}},{"type":"Feature","id":122,"geometry":{"type":"Point","coordinates":[139.76075900000012,35.676597000000072]},"properties":{"OBJECTID":122,"name":"絵唐津芦文壺","lon":139.76075900000001,"lat":35.676597000000001}},{"type":"Feature","id":123,"geometry":{"type":"Point","coordinates":[139.76075900000012,35.676597000000072]},"properties":{"OBJECTID":123,"name":"絵唐津柿文三耳壺","lon":139.76075900000001,"lat":35.676597000000001}},{"type":"Feature","id":124,"geometry":{"type":"Point","coordinates":[139.76321200000007,35.696783000000039]},"properties":{"OBJECTID":124,"name":"絵唐津松樹文大皿","lon":139.76321200000001,"lat":35.696783000000003}},{"type":"Feature","id":125,"geometry":{"type":"Point","coordinates":[139.72647200000006,35.652117000000032]},"properties":{"OBJECTID":125,"name":"江戸城造営関係資料（甲良家伝来）","lon":139.726472,"lat":35.652116999999997}},{"type":"Feature","id":126,"geometry":{"type":"Point","coordinates":[139.75384400000007,35.690278000000035]},"properties":{"OBJECTID":126,"name":"江戸幕府書物方関係資料","lon":139.75384399999999,"lat":35.690277999999999}},{"type":"Feature","id":127,"geometry":{"type":"Point","coordinates":[139.75472500000001,35.690568000000042]},"properties":{"OBJECTID":127,"name":"エロシェンコ像〈中村　彜筆　一九二〇年／油絵　麻布〉","lon":139.75472500000001,"lat":35.690567999999999}},{"type":"Feature","id":128,"geometry":{"type":"Point","coordinates":[139.71811100000002,35.710789000000034]},"properties":{"OBJECTID":128,"name":"近江国香庄文書（三十一通）","lon":139.71811099999999,"lat":35.710788999999998}},{"type":"Feature","id":129,"geometry":{"type":"Point","coordinates":[139.71811100000002,35.710789000000034]},"properties":{"OBJECTID":129,"name":"大槻玄沢関係資料","lon":139.71811099999999,"lat":35.710788999999998}},{"type":"Feature","id":130,"geometry":{"type":"Point","coordinates":[139.73071400000003,35.666850000000068]},"properties":{"OBJECTID":130,"name":"小倉山蒔絵硯箱","lon":139.73071400000001,"lat":35.666849999999997}},{"type":"Feature","id":131,"geometry":{"type":"Point","coordinates":[139.74432900000011,35.678599000000077]},"properties":{"OBJECTID":131,"name":"小野蘭山関係資料","lon":139.74432899999999,"lat":35.678598999999998}},{"type":"Feature","id":132,"geometry":{"type":"Point","coordinates":[139.75386900000001,35.690255000000036]},"properties":{"OBJECTID":132,"name":"阿蘭陀本草和解〈野呂玄丈抄訳／〉","lon":139.75386900000001,"lat":35.690255000000001}},{"type":"Feature","id":133,"geometry":{"type":"Point","coordinates":[139.74350500000003,35.649127000000078]},"properties":{"OBJECTID":133,"name":"解剖存真図（南小柿寧一筆）","lon":139.743505,"lat":35.649127}},{"type":"Feature","id":134,"geometry":{"type":"Point","coordinates":[139.76111000000003,35.676759000000061]},"properties":{"OBJECTID":134,"name":"柏木菟蒔絵料紙箱及春日野蒔絵硯箱〈小川破笠作／〉","lon":139.76111,"lat":35.676758999999997}},{"type":"Feature","id":135,"geometry":{"type":"Point","coordinates":[139.71708300000012,35.662251000000026]},"properties":{"OBJECTID":135,"name":"春日山蒔絵硯箱","lon":139.717083,"lat":35.662250999999998}},{"type":"Feature","id":136,"geometry":{"type":"Point","coordinates":[139.71708300000012,35.662251000000026]},"properties":{"OBJECTID":136,"name":"堅手茶碗（長崎）","lon":139.717083,"lat":35.662250999999998}},{"type":"Feature","id":137,"geometry":{"type":"Point","coordinates":[139.77352700000006,35.686417000000063]},"properties":{"OBJECTID":137,"name":"刀〈銘国広／〉","lon":139.773527,"lat":35.686416999999999}},{"type":"Feature","id":138,"geometry":{"type":"Point","coordinates":[139.76176500000008,35.697717000000068]},"properties":{"OBJECTID":138,"name":"神奈川県夏島貝塚出土品","lon":139.761765,"lat":35.697716999999997}},{"type":"Feature","id":139,"geometry":{"type":"Point","coordinates":[139.77352700000006,35.686417000000063]},"properties":{"OBJECTID":139,"name":"唐物肩衝茶入（北野）","lon":139.773527,"lat":35.686416999999999}},{"type":"Feature","id":140,"geometry":{"type":"Point","coordinates":[139.71708300000012,35.662251000000026]},"properties":{"OBJECTID":140,"name":"唐物肩衝茶入〈銘松屋／〉","lon":139.717083,"lat":35.662250999999998}},{"type":"Feature","id":141,"geometry":{"type":"Point","coordinates":[139.74286800000004,35.649235000000033]},"properties":{"OBJECTID":141,"name":"岩偶","lon":139.74286799999999,"lat":35.649234999999997}},{"type":"Feature","id":142,"geometry":{"type":"Point","coordinates":[139.75386900000001,35.690255000000036]},"properties":{"OBJECTID":142,"name":"管見抄〈（第三冊欠）／〉","lon":139.75386900000001,"lat":35.690255000000001}},{"type":"Feature","id":143,"geometry":{"type":"Point","coordinates":[139.74726500000008,35.671326000000079]},"properties":{"OBJECTID":143,"name":"乾漆伎楽面","lon":139.747265,"lat":35.671326000000001}},{"type":"Feature","id":144,"geometry":{"type":"Point","coordinates":[139.71708300000012,35.662251000000026]},"properties":{"OBJECTID":144,"name":"観世音菩薩受記経","lon":139.717083,"lat":35.662250999999998}},{"type":"Feature","id":145,"geometry":{"type":"Point","coordinates":[139.74286800000004,35.649235000000033]},"properties":{"OBJECTID":145,"name":"岩版","lon":139.74286799999999,"lat":35.649234999999997}},{"type":"Feature","id":146,"geometry":{"type":"Point","coordinates":[139.71708300000012,35.662251000000026]},"properties":{"OBJECTID":146,"name":"観普賢経〈（裝飾経）／〉","lon":139.717083,"lat":35.662250999999998}},{"type":"Feature","id":147,"geometry":{"type":"Point","coordinates":[139.77353200000005,35.686415000000068]},"properties":{"OBJECTID":147,"name":"旧金剛宗家伝来能面","lon":139.77353199999999,"lat":35.686414999999997}},{"type":"Feature","id":148,"geometry":{"type":"Point","coordinates":[139.71811100000002,35.710789000000034]},"properties":{"OBJECTID":148,"name":"玉篇巻第九残巻","lon":139.71811099999999,"lat":35.710788999999998}},{"type":"Feature","id":149,"geometry":{"type":"Point","coordinates":[139.71708300000012,35.662251000000026]},"properties":{"OBJECTID":149,"name":"居涇和尚墨蹟〈弔白雲恵曉偈／〉","lon":139.717083,"lat":35.662250999999998}},{"type":"Feature","id":150,"geometry":{"type":"Point","coordinates":[139.73071400000003,35.666850000000068]},"properties":{"OBJECTID":150,"name":"桐竹鳳凰蒔絵文台及硯箱","lon":139.73071400000001,"lat":35.666849999999997}},{"type":"Feature","id":151,"geometry":{"type":"Point","coordinates":[139.76075900000012,35.676597000000072]},"properties":{"OBJECTID":151,"name":"金銀藍絵松樹文蓋物〈尾形乾山作／〉","lon":139.76075900000001,"lat":35.676597000000001}},{"type":"Feature","id":152,"geometry":{"type":"Point","coordinates":[139.71204000000012,35.655642000000057]},"properties":{"OBJECTID":152,"name":"金葉和歌集（二奏本）","lon":139.71204,"lat":35.655642}},{"type":"Feature","id":153,"geometry":{"type":"Point","coordinates":[139.71708300000012,35.662251000000026]},"properties":{"OBJECTID":153,"name":"金襴手下蕪花生","lon":139.717083,"lat":35.662250999999998}},{"type":"Feature","id":154,"geometry":{"type":"Point","coordinates":[139.74215400000003,35.69569800000005]},"properties":{"OBJECTID":154,"name":"曲舞〈三十番／（車屋本）鳥養道晰筆〉","lon":139.742154,"lat":35.695698}},{"type":"Feature","id":155,"geometry":{"type":"Point","coordinates":[139.75386900000001,35.690255000000036]},"properties":{"OBJECTID":155,"name":"国絵図並郷帳","lon":139.75386900000001,"lat":35.690255000000001}},{"type":"Feature","id":156,"geometry":{"type":"Point","coordinates":[139.77352700000006,35.686417000000063]},"properties":{"OBJECTID":156,"name":"熊野御幸記〈藤原定家筆／建仁元年十月〉","lon":139.773527,"lat":35.686416999999999}},{"type":"Feature","id":157,"geometry":{"type":"Point","coordinates":[139.77352700000006,35.686417000000063]},"properties":{"OBJECTID":157,"name":"古林清茂墨蹟〈与無夢一清偈／泰定四年至節後三日〉","lon":139.773527,"lat":35.686416999999999}},{"type":"Feature","id":158,"geometry":{"type":"Point","coordinates":[139.71708300000012,35.662251000000026]},"properties":{"OBJECTID":158,"name":"黒韋威肩取腹巻〈大袖付／〉","lon":139.717083,"lat":35.662250999999998}},{"type":"Feature","id":159,"geometry":{"type":"Point","coordinates":[139.77352700000006,35.686417000000063]},"properties":{"OBJECTID":159,"name":"黒楽茶碗（俊寛）〈長次郎作／〉","lon":139.773527,"lat":35.686416999999999}},{"type":"Feature","id":160,"geometry":{"type":"Point","coordinates":[139.71113900000012,35.653505000000052]},"properties":{"OBJECTID":160,"name":"群書類従版木","lon":139.711139,"lat":35.653505000000003}},{"type":"Feature","id":161,"geometry":{"type":"Point","coordinates":[139.71708300000012,35.662251000000026]},"properties":{"OBJECTID":161,"name":"月礀文明墨蹟〈拈香語／〉","lon":139.717083,"lat":35.662250999999998}},{"type":"Feature","id":162,"geometry":{"type":"Point","coordinates":[139.71708300000012,35.662251000000026]},"properties":{"OBJECTID":162,"name":"月江正印墨蹟〈玉泉字号偈／至正八年仲冬〉","lon":139.717083,"lat":35.662250999999998}},{"type":"Feature","id":163,"geometry":{"type":"Point","coordinates":[139.71708300000012,35.662251000000026]},"properties":{"OBJECTID":163,"name":"月江正印墨蹟〈与楚雙峯偈語／至正三年二月十八日〉","lon":139.717083,"lat":35.662250999999998}},{"type":"Feature","id":164,"geometry":{"type":"Point","coordinates":[139.75386900000001,35.690255000000036]},"properties":{"OBJECTID":164,"name":"元版全相平話","lon":139.75386900000001,"lat":35.690255000000001}},{"type":"Feature","id":165,"geometry":{"type":"Point","coordinates":[139.71708300000012,35.662251000000026]},"properties":{"OBJECTID":165,"name":"絹本著色愛染曼荼羅図","lon":139.717083,"lat":35.662250999999998}},{"type":"Feature","id":166,"geometry":{"type":"Point","coordinates":[139.71708300000012,35.662251000000026]},"properties":{"OBJECTID":166,"name":"絹本著色愛染明王像","lon":139.717083,"lat":35.662250999999998}},{"type":"Feature","id":167,"geometry":{"type":"Point","coordinates":[139.71708300000012,35.662251000000026]},"properties":{"OBJECTID":167,"name":"絹本著色愛染明王像","lon":139.717083,"lat":35.662250999999998}},{"type":"Feature","id":168,"geometry":{"type":"Point","coordinates":[139.71708300000012,35.662251000000026]},"properties":{"OBJECTID":168,"name":"絹本著色阿弥陀如来像","lon":139.717083,"lat":35.662250999999998}},{"type":"Feature","id":169,"geometry":{"type":"Point","coordinates":[139.71708300000012,35.662251000000026]},"properties":{"OBJECTID":169,"name":"絹本著色鶉図","lon":139.717083,"lat":35.662250999999998}},{"type":"Feature","id":170,"geometry":{"type":"Point","coordinates":[139.75289000000009,35.683934000000079]},"properties":{"OBJECTID":170,"name":"絹本著色春日権現験記絵〈高階隆兼筆／〉","lon":139.75289000000001,"lat":35.683934000000001}},{"type":"Feature","id":171,"geometry":{"type":"Point","coordinates":[139.71708300000012,35.662251000000026]},"properties":{"OBJECTID":171,"name":"絹本著色春日補陀落山曼荼羅図","lon":139.717083,"lat":35.662250999999998}},{"type":"Feature","id":172,"geometry":{"type":"Point","coordinates":[139.71708300000012,35.662251000000026]},"properties":{"OBJECTID":172,"name":"絹本著色春日宮曼荼羅図","lon":139.717083,"lat":35.662250999999998}},{"type":"Feature","id":173,"geometry":{"type":"Point","coordinates":[139.76075900000012,35.676597000000072]},"properties":{"OBJECTID":173,"name":"絹本著色漁釣図〈徐祚筆／〉","lon":139.76075900000001,"lat":35.676597000000001}},{"type":"Feature","id":174,"geometry":{"type":"Point","coordinates":[139.71708300000012,35.662251000000026]},"properties":{"OBJECTID":174,"name":"絹本著色華厳五十五所絵","lon":139.717083,"lat":35.662250999999998}},{"type":"Feature","id":175,"geometry":{"type":"Point","coordinates":[139.75472500000001,35.690568000000042]},"properties":{"OBJECTID":175,"name":"絹本著色賢首菩薩図〈菱田春草筆／〉","lon":139.75472500000001,"lat":35.690567999999999}},{"type":"Feature","id":176,"geometry":{"type":"Point","coordinates":[139.76075900000012,35.676597000000072]},"properties":{"OBJECTID":176,"name":"絹本著色更衣美人図〈喜多川歌麿筆／〉","lon":139.76075900000001,"lat":35.676597000000001}},{"type":"Feature","id":177,"geometry":{"type":"Point","coordinates":[139.71708300000012,35.662251000000026]},"properties":{"OBJECTID":177,"name":"絹本著色五百羅漢図〈伝明兆筆／東福寺伝来〉","lon":139.717083,"lat":35.662250999999998}},{"type":"Feature","id":178,"geometry":{"type":"Point","coordinates":[139.71708300000012,35.662251000000026]},"properties":{"OBJECTID":178,"name":"絹本著色金剛界八十一尊大曼荼羅図","lon":139.717083,"lat":35.662250999999998}},{"type":"Feature","id":179,"geometry":{"type":"Point","coordinates":[139.71708300000012,35.662251000000026]},"properties":{"OBJECTID":179,"name":"絹本著色釈迦如来像","lon":139.717083,"lat":35.662250999999998}},{"type":"Feature","id":180,"geometry":{"type":"Point","coordinates":[139.71708300000012,35.662251000000026]},"properties":{"OBJECTID":180,"name":"絹本著色釈迦八相図","lon":139.717083,"lat":35.662250999999998}},{"type":"Feature","id":181,"geometry":{"type":"Point","coordinates":[139.76075900000012,35.676597000000072]},"properties":{"OBJECTID":181,"name":"絹本著色十王図","lon":139.76075900000001,"lat":35.676597000000001}},{"type":"Feature","id":182,"geometry":{"type":"Point","coordinates":[139.76075900000012,35.676597000000072]},"properties":{"OBJECTID":182,"name":"絹本著色真言八祖行状図","lon":139.76075900000001,"lat":35.676597000000001}},{"type":"Feature","id":183,"geometry":{"type":"Point","coordinates":[139.71708300000012,35.662251000000026]},"properties":{"OBJECTID":183,"name":"絹本著色夕陽山水図〈馬麟筆／〉","lon":139.717083,"lat":35.662250999999998}},{"type":"Feature","id":184,"geometry":{"type":"Point","coordinates":[139.71708300000012,35.662251000000026]},"properties":{"OBJECTID":184,"name":"絹本著色善光寺如来縁起絵","lon":139.717083,"lat":35.662250999999998}},{"type":"Feature","id":185,"geometry":{"type":"Point","coordinates":[139.71708300000012,35.662251000000026]},"properties":{"OBJECTID":185,"name":"絹本著色銭塘観潮図","lon":139.717083,"lat":35.662250999999998}},{"type":"Feature","id":186,"geometry":{"type":"Point","coordinates":[139.71708300000012,35.662251000000026]},"properties":{"OBJECTID":186,"name":"絹本著色大威徳明王像","lon":139.717083,"lat":35.662250999999998}},{"type":"Feature","id":187,"geometry":{"type":"Point","coordinates":[139.71708300000012,35.662251000000026]},"properties":{"OBJECTID":187,"name":"絹本著色大日如来像","lon":139.717083,"lat":35.662250999999998}},{"type":"Feature","id":188,"geometry":{"type":"Point","coordinates":[139.75289000000009,35.683934000000079]},"properties":{"OBJECTID":188,"name":"絹本著色動植綵絵〈伊藤若冲筆／〉","lon":139.75289000000001,"lat":35.683934000000001}},{"type":"Feature","id":189,"geometry":{"type":"Point","coordinates":[139.71708300000012,35.662251000000026]},"properties":{"OBJECTID":189,"name":"絹本著色那智滝図","lon":139.717083,"lat":35.662250999999998}},{"type":"Feature","id":190,"geometry":{"type":"Point","coordinates":[139.75472500000001,35.690568000000042]},"properties":{"OBJECTID":190,"name":"絹本著色日高河清姫図〈村上華岳筆／〉","lon":139.75472500000001,"lat":35.690567999999999}},{"type":"Feature","id":191,"geometry":{"type":"Point","coordinates":[139.71708300000012,35.662251000000026]},"properties":{"OBJECTID":191,"name":"絹本著色普賢十羅刹女像","lon":139.717083,"lat":35.662250999999998}},{"type":"Feature","id":192,"geometry":{"type":"Point","coordinates":[139.71708300000012,35.662251000000026]},"properties":{"OBJECTID":192,"name":"絹本著色仏涅槃図","lon":139.717083,"lat":35.662250999999998}},{"type":"Feature","id":193,"geometry":{"type":"Point","coordinates":[139.71708300000012,35.662251000000026]},"properties":{"OBJECTID":193,"name":"絹本著色法相宗曼荼羅図","lon":139.717083,"lat":35.662250999999998}},{"type":"Feature","id":194,"geometry":{"type":"Point","coordinates":[139.75472500000001,35.690568000000042]},"properties":{"OBJECTID":194,"name":"絹本著色湯女図〈土田麦僊筆／二曲屏風〉","lon":139.75472500000001,"lat":35.690567999999999}},{"type":"Feature","id":195,"geometry":{"type":"Point","coordinates":[139.71708300000012,35.662251000000026]},"properties":{"OBJECTID":195,"name":"絹本墨画古木牧牛図〈毛倫筆／〉","lon":139.717083,"lat":35.662250999999998}},{"type":"Feature","id":196,"geometry":{"type":"Point","coordinates":[139.75472500000001,35.690568000000042]},"properties":{"OBJECTID":196,"name":"絹本墨画生々流転図〈横山大観筆／〉","lon":139.75472500000001,"lat":35.690567999999999}},{"type":"Feature","id":197,"geometry":{"type":"Point","coordinates":[139.71708300000012,35.662251000000026]},"properties":{"OBJECTID":197,"name":"絹本墨画羅漢図〈／（第五諾矩尊者）〉","lon":139.717083,"lat":35.662250999999998}},{"type":"Feature","id":198,"geometry":{"type":"Point","coordinates":[139.74432900000011,35.678599000000077]},"properties":{"OBJECTID":198,"name":"弘安礼節","lon":139.74432899999999,"lat":35.678598999999998}},{"type":"Feature","id":199,"geometry":{"type":"Point","coordinates":[139.75386900000001,35.690255000000036]},"properties":{"OBJECTID":199,"name":"公文録（図表共）並索引","lon":139.75386900000001,"lat":35.690255000000001}},{"type":"Feature","id":200,"geometry":{"type":"Point","coordinates":[139.71708300000012,35.662251000000026]},"properties":{"OBJECTID":200,"name":"高麗青磁蓮華唐草文水瓶","lon":139.717083,"lat":35.662250999999998}},{"type":"Feature","id":201,"geometry":{"type":"Point","coordinates":[139.71204000000012,35.655642000000057]},"properties":{"OBJECTID":201,"name":"久我家文書","lon":139.71204,"lat":35.655642}},{"type":"Feature","id":202,"geometry":{"type":"Point","coordinates":[139.76075900000012,35.676597000000072]},"properties":{"OBJECTID":202,"name":"虎関師錬筆消息〈六月十八日／檀溪心涼宛〉","lon":139.76075900000001,"lat":35.676597000000001}},{"type":"Feature","id":203,"geometry":{"type":"Point","coordinates":[139.71708300000012,35.662251000000026]},"properties":{"OBJECTID":203,"name":"古今集〈藤原為氏筆／〉","lon":139.717083,"lat":35.662250999999998}},{"type":"Feature","id":204,"geometry":{"type":"Point","coordinates":[139.76075900000012,35.676597000000072]},"properties":{"OBJECTID":204,"name":"古今和歌集巻第一断簡〈（高野切）／（寛平の）〉","lon":139.76075900000001,"lat":35.676597000000001}},{"type":"Feature","id":205,"geometry":{"type":"Point","coordinates":[139.76321200000007,35.696783000000039]},"properties":{"OBJECTID":205,"name":"古瀬戸黄釉巴文壺","lon":139.76321200000001,"lat":35.696783000000003}},{"type":"Feature","id":206,"geometry":{"type":"Point","coordinates":[139.74286800000004,35.649235000000033]},"properties":{"OBJECTID":206,"name":"後鳥羽院御抄〈并／〉越部禅尼消息","lon":139.74286799999999,"lat":35.649234999999997}},{"type":"Feature","id":207,"geometry":{"type":"Point","coordinates":[139.77352700000006,35.686417000000063]},"properties":{"OBJECTID":207,"name":"粉引茶碗（三好）","lon":139.773527,"lat":35.686416999999999}},{"type":"Feature","id":208,"geometry":{"type":"Point","coordinates":[139.76075900000012,35.676597000000072]},"properties":{"OBJECTID":208,"name":"古文孝経（金沢文庫本）","lon":139.76075900000001,"lat":35.676597000000001}},{"type":"Feature","id":209,"geometry":{"type":"Point","coordinates":[139.76321200000007,35.696783000000039]},"properties":{"OBJECTID":209,"name":"古葉略類聚鈔","lon":139.76321200000001,"lat":35.696783000000003}},{"type":"Feature","id":210,"geometry":{"type":"Point","coordinates":[139.76321200000007,35.696783000000039]},"properties":{"OBJECTID":210,"name":"古律書残篇","lon":139.76321200000001,"lat":35.696783000000003}},{"type":"Feature","id":211,"geometry":{"type":"Point","coordinates":[139.71708300000012,35.662251000000026]},"properties":{"OBJECTID":211,"name":"金光明最勝王経註釈〈巻第二断筒／（飯室切）〉","lon":139.717083,"lat":35.662250999999998}},{"type":"Feature","id":212,"geometry":{"type":"Point","coordinates":[139.71708300000012,35.662251000000026]},"properties":{"OBJECTID":212,"name":"紺紙銀字華厳経巻第\u3013六〈（二月堂焼経）／〉","lon":139.717083,"lat":35.662250999999998}},{"type":"Feature","id":213,"geometry":{"type":"Point","coordinates":[139.76075900000012,35.676597000000072]},"properties":{"OBJECTID":213,"name":"金銅蓮唐草文透彫経箱","lon":139.76075900000001,"lat":35.676597000000001}},{"type":"Feature","id":214,"geometry":{"type":"Point","coordinates":[139.71708300000012,35.662251000000026]},"properties":{"OBJECTID":214,"name":"金銅鉢","lon":139.717083,"lat":35.662250999999998}},{"type":"Feature","id":215,"geometry":{"type":"Point","coordinates":[139.71708300000012,35.662251000000026]},"properties":{"OBJECTID":215,"name":"根本百一羯磨〈巻第六／〉","lon":139.717083,"lat":35.662250999999998}},{"type":"Feature","id":216,"geometry":{"type":"Point","coordinates":[139.76176500000008,35.697717000000068]},"properties":{"OBJECTID":216,"name":"埼玉県砂川遺跡出土品","lon":139.761765,"lat":35.697716999999997}},{"type":"Feature","id":217,"geometry":{"type":"Point","coordinates":[139.71708300000012,35.662251000000026]},"properties":{"OBJECTID":217,"name":"嵯峨山蒔絵硯箱","lon":139.717083,"lat":35.662250999999998}},{"type":"Feature","id":218,"geometry":{"type":"Point","coordinates":[139.74286800000004,35.649235000000033]},"properties":{"OBJECTID":218,"name":"相良家文書","lon":139.74286799999999,"lat":35.649234999999997}},{"type":"Feature","id":219,"geometry":{"type":"Point","coordinates":[139.76075900000012,35.676597000000072]},"properties":{"OBJECTID":219,"name":"定頼集〈藤原定家筆／〉","lon":139.76075900000001,"lat":35.676597000000001}},{"type":"Feature","id":220,"geometry":{"type":"Point","coordinates":[139.71708300000012,35.662251000000026]},"properties":{"OBJECTID":220,"name":"銹藍金絵絵替皿〈尾形乾山作／〉","lon":139.717083,"lat":35.662250999999998}},{"type":"Feature","id":221,"geometry":{"type":"Point","coordinates":[139.75289000000009,35.683934000000079]},"properties":{"OBJECTID":221,"name":"更級日記〈藤原定家筆／〉\n　附 波に月蒔絵冊子箱","lon":139.75289000000001,"lat":35.683934000000001}},{"type":"Feature","id":222,"geometry":{"type":"Point","coordinates":[139.71708300000012,35.662251000000026]},"properties":{"OBJECTID":222,"name":"子元祖元墨蹟（弘安三年中夏）","lon":139.717083,"lat":35.662250999999998}},{"type":"Feature","id":223,"geometry":{"type":"Point","coordinates":[139.77352700000006,35.686417000000063]},"properties":{"OBJECTID":223,"name":"志野茶碗〈銘卯花墻／〉","lon":139.773527,"lat":35.686416999999999}},{"type":"Feature","id":224,"geometry":{"type":"Point","coordinates":[139.71708300000012,35.662251000000026]},"properties":{"OBJECTID":224,"name":"紙本淡彩山水図〈祥啓筆／〉","lon":139.717083,"lat":35.662250999999998}},{"type":"Feature","id":225,"geometry":{"type":"Point","coordinates":[139.76075900000012,35.676597000000072]},"properties":{"OBJECTID":225,"name":"紙本淡彩山水図〈与謝蕪村筆／宝暦十三年四月の年記がある／六曲屏風〉","lon":139.76075900000001,"lat":35.676597000000001}},{"type":"Feature","id":226,"geometry":{"type":"Point","coordinates":[139.75289000000009,35.683934000000079]},"properties":{"OBJECTID":226,"name":"紙本金地著色唐獅子図〈狩野永徳筆／六曲屛風〉","lon":139.75289000000001,"lat":35.683934000000001}},{"type":"Feature","id":227,"geometry":{"type":"Point","coordinates":[139.73071400000003,35.666850000000068]},"properties":{"OBJECTID":227,"name":"紙本著色三十六歌仙切〈（順）／佐竹家伝来〉","lon":139.73071400000001,"lat":35.666849999999997}},{"type":"Feature","id":228,"geometry":{"type":"Point","coordinates":[139.76075900000012,35.676597000000072]},"properties":{"OBJECTID":228,"name":"紙本著色三十六歌仙切〈（遍昭）／佐竹家伝来〉","lon":139.76075900000001,"lat":35.676597000000001}},{"type":"Feature","id":229,"geometry":{"type":"Point","coordinates":[139.73071400000003,35.666850000000068]},"properties":{"OBJECTID":229,"name":"紙本著色四季花鳥図〈／六曲屏風〉","lon":139.73071400000001,"lat":35.666849999999997}},{"type":"Feature","id":230,"geometry":{"type":"Point","coordinates":[139.76075900000012,35.676597000000072]},"properties":{"OBJECTID":230,"name":"紙本著色四季日待図〈英一蝶筆〉","lon":139.76075900000001,"lat":35.676597000000001}},{"type":"Feature","id":231,"geometry":{"type":"Point","coordinates":[139.72969400000011,35.666656000000046]},"properties":{"OBJECTID":231,"name":"紙本著色酒伝童子絵巻〈狩野元信筆／〉","lon":139.72969399999999,"lat":35.666656000000003}},{"type":"Feature","id":232,"geometry":{"type":"Point","coordinates":[139.77353200000005,35.686415000000068]},"properties":{"OBJECTID":232,"name":"紙本著色東福門院入内図〈／四曲屏風〉","lon":139.77353199999999,"lat":35.686414999999997}},{"type":"Feature","id":233,"geometry":{"type":"Point","coordinates":[139.75289000000009,35.683934000000079]},"properties":{"OBJECTID":233,"name":"紙本著色蒙古襲来絵詞","lon":139.75289000000001,"lat":35.683934000000001}},{"type":"Feature","id":234,"geometry":{"type":"Point","coordinates":[139.76075900000012,35.676597000000072]},"properties":{"OBJECTID":234,"name":"紙本墨画花鳥図〈能阿弥筆／〉","lon":139.76075900000001,"lat":35.676597000000001}},{"type":"Feature","id":235,"geometry":{"type":"Point","coordinates":[139.71708300000012,35.662251000000026]},"properties":{"OBJECTID":235,"name":"紙本墨画淡彩山水図〈曽我紹仙筆／〉","lon":139.717083,"lat":35.662250999999998}},{"type":"Feature","id":236,"geometry":{"type":"Point","coordinates":[139.76075900000012,35.676597000000072]},"properties":{"OBJECTID":236,"name":"紙本墨画淡彩野々宮図","lon":139.76075900000001,"lat":35.676597000000001}},{"type":"Feature","id":237,"geometry":{"type":"Point","coordinates":[139.71811100000002,35.710789000000034]},"properties":{"OBJECTID":237,"name":"紙本墨書尾張国解文","lon":139.71811099999999,"lat":35.710788999999998}},{"type":"Feature","id":238,"geometry":{"type":"Point","coordinates":[139.76075900000012,35.676597000000072]},"properties":{"OBJECTID":238,"name":"紙本墨書光厳院宸翰御消息（十一月五日）","lon":139.76075900000001,"lat":35.676597000000001}},{"type":"Feature","id":239,"geometry":{"type":"Point","coordinates":[139.76075900000012,35.676597000000072]},"properties":{"OBJECTID":239,"name":"紙本墨書後光厳院宸翰御消息（七月廿九日）","lon":139.76075900000001,"lat":35.676597000000001}},{"type":"Feature","id":240,"geometry":{"type":"Point","coordinates":[139.76075900000012,35.676597000000072]},"properties":{"OBJECTID":240,"name":"紙本墨書後小松天皇宸翰御消息（七月廿五日）","lon":139.76075900000001,"lat":35.676597000000001}},{"type":"Feature","id":241,"geometry":{"type":"Point","coordinates":[139.71811100000002,35.710789000000034]},"properties":{"OBJECTID":241,"name":"紙本墨書東大寺文書（十五通）","lon":139.71811099999999,"lat":35.710788999999998}},{"type":"Feature","id":242,"geometry":{"type":"Point","coordinates":[139.76075900000012,35.676597000000072]},"properties":{"OBJECTID":242,"name":"紙本墨書陽光院御筆御消息（七十三通）","lon":139.76075900000001,"lat":35.676597000000001}},{"type":"Feature","id":243,"geometry":{"type":"Point","coordinates":[139.76176500000008,35.697717000000068]},"properties":{"OBJECTID":243,"name":"下野出流原遺跡出土品","lon":139.761765,"lat":35.697716999999997}},{"type":"Feature","id":244,"geometry":{"type":"Point","coordinates":[139.74432900000011,35.678599000000077]},"properties":{"OBJECTID":244,"name":"釈氏往来","lon":139.74432899999999,"lat":35.678598999999998}},{"type":"Feature","id":245,"geometry":{"type":"Point","coordinates":[139.77297900000008,35.686695000000043]},"properties":{"OBJECTID":245,"name":"拾遺抄","lon":139.77297899999999,"lat":35.686695}},{"type":"Feature","id":246,"geometry":{"type":"Point","coordinates":[139.70900700000004,35.657278000000076]},"properties":{"OBJECTID":246,"name":"拾遺和歌集〈上（寂恵本）／〉","lon":139.70900700000001,"lat":35.657277999999998}},{"type":"Feature","id":247,"geometry":{"type":"Point","coordinates":[139.71708300000012,35.662251000000026]},"properties":{"OBJECTID":247,"name":"宗峰妙超墨蹟（元亨壬戌）","lon":139.717083,"lat":35.662250999999998}},{"type":"Feature","id":248,"geometry":{"type":"Point","coordinates":[139.74331100000006,35.666944000000058]},"properties":{"OBJECTID":248,"name":"寿老図六角皿〈尾形乾山作／尾形光琳画〉","lon":139.74331100000001,"lat":35.666944000000001}},{"type":"Feature","id":249,"geometry":{"type":"Point","coordinates":[139.71708300000012,35.662251000000026]},"properties":{"OBJECTID":249,"name":"順正理論巻第六残巻","lon":139.717083,"lat":35.662250999999998}},{"type":"Feature","id":250,"geometry":{"type":"Point","coordinates":[139.75386900000001,35.690255000000036]},"properties":{"OBJECTID":250,"name":"貞享暦〈渋川春海筆／（巻四補写本）〉","lon":139.75386900000001,"lat":35.690255000000001}},{"type":"Feature","id":251,"geometry":{"type":"Point","coordinates":[139.75386900000001,35.690255000000036]},"properties":{"OBJECTID":251,"name":"正保城絵図","lon":139.75386900000001,"lat":35.690255000000001}},{"type":"Feature","id":252,"geometry":{"type":"Point","coordinates":[139.74331100000006,35.666944000000058]},"properties":{"OBJECTID":252,"name":"徐公文集（宋刊本）","lon":139.74331100000001,"lat":35.666944000000001}},{"type":"Feature","id":253,"geometry":{"type":"Point","coordinates":[139.75386900000001,35.690255000000036]},"properties":{"OBJECTID":253,"name":"諸宗末寺帳","lon":139.75386900000001,"lat":35.690255000000001}},{"type":"Feature","id":254,"geometry":{"type":"Point","coordinates":[139.75386900000001,35.690255000000036]},"properties":{"OBJECTID":254,"name":"庶物類纂","lon":139.75386900000001,"lat":35.690255000000001}},{"type":"Feature","id":255,"geometry":{"type":"Point","coordinates":[139.75386900000001,35.690255000000036]},"properties":{"OBJECTID":255,"name":"庶物類纂図翼","lon":139.75386900000001,"lat":35.690255000000001}},{"type":"Feature","id":256,"geometry":{"type":"Point","coordinates":[139.75386900000001,35.690255000000036]},"properties":{"OBJECTID":256,"name":"尋憲記","lon":139.75386900000001,"lat":35.690255000000001}},{"type":"Feature","id":257,"geometry":{"type":"Point","coordinates":[139.69168600000012,35.689864000000057]},"properties":{"OBJECTID":257,"name":"新修浄土往生伝巻上、下","lon":139.691686,"lat":35.689864}},{"type":"Feature","id":258,"geometry":{"type":"Point","coordinates":[139.71204000000012,35.655642000000057]},"properties":{"OBJECTID":258,"name":"神皇正統記〈上中下／〉","lon":139.71204,"lat":35.655642}},{"type":"Feature","id":259,"geometry":{"type":"Point","coordinates":[139.71811100000002,35.710789000000034]},"properties":{"OBJECTID":259,"name":"崇光天皇宸翰御願文〈永和二年十一月十一日／伊勢太神宮宛〉","lon":139.71811099999999,"lat":35.710788999999998}},{"type":"Feature","id":260,"geometry":{"type":"Point","coordinates":[139.71708300000012,35.662251000000026]},"properties":{"OBJECTID":260,"name":"青磁花瓶","lon":139.717083,"lat":35.662250999999998}},{"type":"Feature","id":261,"geometry":{"type":"Point","coordinates":[139.76075900000012,35.676597000000072]},"properties":{"OBJECTID":261,"name":"青磁下蕪花生","lon":139.76075900000001,"lat":35.676597000000001}},{"type":"Feature","id":262,"geometry":{"type":"Point","coordinates":[139.71708300000012,35.662251000000026]},"properties":{"OBJECTID":262,"name":"青磁筒花生〈銘大内筒／〉","lon":139.717083,"lat":35.662250999999998}},{"type":"Feature","id":263,"geometry":{"type":"Point","coordinates":[139.76075900000012,35.676597000000072]},"properties":{"OBJECTID":263,"name":"青磁袴腰大香炉","lon":139.76075900000001,"lat":35.676597000000001}},{"type":"Feature","id":264,"geometry":{"type":"Point","coordinates":[139.77352700000006,35.686417000000063]},"properties":{"OBJECTID":264,"name":"清拙正澄墨蹟〈霊致別称偈／延元元年仲夏〉","lon":139.773527,"lat":35.686416999999999}},{"type":"Feature","id":265,"geometry":{"type":"Point","coordinates":[139.71708300000012,35.662251000000026]},"properties":{"OBJECTID":265,"name":"石造浮彫十一面観音龕","lon":139.717083,"lat":35.662250999999998}},{"type":"Feature","id":266,"geometry":{"type":"Point","coordinates":[139.76075900000012,35.676597000000072]},"properties":{"OBJECTID":266,"name":"禅院額字〈選仏場／〉","lon":139.76075900000001,"lat":35.676597000000001}},{"type":"Feature","id":267,"geometry":{"type":"Point","coordinates":[139.75386900000001,35.690255000000036]},"properties":{"OBJECTID":267,"name":"宋版頴浜先生大全文集","lon":139.75386900000001,"lat":35.690255000000001}},{"type":"Feature","id":268,"geometry":{"type":"Point","coordinates":[139.74331100000006,35.666944000000058]},"properties":{"OBJECTID":268,"name":"宋版韓集挙正","lon":139.74331100000001,"lat":35.666944000000001}},{"type":"Feature","id":269,"geometry":{"type":"Point","coordinates":[139.75386900000001,35.690255000000036]},"properties":{"OBJECTID":269,"name":"宋版鉅宋広韻","lon":139.75386900000001,"lat":35.690255000000001}},{"type":"Feature","id":270,"geometry":{"type":"Point","coordinates":[139.75386900000001,35.690255000000036]},"properties":{"OBJECTID":270,"name":"宋版周易新講義","lon":139.75386900000001,"lat":35.690255000000001}},{"type":"Feature","id":271,"geometry":{"type":"Point","coordinates":[139.75386900000001,35.690255000000036]},"properties":{"OBJECTID":271,"name":"宋版子略","lon":139.75386900000001,"lat":35.690255000000001}},{"type":"Feature","id":272,"geometry":{"type":"Point","coordinates":[139.75386900000001,35.690255000000036]},"properties":{"OBJECTID":272,"name":"宋版史略","lon":139.75386900000001,"lat":35.690255000000001}},{"type":"Feature","id":273,"geometry":{"type":"Point","coordinates":[139.74421600000005,35.678420000000074]},"properties":{"OBJECTID":273,"name":"宋版姓解","lon":139.74421599999999,"lat":35.678420000000003}},{"type":"Feature","id":274,"geometry":{"type":"Point","coordinates":[139.74331100000006,35.666944000000058]},"properties":{"OBJECTID":274,"name":"宋版大唐三蔵取経詩話（高山寺本）","lon":139.74331100000001,"lat":35.666944000000001}},{"type":"Feature","id":275,"geometry":{"type":"Point","coordinates":[139.75386900000001,35.690255000000036]},"properties":{"OBJECTID":275,"name":"宋版東坡集","lon":139.75386900000001,"lat":35.690255000000001}},{"type":"Feature","id":276,"geometry":{"type":"Point","coordinates":[139.75386900000001,35.690255000000036]},"properties":{"OBJECTID":276,"name":"宋版梅亭先生四六標準","lon":139.75386900000001,"lat":35.690255000000001}},{"type":"Feature","id":277,"geometry":{"type":"Point","coordinates":[139.75386900000001,35.690255000000036]},"properties":{"OBJECTID":277,"name":"宋版平斉文集","lon":139.75386900000001,"lat":35.690255000000001}},{"type":"Feature","id":278,"geometry":{"type":"Point","coordinates":[139.75386900000001,35.690255000000036]},"properties":{"OBJECTID":278,"name":"宋版予章先生集","lon":139.75386900000001,"lat":35.690255000000001}},{"type":"Feature","id":279,"geometry":{"type":"Point","coordinates":[139.75386900000001,35.690255000000036]},"properties":{"OBJECTID":279,"name":"宋版廬山記","lon":139.75386900000001,"lat":35.690255000000001}},{"type":"Feature","id":280,"geometry":{"type":"Point","coordinates":[139.75386900000001,35.690255000000036]},"properties":{"OBJECTID":280,"name":"宋版准海集","lon":139.75386900000001,"lat":35.690255000000001}},{"type":"Feature","id":281,"geometry":{"type":"Point","coordinates":[139.71708300000012,35.662251000000026]},"properties":{"OBJECTID":281,"name":"双羊尊","lon":139.717083,"lat":35.662250999999998}},{"type":"Feature","id":282,"geometry":{"type":"Point","coordinates":[139.75289000000009,35.683934000000079]},"properties":{"OBJECTID":282,"name":"喪乱帖〈原跡王羲之／〉","lon":139.75289000000001,"lat":35.683934000000001}},{"type":"Feature","id":283,"geometry":{"type":"Point","coordinates":[139.73071400000003,35.666850000000068]},"properties":{"OBJECTID":283,"name":"染付松樹文三脚皿〈鍋島／〉","lon":139.73071400000001,"lat":35.666849999999997}},{"type":"Feature","id":284,"geometry":{"type":"Point","coordinates":[139.74286800000004,35.649235000000033]},"properties":{"OBJECTID":284,"name":"大かうさまくんきのうち〈太田牛一筆／〉","lon":139.74286799999999,"lat":35.649234999999997}},{"type":"Feature","id":285,"geometry":{"type":"Point","coordinates":[139.71708300000012,35.662251000000026]},"properties":{"OBJECTID":285,"name":"大乗掌珍論〈巻上残巻／〉","lon":139.717083,"lat":35.662250999999998}},{"type":"Feature","id":286,"geometry":{"type":"Point","coordinates":[139.71708300000012,35.662251000000026]},"properties":{"OBJECTID":286,"name":"大乗法界無差別論疏〈成弁筆／〉","lon":139.717083,"lat":35.662250999999998}},{"type":"Feature","id":287,"geometry":{"type":"Point","coordinates":[139.76075900000012,35.676597000000072]},"properties":{"OBJECTID":287,"name":"大燈国師墨蹟〈偈頌／（夏日）〉","lon":139.76075900000001,"lat":35.676597000000001}},{"type":"Feature","id":288,"geometry":{"type":"Point","coordinates":[139.76075900000012,35.676597000000072]},"properties":{"OBJECTID":288,"name":"大燈国師墨蹟〈偈語（興作）／〉","lon":139.76075900000001,"lat":35.676597000000001}},{"type":"Feature","id":289,"geometry":{"type":"Point","coordinates":[139.77353000000005,35.679753000000062]},"properties":{"OBJECTID":289,"name":"大唐三蔵玄弉法師表啓","lon":139.77352999999999,"lat":35.679752999999998}},{"type":"Feature","id":290,"geometry":{"type":"Point","coordinates":[139.71708300000012,35.662251000000026]},"properties":{"OBJECTID":290,"name":"大唐内典録〈巻第九　第十残巻／〉","lon":139.717083,"lat":35.662250999999998}},{"type":"Feature","id":291,"geometry":{"type":"Point","coordinates":[139.71708300000012,35.662251000000026]},"properties":{"OBJECTID":291,"name":"大般若経巻五十七残巻","lon":139.717083,"lat":35.662250999999998}},{"type":"Feature","id":292,"geometry":{"type":"Point","coordinates":[139.71708300000012,35.662251000000026]},"properties":{"OBJECTID":292,"name":"大般若経巻第二十三","lon":139.717083,"lat":35.662250999999998}},{"type":"Feature","id":293,"geometry":{"type":"Point","coordinates":[139.71708300000012,35.662251000000026]},"properties":{"OBJECTID":293,"name":"大般若経巻第二百六十七","lon":139.717083,"lat":35.662250999999998}},{"type":"Feature","id":294,"geometry":{"type":"Point","coordinates":[139.70587500000011,35.671758000000068]},"properties":{"OBJECTID":294,"name":"太刀〈額銘吉房／〉","lon":139.70587499999999,"lat":35.671757999999997}},{"type":"Feature","id":295,"geometry":{"type":"Point","coordinates":[139.69066800000007,35.681484000000069]},"properties":{"OBJECTID":295,"name":"太刀〈無銘福岡一文字／〉附糸巻太刀拵","lon":139.69066799999999,"lat":35.681483999999998}},{"type":"Feature","id":296,"geometry":{"type":"Point","coordinates":[139.69066800000007,35.681484000000069]},"properties":{"OBJECTID":296,"name":"太刀〈銘兼永／〉","lon":139.69066799999999,"lat":35.681483999999998}},{"type":"Feature","id":297,"geometry":{"type":"Point","coordinates":[139.77352700000006,35.686417000000063]},"properties":{"OBJECTID":297,"name":"太刀〈銘国信／〉","lon":139.773527,"lat":35.686416999999999}},{"type":"Feature","id":298,"geometry":{"type":"Point","coordinates":[139.76075900000012,35.676597000000072]},"properties":{"OBJECTID":298,"name":"太刀〈銘国村／〉","lon":139.76075900000001,"lat":35.676597000000001}},{"type":"Feature","id":299,"geometry":{"type":"Point","coordinates":[139.69066800000007,35.681484000000069]},"properties":{"OBJECTID":299,"name":"太刀〈銘国行／〉","lon":139.69066799999999,"lat":35.681483999999998}},{"type":"Feature","id":300,"geometry":{"type":"Point","coordinates":[139.69066800000007,35.681484000000069]},"properties":{"OBJECTID":300,"name":"太刀〈銘国行／〉","lon":139.69066799999999,"lat":35.681483999999998}},{"type":"Feature","id":301,"geometry":{"type":"Point","coordinates":[139.77352700000006,35.686417000000063]},"properties":{"OBJECTID":301,"name":"太刀〈銘助真／〉","lon":139.773527,"lat":35.686416999999999}},{"type":"Feature","id":302,"geometry":{"type":"Point","coordinates":[139.69066800000007,35.681484000000069]},"properties":{"OBJECTID":302,"name":"太刀〈銘信房作／〉","lon":139.69066799999999,"lat":35.681483999999998}},{"type":"Feature","id":303,"geometry":{"type":"Point","coordinates":[139.69066800000007,35.681484000000069]},"properties":{"OBJECTID":303,"name":"太刀〈銘延吉／〉","lon":139.69066799999999,"lat":35.681483999999998}},{"type":"Feature","id":304,"geometry":{"type":"Point","coordinates":[139.77352700000006,35.686417000000063]},"properties":{"OBJECTID":304,"name":"太刀〈銘則宗／〉","lon":139.773527,"lat":35.686416999999999}},{"type":"Feature","id":305,"geometry":{"type":"Point","coordinates":[139.77352700000006,35.686417000000063]},"properties":{"OBJECTID":305,"name":"太刀〈銘備州長船住兼光／暦応二年正月日〉","lon":139.773527,"lat":35.686416999999999}},{"type":"Feature","id":306,"geometry":{"type":"Point","coordinates":[139.77352700000006,35.686417000000063]},"properties":{"OBJECTID":306,"name":"太刀〈銘備州長鉛基光／〉","lon":139.773527,"lat":35.686416999999999}},{"type":"Feature","id":307,"geometry":{"type":"Point","coordinates":[139.69066800000007,35.681484000000069]},"properties":{"OBJECTID":307,"name":"太刀〈銘備前国住人雲次／正和二二年十月日〉","lon":139.69066799999999,"lat":35.681483999999998}},{"type":"Feature","id":308,"geometry":{"type":"Point","coordinates":[139.69066800000007,35.681484000000069]},"properties":{"OBJECTID":308,"name":"太刀〈銘正恒／〉　附黒漆太刀拵","lon":139.69066799999999,"lat":35.681483999999998}},{"type":"Feature","id":309,"geometry":{"type":"Point","coordinates":[139.77352700000006,35.686417000000063]},"properties":{"OBJECTID":309,"name":"短刀〈無銘貞宗（名物徳善院貞宗）／〉","lon":139.773527,"lat":35.686416999999999}},{"type":"Feature","id":310,"geometry":{"type":"Point","coordinates":[139.77352700000006,35.686417000000063]},"properties":{"OBJECTID":310,"name":"短刀〈無銘正宗（名物日向正宗）／〉","lon":139.773527,"lat":35.686416999999999}},{"type":"Feature","id":311,"geometry":{"type":"Point","coordinates":[139.69066800000007,35.681484000000069]},"properties":{"OBJECTID":311,"name":"短刀〈銘兼氏／〉","lon":139.69066799999999,"lat":35.681483999999998}},{"type":"Feature","id":312,"geometry":{"type":"Point","coordinates":[139.69066800000007,35.681484000000069]},"properties":{"OBJECTID":312,"name":"短刀〈銘清綱／〉","lon":139.69066799999999,"lat":35.681483999999998}},{"type":"Feature","id":313,"geometry":{"type":"Point","coordinates":[139.74331100000006,35.666944000000058]},"properties":{"OBJECTID":313,"name":"短刀〈銘則重／〉","lon":139.74331100000001,"lat":35.666944000000001}},{"type":"Feature","id":314,"geometry":{"type":"Point","coordinates":[139.71708300000012,35.662251000000026]},"properties":{"OBJECTID":314,"name":"註楞伽経〈巻第七／〉","lon":139.717083,"lat":35.662250999999998}},{"type":"Feature","id":315,"geometry":{"type":"Point","coordinates":[139.74331100000006,35.666944000000058]},"properties":{"OBJECTID":315,"name":"長生殿蒔絵手筥","lon":139.74331100000001,"lat":35.666944000000001}},{"type":"Feature","id":316,"geometry":{"type":"Point","coordinates":[139.71204000000012,35.655642000000057]},"properties":{"OBJECTID":316,"name":"朝野群載〈巻第一／〉","lon":139.71204,"lat":35.655642}},{"type":"Feature","id":317,"geometry":{"type":"Point","coordinates":[139.76075900000012,35.676597000000072]},"properties":{"OBJECTID":317,"name":"継色紙（むめのかの）","lon":139.76075900000001,"lat":35.676597000000001}},{"type":"Feature","id":318,"geometry":{"type":"Point","coordinates":[139.74286800000004,35.649235000000033]},"properties":{"OBJECTID":318,"name":"対馬宗家関係資料","lon":139.74286799999999,"lat":35.649234999999997}},{"type":"Feature","id":319,"geometry":{"type":"Point","coordinates":[139.74421600000005,35.678420000000074]},"properties":{"OBJECTID":319,"name":"対馬宗家倭館関係資料","lon":139.74421599999999,"lat":35.678420000000003}},{"type":"Feature","id":320,"geometry":{"type":"Point","coordinates":[139.76075900000012,35.676597000000072]},"properties":{"OBJECTID":320,"name":"壺形土器","lon":139.76075900000001,"lat":35.676597000000001}},{"type":"Feature","id":321,"geometry":{"type":"Point","coordinates":[139.77352700000006,35.686417000000063]},"properties":{"OBJECTID":321,"name":"手鑑「たかまつ」（百八十六葉）","lon":139.773527,"lat":35.686416999999999}},{"type":"Feature","id":322,"geometry":{"type":"Point","coordinates":[139.76075900000012,35.676597000000072]},"properties":{"OBJECTID":322,"name":"手鑑「見ぬ世の友」（二百二十九葉）","lon":139.76075900000001,"lat":35.676597000000001}},{"type":"Feature","id":323,"geometry":{"type":"Point","coordinates":[139.74421600000005,35.678420000000074]},"properties":{"OBJECTID":323,"name":"天台山記","lon":139.74421599999999,"lat":35.678420000000003}},{"type":"Feature","id":324,"geometry":{"type":"Point","coordinates":[139.75289000000009,35.683934000000079]},"properties":{"OBJECTID":324,"name":"銅色絵蘭陵王置物〈海野勝珉作／〉","lon":139.75289000000001,"lat":35.683934000000001}},{"type":"Feature","id":325,"geometry":{"type":"Point","coordinates":[139.74331100000006,35.666944000000058]},"properties":{"OBJECTID":325,"name":"東大寺文書〈（二十四通）／六曲屏風〉","lon":139.74331100000001,"lat":35.666944000000001}},{"type":"Feature","id":326,"geometry":{"type":"Point","coordinates":[139.71708300000012,35.662251000000026]},"properties":{"OBJECTID":326,"name":"饕餮\u3013鳳文\u3013〈図形文字一／〉","lon":139.717083,"lat":35.662250999999998}},{"type":"Feature","id":327,"geometry":{"type":"Point","coordinates":[139.71708300000012,35.662251000000026]},"properties":{"OBJECTID":327,"name":"饕餮\u3013竜文尊〈図形文字一／〉","lon":139.717083,"lat":35.662250999999998}},{"type":"Feature","id":328,"geometry":{"type":"Point","coordinates":[139.71708300000012,35.662251000000026]},"properties":{"OBJECTID":328,"name":"饕餮文\u3013〈図形文字一／〉","lon":139.717083,"lat":35.662250999999998}},{"type":"Feature","id":329,"geometry":{"type":"Point","coordinates":[139.71708300000012,35.662251000000026]},"properties":{"OBJECTID":329,"name":"饕餮文方\u3013〈文字一／〉","lon":139.717083,"lat":35.662250999999998}},{"type":"Feature","id":330,"geometry":{"type":"Point","coordinates":[139.71708300000012,35.662251000000026]},"properties":{"OBJECTID":330,"name":"内大臣殿歌合〈／元永二年七月〉","lon":139.717083,"lat":35.662250999999998}},{"type":"Feature","id":331,"geometry":{"type":"Point","coordinates":[139.76075900000012,35.676597000000072]},"properties":{"OBJECTID":331,"name":"中務集","lon":139.76075900000001,"lat":35.676597000000001}},{"type":"Feature","id":332,"geometry":{"type":"Point","coordinates":[139.77352700000006,35.686417000000063]},"properties":{"OBJECTID":332,"name":"薙刀〈銘一／〉","lon":139.773527,"lat":35.686416999999999}},{"type":"Feature","id":333,"geometry":{"type":"Point","coordinates":[139.73944800000004,35.661221000000069]},"properties":{"OBJECTID":333,"name":"日英修好通商条約","lon":139.73944800000001,"lat":35.661220999999998}},{"type":"Feature","id":334,"geometry":{"type":"Point","coordinates":[139.73944800000004,35.661221000000069]},"properties":{"OBJECTID":334,"name":"日仏修好通商条約","lon":139.73944800000001,"lat":35.661220999999998}},{"type":"Feature","id":335,"geometry":{"type":"Point","coordinates":[139.73944800000004,35.661221000000069]},"properties":{"OBJECTID":335,"name":"日米修好通商条約","lon":139.73944800000001,"lat":35.661220999999998}},{"type":"Feature","id":336,"geometry":{"type":"Point","coordinates":[139.73944800000004,35.661221000000069]},"properties":{"OBJECTID":336,"name":"日米条約調印書〈／安政四年五月二十六日〉","lon":139.73944800000001,"lat":35.661220999999998}},{"type":"Feature","id":337,"geometry":{"type":"Point","coordinates":[139.73944800000004,35.661221000000069]},"properties":{"OBJECTID":337,"name":"日米和親条約批准書交換証書〈／安政二年正月五日〉","lon":139.73944800000001,"lat":35.661220999999998}},{"type":"Feature","id":338,"geometry":{"type":"Point","coordinates":[139.77352700000006,35.686417000000063]},"properties":{"OBJECTID":338,"name":"日本航海図〈（羊皮紙著色）／〉","lon":139.773527,"lat":35.686416999999999}},{"type":"Feature","id":339,"geometry":{"type":"Point","coordinates":[139.71708300000012,35.662251000000026]},"properties":{"OBJECTID":339,"name":"鼠志野亀甲文茶碗（山端）","lon":139.717083,"lat":35.662250999999998}},{"type":"Feature","id":340,"geometry":{"type":"Point","coordinates":[139.71082700000011,35.643543000000079]},"properties":{"OBJECTID":340,"name":"能本〈世阿弥筆／〉","lon":139.71082699999999,"lat":35.643543000000001}},{"type":"Feature","id":341,"geometry":{"type":"Point","coordinates":[139.71708300000012,35.662251000000026]},"properties":{"OBJECTID":341,"name":"花白河蒔絵硯箱","lon":139.717083,"lat":35.662250999999998}},{"type":"Feature","id":342,"geometry":{"type":"Point","coordinates":[139.71811100000002,35.710789000000034]},"properties":{"OBJECTID":342,"name":"埴輪女子像","lon":139.71811099999999,"lat":35.710788999999998}},{"type":"Feature","id":343,"geometry":{"type":"Point","coordinates":[139.76321200000007,35.696783000000039]},"properties":{"OBJECTID":343,"name":"秘府略〈巻第八百六十四／〉","lon":139.76321200000001,"lat":35.696783000000003}},{"type":"Feature","id":344,"geometry":{"type":"Point","coordinates":[139.75289000000009,35.683934000000079]},"properties":{"OBJECTID":344,"name":"屏風土代〈小野道風筆/〉","lon":139.75289000000001,"lat":35.683934000000001}},{"type":"Feature","id":345,"geometry":{"type":"Point","coordinates":[139.76321200000007,35.696783000000039]},"properties":{"OBJECTID":345,"name":"不空三蔵表制集〈巻第六／（紙背）〉","lon":139.76321200000001,"lat":35.696783000000003}},{"type":"Feature","id":346,"geometry":{"type":"Point","coordinates":[139.71708300000012,35.662251000000026]},"properties":{"OBJECTID":346,"name":"不空三蔵表制集巻第五","lon":139.717083,"lat":35.662250999999998}},{"type":"Feature","id":347,"geometry":{"type":"Point","coordinates":[139.76075900000012,35.676597000000072]},"properties":{"OBJECTID":347,"name":"伏見天皇宸翰御歌集（五十六首）","lon":139.76075900000001,"lat":35.676597000000001}},{"type":"Feature","id":348,"geometry":{"type":"Point","coordinates":[139.76075900000012,35.676597000000072]},"properties":{"OBJECTID":348,"name":"藤原定家筆消息〈九月十日／〉","lon":139.76075900000001,"lat":35.676597000000001}},{"type":"Feature","id":349,"geometry":{"type":"Point","coordinates":[139.73071400000003,35.666850000000068]},"properties":{"OBJECTID":349,"name":"浮線綾螺鈿蒔絵手箱","lon":139.73071400000001,"lat":35.666849999999997}},{"type":"Feature","id":350,"geometry":{"type":"Point","coordinates":[139.71708300000012,35.662251000000026]},"properties":{"OBJECTID":350,"name":"宝相華銀平文袈裟箱","lon":139.717083,"lat":35.662250999999998}},{"type":"Feature","id":351,"geometry":{"type":"Point","coordinates":[139.75386900000001,35.690255000000036]},"properties":{"OBJECTID":351,"name":"北槎聞略〈寛政六年八月／〉","lon":139.75386900000001,"lat":35.690255000000001}},{"type":"Feature","id":352,"geometry":{"type":"Point","coordinates":[139.75386900000001,35.690255000000036]},"properties":{"OBJECTID":352,"name":"法曹類林〈巻第百九十二断簡／第百九十七断簡、第二百（金沢文庫本）〉","lon":139.75386900000001,"lat":35.690255000000001}},{"type":"Feature","id":353,"geometry":{"type":"Point","coordinates":[139.75386900000001,35.690255000000036]},"properties":{"OBJECTID":353,"name":"本朝続文粋（金沢文庫本）","lon":139.75386900000001,"lat":35.690255000000001}},{"type":"Feature","id":354,"geometry":{"type":"Point","coordinates":[139.75386900000001,35.690255000000036]},"properties":{"OBJECTID":354,"name":"間宮林蔵北蝦夷等見分関係記録","lon":139.75386900000001,"lat":35.690255000000001}},{"type":"Feature","id":355,"geometry":{"type":"Point","coordinates":[139.71708300000012,35.662251000000026]},"properties":{"OBJECTID":355,"name":"丸壺茶入（相坂）〈瀬戸／〉","lon":139.717083,"lat":35.662250999999998}},{"type":"Feature","id":356,"geometry":{"type":"Point","coordinates":[139.74421600000005,35.678420000000074]},"properties":{"OBJECTID":356,"name":"満済准后日記〈自筆本／〉","lon":139.74421599999999,"lat":35.678420000000003}},{"type":"Feature","id":357,"geometry":{"type":"Point","coordinates":[139.75289000000009,35.683934000000079]},"properties":{"OBJECTID":357,"name":"万葉集巻第二、第四残巻（金沢本）〈藤原定信筆／彩牋〉\n　附 浦景蒔絵冊子箱\n　　　桐冊子箱\n　　　　　　宝永丁亥仲春望日前田綱紀箱書","lon":139.75289000000001,"lat":35.683934000000001}},{"type":"Feature","id":358,"geometry":{"type":"Point","coordinates":[139.76075900000012,35.676597000000072]},"properties":{"OBJECTID":358,"name":"明恵上人筆消息","lon":139.76075900000001,"lat":35.676597000000001}},{"type":"Feature","id":359,"geometry":{"type":"Point","coordinates":[139.71708300000012,35.662251000000026]},"properties":{"OBJECTID":359,"name":"明極楚俊墨蹟（元徳二年仲春上澣五日）","lon":139.717083,"lat":35.662250999999998}},{"type":"Feature","id":360,"geometry":{"type":"Point","coordinates":[139.71708300000012,35.662251000000026]},"properties":{"OBJECTID":360,"name":"明染付花卉文大皿","lon":139.717083,"lat":35.662250999999998}},{"type":"Feature","id":361,"geometry":{"type":"Point","coordinates":[139.74286800000004,35.649235000000033]},"properties":{"OBJECTID":361,"name":"武蔵国日吉矢上古墳出土品","lon":139.74286799999999,"lat":35.649234999999997}},{"type":"Feature","id":362,"geometry":{"type":"Point","coordinates":[139.71708300000012,35.662251000000026]},"properties":{"OBJECTID":362,"name":"無量義経（裝飾経）","lon":139.717083,"lat":35.662250999999998}},{"type":"Feature","id":363,"geometry":{"type":"Point","coordinates":[139.74421600000005,35.678420000000074]},"properties":{"OBJECTID":363,"name":"銘尽〈（観智院本）／〉","lon":139.74421599999999,"lat":35.678420000000003}},{"type":"Feature","id":364,"geometry":{"type":"Point","coordinates":[139.71708300000012,35.662251000000026]},"properties":{"OBJECTID":364,"name":"木造地蔵菩薩立像","lon":139.717083,"lat":35.662250999999998}},{"type":"Feature","id":365,"geometry":{"type":"Point","coordinates":[139.74726500000008,35.671326000000079]},"properties":{"OBJECTID":365,"name":"木造釈迦如来立像","lon":139.747265,"lat":35.671326000000001}},{"type":"Feature","id":366,"geometry":{"type":"Point","coordinates":[139.74421600000005,35.678420000000074]},"properties":{"OBJECTID":366,"name":"師守記〈自筆本／〉","lon":139.74421599999999,"lat":35.678420000000003}},{"type":"Feature","id":367,"geometry":{"type":"Point","coordinates":[139.76321200000007,35.696783000000039]},"properties":{"OBJECTID":367,"name":"釉裏紅草花文大壺","lon":139.76321200000001,"lat":35.696783000000003}},{"type":"Feature","id":368,"geometry":{"type":"Point","coordinates":[139.71811100000002,35.710789000000034]},"properties":{"OBJECTID":368,"name":"礼記子本疏義巻第五十九","lon":139.71811099999999,"lat":35.710788999999998}},{"type":"Feature","id":369,"geometry":{"type":"Point","coordinates":[139.77352700000006,35.686417000000063]},"properties":{"OBJECTID":369,"name":"楽焼黒茶碗（雨雲）〈光悦作／〉","lon":139.773527,"lat":35.686416999999999}},{"type":"Feature","id":370,"geometry":{"type":"Point","coordinates":[139.77352700000006,35.686417000000063]},"properties":{"OBJECTID":370,"name":"鸞天目茶碗","lon":139.773527,"lat":35.686416999999999}},{"type":"Feature","id":371,"geometry":{"type":"Point","coordinates":[139.76075900000012,35.676597000000072]},"properties":{"OBJECTID":371,"name":"理趣経種子曼荼羅","lon":139.76075900000001,"lat":35.676597000000001}},{"type":"Feature","id":372,"geometry":{"type":"Point","coordinates":[139.71708300000012,35.662251000000026]},"properties":{"OBJECTID":372,"name":"竜巖徳真墨蹟〈与無夢一清偈／至順二年辛未重陽後十日〉","lon":139.717083,"lat":35.662250999999998}},{"type":"Feature","id":373,"geometry":{"type":"Point","coordinates":[139.71204000000012,35.655642000000057]},"properties":{"OBJECTID":373,"name":"梁塵秘抄口伝集巻第十残巻","lon":139.71204,"lat":35.655642}},{"type":"Feature","id":374,"geometry":{"type":"Point","coordinates":[139.71204000000012,35.655642000000057]},"properties":{"OBJECTID":374,"name":"令義解〈神祇令第六／僧尼令第七〉","lon":139.71204,"lat":35.655642}},{"type":"Feature","id":375,"geometry":{"type":"Point","coordinates":[139.76075900000012,35.676597000000072]},"properties":{"OBJECTID":375,"name":"楼閣人物螺鈿食籠","lon":139.76075900000001,"lat":35.676597000000001}},{"type":"Feature","id":376,"geometry":{"type":"Point","coordinates":[139.76075900000012,35.676597000000072]},"properties":{"OBJECTID":376,"name":"和漢朗詠抄〈巻下／〉","lon":139.76075900000001,"lat":35.676597000000001}},{"type":"Feature","id":377,"geometry":{"type":"Point","coordinates":[139.71708300000012,35.662251000000026]},"properties":{"OBJECTID":377,"name":"紙本墨画漁村夕照図〈伝牧谿筆／〉","lon":139.717083,"lat":35.662250999999998}},{"type":"Feature","id":378,"geometry":{"type":"Point","coordinates":[139.71708300000012,35.662251000000026]},"properties":{"OBJECTID":378,"name":"紙本金地著色燕子花図〈尾形光琳筆／六曲屏風〉","lon":139.717083,"lat":35.662250999999998}},{"type":"Feature","id":379,"geometry":{"type":"Point","coordinates":[139.71708300000012,35.662251000000026]},"properties":{"OBJECTID":379,"name":"紙本墨画禅機図断簡〈因陀羅筆／（布袋図）〉","lon":139.717083,"lat":35.662250999999998}},{"type":"Feature","id":380,"geometry":{"type":"Point","coordinates":[139.76075900000012,35.676597000000072]},"properties":{"OBJECTID":380,"name":"紙本著色伴大納言絵詞","lon":139.76075900000001,"lat":35.676597000000001}},{"type":"Feature","id":381,"geometry":{"type":"Point","coordinates":[139.77352700000006,35.686417000000063]},"properties":{"OBJECTID":381,"name":"紙本淡彩雪松図〈円山応挙筆／六曲屏風〉","lon":139.773527,"lat":35.686416999999999}},{"type":"Feature","id":382,"geometry":{"type":"Point","coordinates":[139.71708300000012,35.662251000000026]},"properties":{"OBJECTID":382,"name":"紙本墨画竹雀図","lon":139.717083,"lat":35.662250999999998}},{"type":"Feature","id":383,"geometry":{"type":"Point","coordinates":[139.72969400000011,35.666656000000046]},"properties":{"OBJECTID":383,"name":"紙本著色病草紙断簡（不眠の女）","lon":139.72969399999999,"lat":35.666656000000003}},{"type":"Feature","id":384,"geometry":{"type":"Point","coordinates":[139.71708300000012,35.662251000000026]},"properties":{"OBJECTID":384,"name":"紙本淡彩山水図〈伝周文筆／〉","lon":139.717083,"lat":35.662250999999998}},{"type":"Feature","id":385,"geometry":{"type":"Point","coordinates":[139.71708300000012,35.662251000000026]},"properties":{"OBJECTID":385,"name":"紙本淡彩観瀑図","lon":139.717083,"lat":35.662250999999998}},{"type":"Feature","id":386,"geometry":{"type":"Point","coordinates":[139.71708300000012,35.662251000000026]},"properties":{"OBJECTID":386,"name":"紙本墨画風雨山水図","lon":139.717083,"lat":35.662250999999998}},{"type":"Feature","id":387,"geometry":{"type":"Point","coordinates":[139.71708300000012,35.662251000000026]},"properties":{"OBJECTID":387,"name":"紙本著色瓜虫図〈呂敬甫筆／自賛がある〉","lon":139.717083,"lat":35.662250999999998}},{"type":"Feature","id":388,"geometry":{"type":"Point","coordinates":[139.71708300000012,35.662251000000026]},"properties":{"OBJECTID":388,"name":"紙本金地著色藤花図〈円山応挙筆／六曲屏風〉","lon":139.717083,"lat":35.662250999999998}},{"type":"Feature","id":389,"geometry":{"type":"Point","coordinates":[139.71708300000012,35.662251000000026]},"properties":{"OBJECTID":389,"name":"紙本著色絵過去現在因果経〈巻第二／〉","lon":139.717083,"lat":35.662250999999998}},{"type":"Feature","id":390,"geometry":{"type":"Point","coordinates":[139.71708300000012,35.662251000000026]},"properties":{"OBJECTID":390,"name":"紙本著色天狗草紙","lon":139.717083,"lat":35.662250999999998}},{"type":"Feature","id":391,"geometry":{"type":"Point","coordinates":[139.71708300000012,35.662251000000026]},"properties":{"OBJECTID":391,"name":"紙本著色十二因縁絵巻","lon":139.717083,"lat":35.662250999999998}},{"type":"Feature","id":392,"geometry":{"type":"Point","coordinates":[139.73071400000003,35.666850000000068]},"properties":{"OBJECTID":392,"name":"紙本墨画善教房絵詞","lon":139.73071400000001,"lat":35.666849999999997}},{"type":"Feature","id":393,"geometry":{"type":"Point","coordinates":[139.73071400000003,35.666850000000068]},"properties":{"OBJECTID":393,"name":"紙本金地著色泰西王侯騎馬図〈／四曲屏風〉","lon":139.73071400000001,"lat":35.666849999999997}},{"type":"Feature","id":394,"geometry":{"type":"Point","coordinates":[139.73071400000003,35.666850000000068]},"properties":{"OBJECTID":394,"name":"紙本金地著色南蛮人渡来図〈／六曲屏風〉","lon":139.73071400000001,"lat":35.666849999999997}},{"type":"Feature","id":395,"geometry":{"type":"Point","coordinates":[139.76075900000012,35.676597000000072]},"properties":{"OBJECTID":395,"name":"紙本墨画青山園荘図","lon":139.76075900000001,"lat":35.676597000000001}},{"type":"Feature","id":396,"geometry":{"type":"Point","coordinates":[139.76075900000012,35.676597000000072]},"properties":{"OBJECTID":396,"name":"紙本著色西行法師行状絵詞〈巻第一、第二、第四〉","lon":139.76075900000001,"lat":35.676597000000001}},{"type":"Feature","id":397,"geometry":{"type":"Point","coordinates":[139.76075900000012,35.676597000000072]},"properties":{"OBJECTID":397,"name":"紙本墨画平沙落雁図〈伝牧谿筆／「道有」ノ印アリ〉","lon":139.76075900000001,"lat":35.676597000000001}},{"type":"Feature","id":398,"geometry":{"type":"Point","coordinates":[139.76075900000012,35.676597000000072]},"properties":{"OBJECTID":398,"name":"紙本淡彩十二月離合山水図〈池大雅筆／六曲屏風〉","lon":139.76075900000001,"lat":35.676597000000001}},{"type":"Feature","id":399,"geometry":{"type":"Point","coordinates":[139.76075900000012,35.676597000000072]},"properties":{"OBJECTID":399,"name":"著色絵料紙墨書法華経残闕〈／（扇面写経）〉","lon":139.76075900000001,"lat":35.676597000000001}},{"type":"Feature","id":400,"geometry":{"type":"Point","coordinates":[139.76075900000012,35.676597000000072]},"properties":{"OBJECTID":400,"name":"紙本墨画山市晴嵐図〈玉澗筆／自賛がある〉","lon":139.76075900000001,"lat":35.676597000000001}},{"type":"Feature","id":401,"geometry":{"type":"Point","coordinates":[139.76075900000012,35.676597000000072]},"properties":{"OBJECTID":401,"name":"紙本著色柿本人麿像〈／（佐竹本三十六歌仙切）〉","lon":139.76075900000001,"lat":35.676597000000001}},{"type":"Feature","id":402,"geometry":{"type":"Point","coordinates":[139.76075900000012,35.676597000000072]},"properties":{"OBJECTID":402,"name":"紙本著色梅花書屋図〈田能村竹田筆／天保三年の年記がある〉","lon":139.76075900000001,"lat":35.676597000000001}},{"type":"Feature","id":403,"geometry":{"type":"Point","coordinates":[139.76075900000012,35.676597000000072]},"properties":{"OBJECTID":403,"name":"紙本金地著色祇園祭礼図〈／六曲屏風〉","lon":139.76075900000001,"lat":35.676597000000001}},{"type":"Feature","id":404,"geometry":{"type":"Point","coordinates":[139.76075900000012,35.676597000000072]},"properties":{"OBJECTID":404,"name":"紙本墨画双峰挿雲図〈浦上玉堂筆／〉","lon":139.76075900000001,"lat":35.676597000000001}},{"type":"Feature","id":405,"geometry":{"type":"Point","coordinates":[139.76075900000012,35.676597000000072]},"properties":{"OBJECTID":405,"name":"紙本墨画籠煙惹滋図〈浦上玉堂筆／〉","lon":139.76075900000001,"lat":35.676597000000001}},{"type":"Feature","id":406,"geometry":{"type":"Point","coordinates":[139.76075900000012,35.676597000000072]},"properties":{"OBJECTID":406,"name":"紙本淡彩戸山山荘図〈谷文晁筆／〉","lon":139.76075900000001,"lat":35.676597000000001}},{"type":"Feature","id":407,"geometry":{"type":"Point","coordinates":[139.76075900000012,35.676597000000072]},"properties":{"OBJECTID":407,"name":"紙本著色絵因果経〈巻第三上／〉","lon":139.76075900000001,"lat":35.676597000000001}},{"type":"Feature","id":408,"geometry":{"type":"Point","coordinates":[139.76075900000012,35.676597000000072]},"properties":{"OBJECTID":408,"name":"紙本著色四季花木図〈／六曲屏風〉","lon":139.76075900000001,"lat":35.676597000000001}},{"type":"Feature","id":409,"geometry":{"type":"Point","coordinates":[139.76075900000012,35.676597000000072]},"properties":{"OBJECTID":409,"name":"紙本著色直幹申文絵詞","lon":139.76075900000001,"lat":35.676597000000001}},{"type":"Feature","id":410,"geometry":{"type":"Point","coordinates":[139.77352700000006,35.686417000000063]},"properties":{"OBJECTID":410,"name":"紙本金地著色日月松鶴図〈／六曲屏風〉","lon":139.773527,"lat":35.686416999999999}},{"type":"Feature","id":411,"geometry":{"type":"Point","coordinates":[139.75472500000001,35.690568000000042]},"properties":{"OBJECTID":411,"name":"裸体美人〈萬鐵五郎筆／油絵　麻布〉","lon":139.75472500000001,"lat":35.690567999999999}},{"type":"Feature","id":412,"geometry":{"type":"Point","coordinates":[139.75472500000001,35.690568000000042]},"properties":{"OBJECTID":412,"name":"三遊亭円朝像（鏑木清方筆／絹本著色）","lon":139.75472500000001,"lat":35.690567999999999}},{"type":"Feature","id":413,"geometry":{"type":"Point","coordinates":[139.75472500000001,35.690568000000042]},"properties":{"OBJECTID":413,"name":"切通しの写生〈岸田劉生筆　一九一五年／油絵　麻布〉","lon":139.75472500000001,"lat":35.690567999999999}},{"type":"Feature","id":414,"geometry":{"type":"Point","coordinates":[139.75472500000001,35.690568000000042]},"properties":{"OBJECTID":414,"name":"紙本著色行く春図〈川合玉堂筆／六曲屏風〉","lon":139.75472500000001,"lat":35.690567999999999}},{"type":"Feature","id":415,"geometry":{"type":"Point","coordinates":[139.74331100000006,35.666944000000058]},"properties":{"OBJECTID":415,"name":"紙本著色鵜飼図〈狩野探幽筆／六曲屏風〉","lon":139.74331100000001,"lat":35.666944000000001}},{"type":"Feature","id":416,"geometry":{"type":"Point","coordinates":[139.71082700000011,35.643543000000079]},"properties":{"OBJECTID":416,"name":"能面父尉（伝弥勒作）","lon":139.71082699999999,"lat":35.643543000000001}},{"type":"Feature","id":417,"geometry":{"type":"Point","coordinates":[139.71082700000011,35.643543000000079]},"properties":{"OBJECTID":417,"name":"能面延命冠者（伝文蔵作）","lon":139.71082699999999,"lat":35.643543000000001}},{"type":"Feature","id":418,"geometry":{"type":"Point","coordinates":[139.71082700000011,35.643543000000079]},"properties":{"OBJECTID":418,"name":"能面大悪尉（伝赤鶴作）","lon":139.71082699999999,"lat":35.643543000000001}},{"type":"Feature","id":419,"geometry":{"type":"Point","coordinates":[139.71082700000011,35.643543000000079]},"properties":{"OBJECTID":419,"name":"能面鼻瘤悪尉（伝福来作）","lon":139.71082699999999,"lat":35.643543000000001}},{"type":"Feature","id":420,"geometry":{"type":"Point","coordinates":[139.71082700000011,35.643543000000079]},"properties":{"OBJECTID":420,"name":"能面慈童（伝竜右衛門作）","lon":139.71082699999999,"lat":35.643543000000001}},{"type":"Feature","id":421,"geometry":{"type":"Point","coordinates":[139.71082700000011,35.643543000000079]},"properties":{"OBJECTID":421,"name":"能面翁（黒色尉）（伝日光作）","lon":139.71082699999999,"lat":35.643543000000001}},{"type":"Feature","id":422,"geometry":{"type":"Point","coordinates":[139.71082700000011,35.643543000000079]},"properties":{"OBJECTID":422,"name":"能面子牛尉（伝小牛作）","lon":139.71082699999999,"lat":35.643543000000001}},{"type":"Feature","id":423,"geometry":{"type":"Point","coordinates":[139.71082700000011,35.643543000000079]},"properties":{"OBJECTID":423,"name":"能面阿古父尉（伝小牛作）","lon":139.71082699999999,"lat":35.643543000000001}},{"type":"Feature","id":424,"geometry":{"type":"Point","coordinates":[139.71082700000011,35.643543000000079]},"properties":{"OBJECTID":424,"name":"能面笑尉（伝小牛作）","lon":139.71082699999999,"lat":35.643543000000001}},{"type":"Feature","id":425,"geometry":{"type":"Point","coordinates":[139.71082700000011,35.643543000000079]},"properties":{"OBJECTID":425,"name":"能面朝倉尉（伝福来作）","lon":139.71082699999999,"lat":35.643543000000001}},{"type":"Feature","id":426,"geometry":{"type":"Point","coordinates":[139.71082700000011,35.643543000000079]},"properties":{"OBJECTID":426,"name":"能面大飛出（伝赤鶴作）","lon":139.71082699999999,"lat":35.643543000000001}},{"type":"Feature","id":427,"geometry":{"type":"Point","coordinates":[139.71082700000011,35.643543000000079]},"properties":{"OBJECTID":427,"name":"能面天神（伝赤鶴作）","lon":139.71082699999999,"lat":35.643543000000001}},{"type":"Feature","id":428,"geometry":{"type":"Point","coordinates":[139.71708300000012,35.662251000000026]},"properties":{"OBJECTID":428,"name":"銅造〈釈迦如来／多宝如来〉並坐像","lon":139.717083,"lat":35.662250999999998}},{"type":"Feature","id":429,"geometry":{"type":"Point","coordinates":[139.71082700000011,35.643543000000079]},"properties":{"OBJECTID":429,"name":"能面翁（白色尉）（伝弥勒作）","lon":139.71082699999999,"lat":35.643543000000001}},{"type":"Feature","id":430,"geometry":{"type":"Point","coordinates":[139.71082700000011,35.643543000000079]},"properties":{"OBJECTID":430,"name":"能面皺尉（伝福来作）","lon":139.71082699999999,"lat":35.643543000000001}},{"type":"Feature","id":431,"geometry":{"type":"Point","coordinates":[139.74331100000006,35.666944000000058]},"properties":{"OBJECTID":431,"name":"石造如来立像","lon":139.74331100000001,"lat":35.666944000000001}},{"type":"Feature","id":432,"geometry":{"type":"Point","coordinates":[139.75472500000001,35.690568000000042]},"properties":{"OBJECTID":432,"name":"ゆあみ〈新海竹太郎作　一九〇七年／石膏原型〉","lon":139.75472500000001,"lat":35.690567999999999}},{"type":"Feature","id":433,"geometry":{"type":"Point","coordinates":[139.73575100000005,35.637414000000035]},"properties":{"OBJECTID":433,"name":"浅野長矩墓および赤穂義士墓","lon":139.73575099999999,"lat":35.637414}},{"type":"Feature","id":434,"geometry":{"type":"Point","coordinates":[139.75445000000002,35.688252000000034]},"properties":{"OBJECTID":434,"name":"江戸城跡","lon":139.75444999999999,"lat":35.688251999999999}},{"type":"Feature","id":435,"geometry":{"type":"Point","coordinates":[139.74851500000011,35.690674000000058]},"properties":{"OBJECTID":435,"name":"江戸城跡のヒカリゴケ生育地","lon":139.748515,"lat":35.690674000000001}},{"type":"Feature","id":436,"geometry":{"type":"Point","coordinates":[139.73752500000012,35.69319100000007]},"properties":{"OBJECTID":436,"name":"江戸城外堀跡","lon":139.73752500000001,"lat":35.693190999999999}},{"type":"Feature","id":437,"geometry":{"type":"Point","coordinates":[139.7302390000001,35.592989000000046]},"properties":{"OBJECTID":437,"name":"大森貝塚","lon":139.73023900000001,"lat":35.592989000000003}},{"type":"Feature","id":438,"geometry":{"type":"Point","coordinates":[139.73760800000002,35.64414000000005]},"properties":{"OBJECTID":438,"name":"荻生徂徠墓","lon":139.73760799999999,"lat":35.64414}},{"type":"Feature","id":439,"geometry":{"type":"Point","coordinates":[139.73671200000001,35.617898000000025]},"properties":{"OBJECTID":439,"name":"加茂真淵墓","lon":139.73671200000001,"lat":35.617897999999997}},{"type":"Feature","id":440,"geometry":{"type":"Point","coordinates":[139.75863300000003,35.654865000000029]},"properties":{"OBJECTID":440,"name":"旧芝離宮庭園","lon":139.758633,"lat":35.654865000000001}},{"type":"Feature","id":441,"geometry":{"type":"Point","coordinates":[139.71937400000002,35.638668000000052]},"properties":{"OBJECTID":441,"name":"旧白金御料地","lon":139.71937399999999,"lat":35.638668000000003}},{"type":"Feature","id":442,"geometry":{"type":"Point","coordinates":[139.76146100000005,35.665980000000047]},"properties":{"OBJECTID":442,"name":"旧新橋停車場跡及び高輪築堤跡","lon":139.761461,"lat":35.665979999999998}},{"type":"Feature","id":443,"geometry":{"type":"Point","coordinates":[139.76335000000006,35.65989200000007]},"properties":{"OBJECTID":443,"name":"旧浜離宮庭園","lon":139.76335,"lat":35.659891999999999}},{"type":"Feature","id":444,"geometry":{"type":"Point","coordinates":[139.73140600000011,35.663582000000076]},"properties":{"OBJECTID":444,"name":"佐藤一斎墓","lon":139.73140599999999,"lat":35.663581999999998}},{"type":"Feature","id":445,"geometry":{"type":"Point","coordinates":[139.77203900000006,35.633548000000076]},"properties":{"OBJECTID":445,"name":"品川台場","lon":139.77203900000001,"lat":35.633547999999998}},{"type":"Feature","id":446,"geometry":{"type":"Point","coordinates":[139.73325000000011,35.653250000000071]},"properties":{"OBJECTID":446,"name":"善福寺のイチョウ","lon":139.73325,"lat":35.65325}},{"type":"Feature","id":447,"geometry":{"type":"Point","coordinates":[139.73575100000005,35.637414000000035]},"properties":{"OBJECTID":447,"name":"高輪大木戸跡","lon":139.73575099999999,"lat":35.637414}},{"type":"Feature","id":448,"geometry":{"type":"Point","coordinates":[139.73671200000001,35.617898000000025]},"properties":{"OBJECTID":448,"name":"沢庵墓","lon":139.73671200000001,"lat":35.617897999999997}},{"type":"Feature","id":449,"geometry":{"type":"Point","coordinates":[139.73511200000007,35.634239000000036]},"properties":{"OBJECTID":449,"name":"東禅寺","lon":139.73511199999999,"lat":35.634239000000001}},{"type":"Feature","id":450,"geometry":{"type":"Point","coordinates":[139.77018400000009,35.686020000000042]},"properties":{"OBJECTID":450,"name":"常盤橋門跡","lon":139.770184,"lat":35.686019999999999}},{"type":"Feature","id":451,"geometry":{"type":"Point","coordinates":[139.79988000000003,35.681529000000069]},"properties":{"OBJECTID":451,"name":"松平定信墓","lon":139.79988,"lat":35.681528999999998}},{"type":"Feature","id":452,"geometry":{"type":"Point","coordinates":[139.72459500000002,35.704901000000064]},"properties":{"OBJECTID":452,"name":"山鹿素行墓","lon":139.72459499999999,"lat":35.704901}},{"type":"Feature","id":453,"geometry":{"type":"Point","coordinates":[139.72872200000006,35.700596000000075]},"properties":{"OBJECTID":453,"name":"林氏墓地","lon":139.728722,"lat":35.700595999999997}},{"type":"Feature","id":454,"geometry":{"type":"Point","coordinates":[139.73511200000007,35.634239000000036]},"properties":{"OBJECTID":454,"name":"菊池氏茶室（\u25A0(石偏に間)居）庭園","lon":139.73511199999999,"lat":35.634239000000001}},{"type":"Feature","id":455,"geometry":{"type":"Point","coordinates":[139.71034900000006,35.660723000000075]},"properties":{"OBJECTID":455,"name":"青山学院ベリーホール","lon":139.71034900000001,"lat":35.660722999999997}},{"type":"Feature","id":456,"geometry":{"type":"Point","coordinates":[139.71034900000006,35.660723000000075]},"properties":{"OBJECTID":456,"name":"青山学院間島記念館","lon":139.71034900000001,"lat":35.660722999999997}},{"type":"Feature","id":457,"geometry":{"type":"Point","coordinates":[139.72957300000007,35.699854000000073]},"properties":{"OBJECTID":457,"name":"新井家住宅主屋","lon":139.72957299999999,"lat":35.699854000000002}},{"type":"Feature","id":458,"geometry":{"type":"Point","coordinates":[139.73521200000005,35.702345000000037]},"properties":{"OBJECTID":458,"name":"一水寮","lon":139.73521199999999,"lat":35.702345000000001}},{"type":"Feature","id":459,"geometry":{"type":"Point","coordinates":[139.77807300000006,35.689335000000028]},"properties":{"OBJECTID":459,"name":"江戸屋店舗兼住宅","lon":139.77807300000001,"lat":35.689335}},{"type":"Feature","id":460,"geometry":{"type":"Point","coordinates":[139.74331100000006,35.666944000000058]},"properties":{"OBJECTID":460,"name":"大倉集古館陳列館","lon":139.74331100000001,"lat":35.666944000000001}},{"type":"Feature","id":461,"geometry":{"type":"Point","coordinates":[139.77267300000005,35.672155000000032]},"properties":{"OBJECTID":461,"name":"大野屋總本店店舗","lon":139.772673,"lat":35.672154999999997}},{"type":"Feature","id":462,"geometry":{"type":"Point","coordinates":[139.74237000000005,35.662866000000065]},"properties":{"OBJECTID":462,"name":"大橋茶寮表門","lon":139.74236999999999,"lat":35.662866000000001}},{"type":"Feature","id":463,"geometry":{"type":"Point","coordinates":[139.74237000000005,35.662866000000065]},"properties":{"OBJECTID":463,"name":"大橋茶寮茶室葵","lon":139.74236999999999,"lat":35.662866000000001}},{"type":"Feature","id":464,"geometry":{"type":"Point","coordinates":[139.74237000000005,35.662866000000065]},"properties":{"OBJECTID":464,"name":"大橋茶寮茶室桂","lon":139.74236999999999,"lat":35.662866000000001}},{"type":"Feature","id":465,"geometry":{"type":"Point","coordinates":[139.74237000000005,35.662866000000065]},"properties":{"OBJECTID":465,"name":"大橋茶寮茶室守貧庵","lon":139.74236999999999,"lat":35.662866000000001}},{"type":"Feature","id":466,"geometry":{"type":"Point","coordinates":[139.74237000000005,35.662866000000065]},"properties":{"OBJECTID":466,"name":"大橋茶寮茶室如庵写","lon":139.74236999999999,"lat":35.662866000000001}},{"type":"Feature","id":467,"geometry":{"type":"Point","coordinates":[139.74237000000005,35.662866000000065]},"properties":{"OBJECTID":467,"name":"大橋茶寮茶室山吹","lon":139.74236999999999,"lat":35.662866000000001}},{"type":"Feature","id":468,"geometry":{"type":"Point","coordinates":[139.74237000000005,35.662866000000065]},"properties":{"OBJECTID":468,"name":"大橋茶寮中門","lon":139.74236999999999,"lat":35.662866000000001}},{"type":"Feature","id":469,"geometry":{"type":"Point","coordinates":[139.74237000000005,35.662866000000065]},"properties":{"OBJECTID":469,"name":"大橋茶寮不老門","lon":139.74236999999999,"lat":35.662866000000001}},{"type":"Feature","id":470,"geometry":{"type":"Point","coordinates":[139.74237000000005,35.662866000000065]},"properties":{"OBJECTID":470,"name":"大橋茶寮塀","lon":139.74236999999999,"lat":35.662866000000001}},{"type":"Feature","id":471,"geometry":{"type":"Point","coordinates":[139.71139500000004,35.65433100000007]},"properties":{"OBJECTID":471,"name":"温故学会会館","lon":139.71139500000001,"lat":35.654330999999999}},{"type":"Feature","id":472,"geometry":{"type":"Point","coordinates":[139.75898700000005,35.693192000000067]},"properties":{"OBJECTID":472,"name":"学士会館","lon":139.75898699999999,"lat":35.693192000000003}},{"type":"Feature","id":473,"geometry":{"type":"Point","coordinates":[139.75735500000008,35.699387000000058]},"properties":{"OBJECTID":473,"name":"カトリック神田教会聖堂","lon":139.75735499999999,"lat":35.699387000000002}},{"type":"Feature","id":474,"geometry":{"type":"Point","coordinates":[139.76816000000008,35.701982000000044]},"properties":{"OBJECTID":474,"name":"神田神社神饌所","lon":139.76815999999999,"lat":35.701982000000001}},{"type":"Feature","id":475,"geometry":{"type":"Point","coordinates":[139.76816000000008,35.701982000000044]},"properties":{"OBJECTID":475,"name":"神田神社西門","lon":139.76815999999999,"lat":35.701982000000001}},{"type":"Feature","id":476,"geometry":{"type":"Point","coordinates":[139.76816000000008,35.701982000000044]},"properties":{"OBJECTID":476,"name":"神田神社拝殿","lon":139.76815999999999,"lat":35.701982000000001}},{"type":"Feature","id":477,"geometry":{"type":"Point","coordinates":[139.76816000000008,35.701982000000044]},"properties":{"OBJECTID":477,"name":"神田神社東門","lon":139.76815999999999,"lat":35.701982000000001}},{"type":"Feature","id":478,"geometry":{"type":"Point","coordinates":[139.76816000000008,35.701982000000044]},"properties":{"OBJECTID":478,"name":"神田神社幣殿","lon":139.76815999999999,"lat":35.701982000000001}},{"type":"Feature","id":479,"geometry":{"type":"Point","coordinates":[139.76816000000008,35.701982000000044]},"properties":{"OBJECTID":479,"name":"神田神社宝庫","lon":139.76815999999999,"lat":35.701982000000001}},{"type":"Feature","id":480,"geometry":{"type":"Point","coordinates":[139.76816000000008,35.701982000000044]},"properties":{"OBJECTID":480,"name":"神田神社本殿","lon":139.76815999999999,"lat":35.701982000000001}},{"type":"Feature","id":481,"geometry":{"type":"Point","coordinates":[139.76816000000008,35.701982000000044]},"properties":{"OBJECTID":481,"name":"神田神社瑞垣","lon":139.76815999999999,"lat":35.701982000000001}},{"type":"Feature","id":482,"geometry":{"type":"Point","coordinates":[139.74426400000004,35.66597100000007]},"properties":{"OBJECTID":482,"name":"菊池寛実記念智美術館別館","lon":139.74426399999999,"lat":35.665970999999999}},{"type":"Feature","id":483,"geometry":{"type":"Point","coordinates":[139.75139200000001,35.694378000000029]},"properties":{"OBJECTID":483,"name":"旧九段会館","lon":139.75139200000001,"lat":35.694378}},