{
  "type" : "FeatureCollection",
  "features" : [{"type":"Feature","id":1,"geometry":{"type":"Point","coordinates":[139.7625700000001,35.681060000000059]},"properties":{"OBJECTID":1,"name":"三菱商事","lon":139.76257000000001,"lat":35.681060000000002}},{"type":"Feature","id":2,"geometry":{"type":"Point","coordinates":[139.72375000000011,35.672270000000026]},"properties":{"OBJECTID":2,"name":"本田技研工業株式会社","lon":139.72375,"lat":35.672269999999997}},{"type":"Feature","id":3,"geometry":{"type":"Point","coordinates":[139.76226000000008,35.687750000000051]},"properties":{"OBJECTID":3,"name":"三井物産株式会社","lon":139.76226,"lat":35.687750000000001}},{"type":"Feature","id":4,"geometry":{"type":"Point","coordinates":[139.7637400000001,35.685700000000054]},"properties":{"OBJECTID":4,"name":"ＮＴＴ（日本電信電話株式会社）","lon":139.76374000000001,"lat":35.685699999999997}},{"type":"Feature","id":5,"geometry":{"type":"Point","coordinates":[139.76199000000008,35.686060000000055]},"properties":{"OBJECTID":5,"name":"ＥＮＥＯＳホールディングス株式会社","lon":139.76199,"lat":35.686059999999998}},{"type":"Feature","id":6,"geometry":{"type":"Point","coordinates":[139.73405000000002,35.685840000000042]},"properties":{"OBJECTID":6,"name":"株式会社セブン＆アイ・ホールディングス","lon":139.73405,"lat":35.685839999999999}},{"type":"Feature","id":7,"geometry":{"type":"Point","coordinates":[139.7436100000001,35.631170000000054]},"properties":{"OBJECTID":7,"name":"ソニー株式会社","lon":139.74360999999999,"lat":35.631169999999997}},{"type":"Feature","id":8,"geometry":{"type":"Point","coordinates":[139.76744000000008,35.686860000000024]},"properties":{"OBJECTID":8,"name":"日本郵政株式会社","lon":139.76743999999999,"lat":35.686860000000003}},{"type":"Feature","id":9,"geometry":{"type":"Point","coordinates":[139.76577000000009,35.683190000000025]},"properties":{"OBJECTID":9,"name":"株式会社日立製作所","lon":139.76577,"lat":35.683190000000003}},{"type":"Feature","id":10,"geometry":{"type":"Point","coordinates":[139.76082000000008,35.675840000000051]},"properties":{"OBJECTID":10,"name":"第一生命保険株式会社","lon":139.76082,"lat":35.675840000000001}},{"type":"Feature","id":11,"geometry":{"type":"Point","coordinates":[139.76433000000009,35.678610000000049]},"properties":{"OBJECTID":11,"name":"三菱ＵＦＪフィナンシャル・グループ","lon":139.76433,"lat":35.678609999999999}},{"type":"Feature","id":12,"geometry":{"type":"Point","coordinates":[139.7585600000001,35.690600000000074]},"properties":{"OBJECTID":12,"name":"丸紅株式会社","lon":139.75855999999999,"lat":35.690600000000003}},{"type":"Feature","id":13,"geometry":{"type":"Point","coordinates":[139.76232000000005,35.68852000000004]},"properties":{"OBJECTID":13,"name":"出光興産株式会社","lon":139.76231999999999,"lat":35.688519999999997}},{"type":"Feature","id":14,"geometry":{"type":"Point","coordinates":[139.76253000000008,35.678570000000036]},"properties":{"OBJECTID":14,"name":"日鉄物産株式会社","lon":139.76253,"lat":35.678570000000001}},{"type":"Feature","id":15,"geometry":{"type":"Point","coordinates":[139.75843000000009,35.670110000000079]},"properties":{"OBJECTID":15,"name":"東京電力ホールディングス株式会社","lon":139.75843,"lat":35.670110000000001}},{"type":"Feature","id":16,"geometry":{"type":"Point","coordinates":[139.76796000000002,35.687150000000031]},"properties":{"OBJECTID":16,"name":"株式会社三井住友銀行","lon":139.76795999999999,"lat":35.687150000000003}},{"type":"Feature","id":17,"geometry":{"type":"Point","coordinates":[139.76768000000004,35.684090000000026]},"properties":{"OBJECTID":17,"name":"東京海上ホールディングス株式会社","lon":139.76768000000001,"lat":35.684089999999998}},{"type":"Feature","id":18,"geometry":{"type":"Point","coordinates":[139.75810000000001,35.655210000000068]},"properties":{"OBJECTID":18,"name":"ソフトバンク株式会社","lon":139.75810000000001,"lat":35.655209999999997}},{"type":"Feature","id":19,"geometry":{"type":"Point","coordinates":[139.76237000000003,35.684980000000053]},"properties":{"OBJECTID":19,"name":"三井住友フィナンシャルグループ","lon":139.76237,"lat":35.684980000000003}},{"type":"Feature","id":20,"geometry":{"type":"Point","coordinates":[139.76540000000011,35.685510000000079]},"properties":{"OBJECTID":20,"name":"株式会社みずほフィナンシャルグループ　","lon":139.7654,"lat":35.685510000000001}},{"type":"Feature","id":21,"geometry":{"type":"Point","coordinates":[139.75054000000011,35.700320000000033]},"properties":{"OBJECTID":21,"name":"ＫＤＤＩ株式会社　","lon":139.75054,"lat":35.700319999999998}},{"type":"Feature","id":22,"geometry":{"type":"Point","coordinates":[139.76208000000008,35.67915000000005]},"properties":{"OBJECTID":22,"name":"明治安田生命保険相互会社","lon":139.76208,"lat":35.67915}},{"type":"Feature","id":23,"geometry":{"type":"Point","coordinates":[139.75431000000003,35.670330000000035]},"properties":{"OBJECTID":23,"name":"ＪＦＥ（ジェイエフイー）ホールディングス株式会社","lon":139.75431,"lat":35.67033}},{"type":"Feature","id":24,"geometry":{"type":"Point","coordinates":[139.78432000000009,35.674250000000029]},"properties":{"OBJECTID":24,"name":"ＭＳ＆ＡＤインシュアランスグループホールディングス株式会社","lon":139.78432000000001,"lat":35.674250000000001}},{"type":"Feature","id":25,"geometry":{"type":"Point","coordinates":[139.76494000000002,35.678610000000049]},"properties":{"OBJECTID":25,"name":"三菱電機株式会社","lon":139.76494,"lat":35.678609999999999}},{"type":"Feature","id":26,"geometry":{"type":"Point","coordinates":[139.75904000000003,35.685130000000072]},"properties":{"OBJECTID":26,"name":"三菱ケミカルグループ","lon":139.75904,"lat":35.685130000000001}},{"type":"Feature","id":27,"geometry":{"type":"Point","coordinates":[139.69652000000008,35.692590000000052]},"properties":{"OBJECTID":27,"name":"ＳＯＭＰＯホールディングス株式会社","lon":139.69651999999999,"lat":35.692590000000003}},{"type":"Feature","id":28,"geometry":{"type":"Point","coordinates":[139.76838000000009,35.676100000000076]},"properties":{"OBJECTID":28,"name":"株式会社ブリヂストン","lon":139.76838000000001,"lat":35.676099999999998}},{"type":"Feature","id":29,"geometry":{"type":"Point","coordinates":[139.76173000000006,35.677700000000073]},"properties":{"OBJECTID":29,"name":"三菱重工業株式会社","lon":139.76173,"lat":35.677700000000002}}]
}