{
  "type" : "FeatureCollection",
  "features" : [{"type":"Feature","id":1,"geometry":{"type":"Point","coordinates":[139.77276600000005,35.702695000000062]},"properties":{"OBJECTID":1,"name":"ほっぺるランド外神田","lon":139.77276599999999,"lat":35.702694999999999}},{"type":"Feature","id":2,"geometry":{"type":"Point","coordinates":[139.76986000000011,35.702460000000031]},"properties":{"OBJECTID":2,"name":"外神田かなりや保育園","lon":139.76985999999999,"lat":35.702460000000002}},{"type":"Feature","id":3,"geometry":{"type":"Point","coordinates":[139.77847400000007,35.699154000000078]},"properties":{"OBJECTID":3,"name":"いずみこども園","lon":139.77847399999999,"lat":35.699154}},{"type":"Feature","id":4,"geometry":{"type":"Point","coordinates":[139.78028500000005,35.695855000000051]},"properties":{"OBJECTID":4,"name":"アイグラン保育園東神田","lon":139.78028499999999,"lat":35.695855000000002}},{"type":"Feature","id":5,"geometry":{"type":"Point","coordinates":[139.77671000000009,35.693687000000068]},"properties":{"OBJECTID":5,"name":"岩本町ちとせ保育園","lon":139.77671000000001,"lat":35.693686999999997}},{"type":"Feature","id":6,"geometry":{"type":"Point","coordinates":[139.77509200000009,35.696679000000074]},"properties":{"OBJECTID":6,"name":"千代田せいが保育園","lon":139.775092,"lat":35.696679000000003}},{"type":"Feature","id":7,"geometry":{"type":"Point","coordinates":[139.77445200000011,35.690838000000042]},"properties":{"OBJECTID":7,"name":"保育園神田ベアーズ","lon":139.774452,"lat":35.690837999999999}},{"type":"Feature","id":8,"geometry":{"type":"Point","coordinates":[139.76839500000006,35.68901100000005]},"properties":{"OBJECTID":8,"name":"ベネッセ内神田保育園","lon":139.768395,"lat":35.689011000000001}},{"type":"Feature","id":9,"geometry":{"type":"Point","coordinates":[139.75654300000008,35.697114000000056]},"properties":{"OBJECTID":9,"name":"まなびの森保育園神保町","lon":139.75654299999999,"lat":35.697113999999999}},{"type":"Feature","id":10,"geometry":{"type":"Point","coordinates":[139.76700900000003,35.696812000000079]},"properties":{"OBJECTID":10,"name":"神田保育園","lon":139.767009,"lat":35.696812000000001}},{"type":"Feature","id":11,"geometry":{"type":"Point","coordinates":[139.76876400000003,35.697841000000039]},"properties":{"OBJECTID":11,"name":"神田淡路町保育園大きなおうち","lon":139.768764,"lat":35.697840999999997}},{"type":"Feature","id":12,"geometry":{"type":"Point","coordinates":[139.75488000000007,35.698880000000031]},"properties":{"OBJECTID":12,"name":"西神田保育園","lon":139.75488000000001,"lat":35.698880000000003}},{"type":"Feature","id":13,"geometry":{"type":"Point","coordinates":[139.75318900000002,35.69827900000007]},"properties":{"OBJECTID":13,"name":"ほっぺるランド西神田","lon":139.75318899999999,"lat":35.698278999999999}},{"type":"Feature","id":14,"geometry":{"type":"Point","coordinates":[139.74621300000001,35.696941000000038]},"properties":{"OBJECTID":14,"name":"ふじみこども園","lon":139.74621300000001,"lat":35.696941000000002}},{"type":"Feature","id":15,"geometry":{"type":"Point","coordinates":[139.74382100000003,35.697163000000046]},"properties":{"OBJECTID":15,"name":"グローバルキッズ飯田橋園","lon":139.743821,"lat":35.697163000000003}},{"type":"Feature","id":16,"geometry":{"type":"Point","coordinates":[139.74388900000008,35.69723700000003]},"properties":{"OBJECTID":16,"name":"グローバルキッズ飯田橋こども園","lon":139.743889,"lat":35.697237000000001}},{"type":"Feature","id":17,"geometry":{"type":"Point","coordinates":[139.73846600000002,35.692525000000046]},"properties":{"OBJECTID":17,"name":"クレアナーサリー市ヶ谷","lon":139.73846599999999,"lat":35.692525000000003}},{"type":"Feature","id":18,"geometry":{"type":"Point","coordinates":[139.74203100000011,35.690665000000024]},"properties":{"OBJECTID":18,"name":"ＡＩＡＩ　ＮＵＲＳＥＲＹ　三番町","lon":139.742031,"lat":35.690665000000003}},{"type":"Feature","id":19,"geometry":{"type":"Point","coordinates":[139.73660500000005,35.688301000000024]},"properties":{"OBJECTID":19,"name":"四番町保育園","lon":139.736605,"lat":35.688301000000003}},{"type":"Feature","id":20,"geometry":{"type":"Point","coordinates":[139.73977600000012,35.686586000000034]},"properties":{"OBJECTID":20,"name":"ポピンズナーサリースクール一番町","lon":139.73977600000001,"lat":35.686585999999998}},{"type":"Feature","id":21,"geometry":{"type":"Point","coordinates":[139.74263000000008,35.688001000000042]},"properties":{"OBJECTID":21,"name":"千代田区立麹町保育園","lon":139.74262999999999,"lat":35.688001}},{"type":"Feature","id":22,"geometry":{"type":"Point","coordinates":[139.73797100000002,35.686959000000058]},"properties":{"OBJECTID":22,"name":"アスク二番町保育園","lon":139.73797099999999,"lat":35.686959000000002}},{"type":"Feature","id":23,"geometry":{"type":"Point","coordinates":[139.73517400000003,35.685498000000052]},"properties":{"OBJECTID":23,"name":"二番町ちとせ保育園","lon":139.735174,"lat":35.685498000000003}},{"type":"Feature","id":24,"geometry":{"type":"Point","coordinates":[139.73469800000009,35.686907000000076]},"properties":{"OBJECTID":24,"name":"グローバルキッズ六番町園","lon":139.73469800000001,"lat":35.686906999999998}},{"type":"Feature","id":25,"geometry":{"type":"Point","coordinates":[139.74029500000006,35.680806000000075]},"properties":{"OBJECTID":25,"name":"平河町ちとせ保育園","lon":139.740295,"lat":35.680805999999997}},{"type":"Feature","id":26,"geometry":{"type":"Point","coordinates":[139.77960800000005,35.691162000000077]},"properties":{"OBJECTID":26,"name":"にじいろ保育園小伝馬町","lon":139.779608,"lat":35.691161999999998}},{"type":"Feature","id":27,"geometry":{"type":"Point","coordinates":[139.77698300000009,35.690940000000069]},"properties":{"OBJECTID":27,"name":"十思保育園","lon":139.776983,"lat":35.690939999999998}},{"type":"Feature","id":28,"geometry":{"type":"Point","coordinates":[139.78618200000005,35.691021000000035]},"properties":{"OBJECTID":28,"name":"テンダーラビング保育園東日本橋","lon":139.786182,"lat":35.691020999999999}},{"type":"Feature","id":29,"geometry":{"type":"Point","coordinates":[139.78595700000005,35.691133000000036]},"properties":{"OBJECTID":29,"name":"ミアヘルサ保育園ひびき東日本橋","lon":139.785957,"lat":35.691133000000001}},{"type":"Feature","id":30,"geometry":{"type":"Point","coordinates":[139.78219400000012,35.691226000000029]},"properties":{"OBJECTID":30,"name":"ほっぺるランド東日本橋","lon":139.782194,"lat":35.691226}},{"type":"Feature","id":31,"geometry":{"type":"Point","coordinates":[139.77259500000002,35.679482000000064]},"properties":{"OBJECTID":31,"name":"さくらさくみらい　東日本橋","lon":139.772595,"lat":35.679482}},{"type":"Feature","id":32,"geometry":{"type":"Point","coordinates":[139.78541800000005,35.68878200000006]},"properties":{"OBJECTID":32,"name":"ナーサリールーム　ベリーベアー日本橋","lon":139.78541799999999,"lat":35.688782000000003}},{"type":"Feature","id":33,"geometry":{"type":"Point","coordinates":[139.78194300000007,35.689506000000051]},"properties":{"OBJECTID":33,"name":"かふう保育園日本橋","lon":139.78194300000001,"lat":35.689506000000002}},{"type":"Feature","id":34,"geometry":{"type":"Point","coordinates":[139.78376000000003,35.687920000000076]},"properties":{"OBJECTID":34,"name":"さくらさくみらい人形町","lon":139.78376,"lat":35.687919999999998}},{"type":"Feature","id":35,"geometry":{"type":"Point","coordinates":[139.78286900000012,35.687785000000076]},"properties":{"OBJECTID":35,"name":"まちのてらこや保育園","lon":139.78286900000001,"lat":35.687784999999998}},{"type":"Feature","id":36,"geometry":{"type":"Point","coordinates":[139.78282100000001,35.689499000000069]},"properties":{"OBJECTID":36,"name":"アイグラン保育園日本橋","lon":139.78282100000001,"lat":35.689498999999998}},{"type":"Feature","id":37,"geometry":{"type":"Point","coordinates":[139.78785800000003,35.690225000000055]},"properties":{"OBJECTID":37,"name":"ＡＩＡＩ　ＮＵＲＳＥＲＹ　日本橋浜町","lon":139.787858,"lat":35.690224999999998}},{"type":"Feature","id":38,"geometry":{"type":"Point","coordinates":[139.78812400000004,35.68758500000007]},"properties":{"OBJECTID":38,"name":"キッズハウス浜町公園","lon":139.78812400000001,"lat":35.687584999999999}},{"type":"Feature","id":39,"geometry":{"type":"Point","coordinates":[139.79128400000002,35.685474000000056]},"properties":{"OBJECTID":39,"name":"浜町保育園","lon":139.79128399999999,"lat":35.685473999999999}},{"type":"Feature","id":40,"geometry":{"type":"Point","coordinates":[139.79061200000001,35.686357000000044]},"properties":{"OBJECTID":40,"name":"グローバルキッズ浜町園","lon":139.79061200000001,"lat":35.686357000000001}},{"type":"Feature","id":41,"geometry":{"type":"Point","coordinates":[139.77899600000012,35.687408000000062]},"properties":{"OBJECTID":41,"name":"堀留町保育園","lon":139.77899600000001,"lat":35.687407999999998}},{"type":"Feature","id":42,"geometry":{"type":"Point","coordinates":[139.78138800000011,35.688488000000063]},"properties":{"OBJECTID":42,"name":"ほっぺるランド日本橋堀留町","lon":139.78138799999999,"lat":35.688488}},{"type":"Feature","id":43,"geometry":{"type":"Point","coordinates":[139.78482600000007,35.684603000000038]},"properties":{"OBJECTID":43,"name":"人形町保育園","lon":139.78482600000001,"lat":35.684603000000003}},{"type":"Feature","id":44,"geometry":{"type":"Point","coordinates":[139.78141100000005,35.686625000000049]},"properties":{"OBJECTID":44,"name":"モニカ人形町園","lon":139.78141099999999,"lat":35.686624999999999}},{"type":"Feature","id":45,"geometry":{"type":"Point","coordinates":[139.78349400000002,35.68085700000006]},"properties":{"OBJECTID":45,"name":"日本橋保育園","lon":139.78349399999999,"lat":35.680857000000003}},{"type":"Feature","id":46,"geometry":{"type":"Point","coordinates":[139.78258700000004,35.68309800000003]},"properties":{"OBJECTID":46,"name":"グローバルキッズかきがら園","lon":139.78258700000001,"lat":35.683098000000001}},{"type":"Feature","id":47,"geometry":{"type":"Point","coordinates":[139.78394200000002,35.68313500000005]},"properties":{"OBJECTID":47,"name":"アイグラン保育園水天宮","lon":139.783942,"lat":35.683135}},{"type":"Feature","id":48,"geometry":{"type":"Point","coordinates":[139.78607700000009,35.681745000000035]},"properties":{"OBJECTID":48,"name":"キッズラボ水天宮前園","lon":139.78607700000001,"lat":35.681744999999999}},{"type":"Feature","id":49,"geometry":{"type":"Point","coordinates":[139.78689100000008,35.684317000000078]},"properties":{"OBJECTID":49,"name":"ＴＨＲＥＥ　ＳＴＡＲ　ＮＵＲＳＥＲＹ蛎殻町園","lon":139.786891,"lat":35.684317}},{"type":"Feature","id":50,"geometry":{"type":"Point","coordinates":[139.78508700000009,35.680607000000066]},"properties":{"OBJECTID":50,"name":"コビープリスクールはこざき","lon":139.785087,"lat":35.680607000000002}},{"type":"Feature","id":51,"geometry":{"type":"Point","coordinates":[139.77992400000005,35.678166000000033]},"properties":{"OBJECTID":51,"name":"ほっぺるランド茅場町","lon":139.77992399999999,"lat":35.678165999999997}},{"type":"Feature","id":52,"geometry":{"type":"Point","coordinates":[139.77503300000001,35.678738000000067]},"properties":{"OBJECTID":52,"name":"ＥＤＯ日本橋保育園","lon":139.77503300000001,"lat":35.678738000000003}},{"type":"Feature","id":53,"geometry":{"type":"Point","coordinates":[139.76981100000012,35.679772000000071]},"properties":{"OBJECTID":53,"name":"昭和こども園","lon":139.769811,"lat":35.679772}},{"type":"Feature","id":54,"geometry":{"type":"Point","coordinates":[139.77339400000005,35.676195000000064]},"properties":{"OBJECTID":54,"name":"京橋こども園","lon":139.773394,"lat":35.676195}},{"type":"Feature","id":55,"geometry":{"type":"Point","coordinates":[139.77586500000007,35.673996000000045]},"properties":{"OBJECTID":55,"name":"八丁堀保育園","lon":139.77586500000001,"lat":35.673996000000002}},{"type":"Feature","id":56,"geometry":{"type":"Point","coordinates":[139.78520000000003,35.676814000000036]},"properties":{"OBJECTID":56,"name":"太陽の子新川保育園","lon":139.7852,"lat":35.676814}},{"type":"Feature","id":57,"geometry":{"type":"Point","coordinates":[139.78416300000004,35.676100000000076]},"properties":{"OBJECTID":57,"name":"アイグラン保育園新川","lon":139.78416300000001,"lat":35.676099999999998}},{"type":"Feature","id":58,"geometry":{"type":"Point","coordinates":[139.78297700000007,35.672820000000058]},"properties":{"OBJECTID":58,"name":"ミアヘルサ保育園ひびき八丁堀","lon":139.78297699999999,"lat":35.672820000000002}},{"type":"Feature","id":59,"geometry":{"type":"Point","coordinates":[139.77822100000003,35.673746000000051]},"properties":{"OBJECTID":59,"name":"桜川保育園","lon":139.778221,"lat":35.673746000000001}},{"type":"Feature","id":60,"geometry":{"type":"Point","coordinates":[139.77627100000007,35.670803000000035]},"properties":{"OBJECTID":60,"name":"ブライト保育園東京入船","lon":139.77627100000001,"lat":35.670802999999999}},{"type":"Feature","id":61,"geometry":{"type":"Point","coordinates":[139.77884700000004,35.672965000000033]},"properties":{"OBJECTID":61,"name":"ＴＫチルドレンズファーム湊校","lon":139.77884700000001,"lat":35.672964999999998}},{"type":"Feature","id":62,"geometry":{"type":"Point","coordinates":[139.77673900000002,35.666635000000042]},"properties":{"OBJECTID":62,"name":"明石町保育園","lon":139.77673899999999,"lat":35.666634999999999}},{"type":"Feature","id":63,"geometry":{"type":"Point","coordinates":[139.77483300000006,35.667069000000026]},"properties":{"OBJECTID":63,"name":"ぽけっとランド明石町保育園","lon":139.774833,"lat":35.667068999999998}},{"type":"Feature","id":64,"geometry":{"type":"Point","coordinates":[139.77263200000004,35.667663000000061]},"properties":{"OBJECTID":64,"name":"さくらさくみらい築地","lon":139.77263199999999,"lat":35.667662999999997}},{"type":"Feature","id":65,"geometry":{"type":"Point","coordinates":[139.77474600000005,35.669609000000037]},"properties":{"OBJECTID":65,"name":"さくらさくみらい　新富町","lon":139.77474599999999,"lat":35.669609000000001}},{"type":"Feature","id":66,"geometry":{"type":"Point","coordinates":[139.77159800000004,35.664087000000052]},"properties":{"OBJECTID":66,"name":"築地保育園","lon":139.77159800000001,"lat":35.664087000000002}},{"type":"Feature","id":67,"geometry":{"type":"Point","coordinates":[139.78401000000008,35.667418000000055]},"properties":{"OBJECTID":67,"name":"さくらさくみらいつくだ大通り","lon":139.78400999999999,"lat":35.667417999999998}},{"type":"Feature","id":68,"geometry":{"type":"Point","coordinates":[139.78442200000006,35.669705000000079]},"properties":{"OBJECTID":68,"name":"ほっぺるランド佃","lon":139.78442200000001,"lat":35.669705}},{"type":"Feature","id":69,"geometry":{"type":"Point","coordinates":[139.78259200000002,35.666993000000048]},"properties":{"OBJECTID":69,"name":"さくらさくみらい佃","lon":139.78259199999999,"lat":35.666992999999998}},{"type":"Feature","id":70,"geometry":{"type":"Point","coordinates":[139.78445900000008,35.666154000000063]},"properties":{"OBJECTID":70,"name":"保育所まぁむ月島駅前園","lon":139.784459,"lat":35.666153999999999}},{"type":"Feature","id":71,"geometry":{"type":"Point","coordinates":[139.7869750000001,35.666852000000063]},"properties":{"OBJECTID":71,"name":"つくだ保育園","lon":139.78697500000001,"lat":35.666851999999999}},{"type":"Feature","id":72,"geometry":{"type":"Point","coordinates":[139.7867480000001,35.666499000000044]},"properties":{"OBJECTID":72,"name":"みちてる保育園","lon":139.78674799999999,"lat":35.666499000000002}},{"type":"Feature","id":73,"geometry":{"type":"Point","coordinates":[139.78668600000003,35.665494000000024]},"properties":{"OBJECTID":73,"name":"ほっぺるランド相生橋つくだ","lon":139.786686,"lat":35.665494000000002}},{"type":"Feature","id":74,"geometry":{"type":"Point","coordinates":[139.78207200000008,35.66653400000007]},"properties":{"OBJECTID":74,"name":"ほっぺるランド佃大橋","lon":139.782072,"lat":35.666533999999999}},{"type":"Feature","id":75,"geometry":{"type":"Point","coordinates":[139.78369500000008,35.664162000000033]},"properties":{"OBJECTID":75,"name":"太陽の子月島保育園","lon":139.78369499999999,"lat":35.664161999999997}},{"type":"Feature","id":76,"geometry":{"type":"Point","coordinates":[139.78392200000008,35.663248000000067]},"properties":{"OBJECTID":76,"name":"月島保育園","lon":139.78392199999999,"lat":35.663248000000003}},{"type":"Feature","id":77,"geometry":{"type":"Point","coordinates":[139.78359400000011,35.662773000000072]},"properties":{"OBJECTID":77,"name":"アンジェリカ月島保育園","lon":139.78359399999999,"lat":35.662773000000001}},{"type":"Feature","id":78,"geometry":{"type":"Point","coordinates":[139.78026900000009,35.662514000000044]},"properties":{"OBJECTID":78,"name":"クオリスキッズ月島保育園","lon":139.780269,"lat":35.662514000000002}},{"type":"Feature","id":79,"geometry":{"type":"Point","coordinates":[139.77890700000012,35.661956000000032]},"properties":{"OBJECTID":79,"name":"月島雲母保育園","lon":139.778907,"lat":35.661956000000004}},{"type":"Feature","id":80,"geometry":{"type":"Point","coordinates":[139.78182300000003,35.663590000000056]},"properties":{"OBJECTID":80,"name":"さくらさくみらい東仲通り","lon":139.781823,"lat":35.663589999999999}},{"type":"Feature","id":81,"geometry":{"type":"Point","coordinates":[139.78342200000009,35.660878000000025]},"properties":{"OBJECTID":81,"name":"さくらさくみらい　月の岬","lon":139.783422,"lat":35.660877999999997}},{"type":"Feature","id":82,"geometry":{"type":"Point","coordinates":[139.78182300000003,35.663590000000056]},"properties":{"OBJECTID":82,"name":"月島聖ルカ保育園","lon":139.781823,"lat":35.663589999999999}},{"type":"Feature","id":83,"geometry":{"type":"Point","coordinates":[139.78444300000001,35.659658000000036]},"properties":{"OBJECTID":83,"name":"晴海保育園","lon":139.78444300000001,"lat":35.659658}},{"type":"Feature","id":84,"geometry":{"type":"Point","coordinates":[139.78278100000011,35.657372000000066]},"properties":{"OBJECTID":84,"name":"太陽の子晴海トリトン保育園","lon":139.782781,"lat":35.657372000000002}},{"type":"Feature","id":85,"geometry":{"type":"Point","coordinates":[139.7840010000001,35.65590300000008]},"properties":{"OBJECTID":85,"name":"ポピンズナーサリースクール晴海","lon":139.78400099999999,"lat":35.655903000000002}},{"type":"Feature","id":86,"geometry":{"type":"Point","coordinates":[139.78398000000004,35.654909000000032]},"properties":{"OBJECTID":86,"name":"晴海こども園","lon":139.78398000000001,"lat":35.654909000000004}},{"type":"Feature","id":87,"geometry":{"type":"Point","coordinates":[139.78286100000003,35.655466000000047]},"properties":{"OBJECTID":87,"name":"さくらさくみらい晴海","lon":139.782861,"lat":35.655465999999997}},{"type":"Feature","id":88,"geometry":{"type":"Point","coordinates":[139.77922600000011,35.654046000000051]},"properties":{"OBJECTID":88,"name":"アスク晴海３丁目保育園","lon":139.77922599999999,"lat":35.654046000000001}},{"type":"Feature","id":89,"geometry":{"type":"Point","coordinates":[139.77890700000012,35.65578400000004]},"properties":{"OBJECTID":89,"name":"小学館アカデミー晴海保育園","lon":139.778907,"lat":35.655783999999997}},{"type":"Feature","id":90,"geometry":{"type":"Point","coordinates":[139.77720600000009,35.660312000000033]},"properties":{"OBJECTID":90,"name":"勝どき保育園","lon":139.77720600000001,"lat":35.660311999999998}},{"type":"Feature","id":91,"geometry":{"type":"Point","coordinates":[139.77688400000011,35.659620000000075]},"properties":{"OBJECTID":91,"name":"かちどき西保育園","lon":139.776884,"lat":35.659619999999997}},{"type":"Feature","id":92,"geometry":{"type":"Point","coordinates":[139.77847200000008,35.657795000000078]},"properties":{"OBJECTID":92,"name":"勝どきちとせ保育園","lon":139.77847199999999,"lat":35.657795}},{"type":"Feature","id":93,"geometry":{"type":"Point","coordinates":[139.77492700000005,35.65925500000003]},"properties":{"OBJECTID":93,"name":"まなびの森保育園勝どき","lon":139.77492699999999,"lat":35.659255000000002}},{"type":"Feature","id":94,"geometry":{"type":"Point","coordinates":[139.77574600000003,35.659064000000058]},"properties":{"OBJECTID":94,"name":"ほっぺるランド勝どき","lon":139.775746,"lat":35.659064000000001}},{"type":"Feature","id":95,"geometry":{"type":"Point","coordinates":[139.77516200000002,35.657881000000032]},"properties":{"OBJECTID":95,"name":"ほっぺるランド清澄通り勝どき","lon":139.77516199999999,"lat":35.657881000000003}},{"type":"Feature","id":96,"geometry":{"type":"Point","coordinates":[139.77559400000007,35.656884000000048]},"properties":{"OBJECTID":96,"name":"アスク勝どき保育園","lon":139.77559400000001,"lat":35.656883999999998}},{"type":"Feature","id":97,"geometry":{"type":"Point","coordinates":[139.77560700000004,35.656629000000066]},"properties":{"OBJECTID":97,"name":"さくらさくみらい　勝どき","lon":139.77560700000001,"lat":35.656629000000002}},{"type":"Feature","id":98,"geometry":{"type":"Point","coordinates":[139.77251600000011,35.658032000000048]},"properties":{"OBJECTID":98,"name":"ベネッセ勝どき保育園","lon":139.772516,"lat":35.658031999999999}},{"type":"Feature","id":99,"geometry":{"type":"Point","coordinates":[139.77339500000005,35.657236000000069]},"properties":{"OBJECTID":99,"name":"ほっぺるランド新島橋かちどき","lon":139.77339499999999,"lat":35.657235999999997}},{"type":"Feature","id":100,"geometry":{"type":"Point","coordinates":[139.77456300000006,35.655955000000063]},"properties":{"OBJECTID":100,"name":"勝どきえほん保育園","lon":139.774563,"lat":35.655954999999999}},{"type":"Feature","id":101,"geometry":{"type":"Point","coordinates":[139.77355000000011,35.655764000000033]},"properties":{"OBJECTID":101,"name":"ニチイキッズさわやか勝どき６丁目保育園","lon":139.77355,"lat":35.655763999999998}},{"type":"Feature","id":102,"geometry":{"type":"Point","coordinates":[139.77687200000003,35.660833000000025]},"properties":{"OBJECTID":102,"name":"小学館アカデミー勝どきこども園","lon":139.776872,"lat":35.660832999999997}},{"type":"Feature","id":103,"geometry":{"type":"Point","coordinates":[139.76996000000008,35.67437300000006]},"properties":{"OBJECTID":103,"name":"まなびの森保育園銀座","lon":139.76996,"lat":35.674373000000003}},{"type":"Feature","id":104,"geometry":{"type":"Point","coordinates":[139.74680100000012,35.663080000000036]},"properties":{"OBJECTID":104,"name":"グローバルキッズ虎ノ門保育園","lon":139.746801,"lat":35.663080000000001}},{"type":"Feature","id":105,"geometry":{"type":"Point","coordinates":[139.75460600000008,35.661600000000078]},"properties":{"OBJECTID":105,"name":"にじいろ保育園新橋","lon":139.754606,"lat":35.6616}},{"type":"Feature","id":106,"geometry":{"type":"Point","coordinates":[139.75404000000003,35.662278000000072]},"properties":{"OBJECTID":106,"name":"こころ新橋保育園","lon":139.75404,"lat":35.662278000000001}},{"type":"Feature","id":107,"geometry":{"type":"Point","coordinates":[139.75065400000005,35.65420400000005]},"properties":{"OBJECTID":107,"name":"芝公園保育園","lon":139.750654,"lat":35.654204}},{"type":"Feature","id":108,"geometry":{"type":"Point","coordinates":[139.7554070000001,35.659988000000055]},"properties":{"OBJECTID":108,"name":"汐留サーノ保育園","lon":139.75540699999999,"lat":35.659987999999998}},{"type":"Feature","id":109,"geometry":{"type":"Point","coordinates":[139.75699300000008,35.659878000000049]},"properties":{"OBJECTID":109,"name":"小鳩ナーサリースクール浜離宮","lon":139.75699299999999,"lat":35.659877999999999}},{"type":"Feature","id":110,"geometry":{"type":"Point","coordinates":[139.75762200000008,35.658702000000062]},"properties":{"OBJECTID":110,"name":"神明保育園","lon":139.757622,"lat":35.658701999999998}},{"type":"Feature","id":111,"geometry":{"type":"Point","coordinates":[139.74987500000009,35.649640000000034]},"properties":{"OBJECTID":111,"name":"アスク芝公園保育園","lon":139.749875,"lat":35.649639999999998}},{"type":"Feature","id":112,"geometry":{"type":"Point","coordinates":[139.75119600000005,35.653349000000048]},"properties":{"OBJECTID":112,"name":"ニチイキッズ芝公園保育園","lon":139.75119599999999,"lat":35.653348999999999}},{"type":"Feature","id":113,"geometry":{"type":"Point","coordinates":[139.76167800000007,35.654328000000078]},"properties":{"OBJECTID":113,"name":"にじいろ保育園竹芝","lon":139.76167799999999,"lat":35.654328}},{"type":"Feature","id":114,"geometry":{"type":"Point","coordinates":[139.75638800000002,35.649863000000039]},"properties":{"OBJECTID":114,"name":"太陽の子シーバンス保育園","lon":139.75638799999999,"lat":35.649863000000003}},{"type":"Feature","id":115,"geometry":{"type":"Point","coordinates":[139.75517400000001,35.647544000000039]},"properties":{"OBJECTID":115,"name":"アンジェリカ田町保育園","lon":139.75517400000001,"lat":35.647544000000003}},{"type":"Feature","id":116,"geometry":{"type":"Point","coordinates":[139.75348900000006,35.648128000000042]},"properties":{"OBJECTID":116,"name":"太陽の子芝浦一丁目保育園","lon":139.753489,"lat":35.648128}},{"type":"Feature","id":117,"geometry":{"type":"Point","coordinates":[139.72279000000003,35.660892000000047]},"properties":{"OBJECTID":117,"name":"西麻布保育園","lon":139.72279,"lat":35.660891999999997}},{"type":"Feature","id":118,"geometry":{"type":"Point","coordinates":[139.72062900000003,35.661220000000071]},"properties":{"OBJECTID":118,"name":"コスモス西麻布保育園","lon":139.720629,"lat":35.66122}},{"type":"Feature","id":119,"geometry":{"type":"Point","coordinates":[139.73245100000008,35.664766000000043]},"properties":{"OBJECTID":119,"name":"ｓａｋｕｒａ保育園六本木","lon":139.732451,"lat":35.664766}},{"type":"Feature","id":120,"geometry":{"type":"Point","coordinates":[139.73454700000002,35.661859000000049]},"properties":{"OBJECTID":120,"name":"リトルパルズ保育園六本木","lon":139.73454699999999,"lat":35.661859}},{"type":"Feature","id":121,"geometry":{"type":"Point","coordinates":[139.74176300000011,35.663662000000045]},"properties":{"OBJECTID":121,"name":"まちの保育園六本木","lon":139.74176299999999,"lat":35.663662000000002}},{"type":"Feature","id":122,"geometry":{"type":"Point","coordinates":[139.73514300000011,35.661228000000051]},"properties":{"OBJECTID":122,"name":"麻布保育園","lon":139.73514299999999,"lat":35.661228000000001}},{"type":"Feature","id":123,"geometry":{"type":"Point","coordinates":[139.74223100000006,35.65563300000008]},"properties":{"OBJECTID":123,"name":"飯倉保育園","lon":139.742231,"lat":35.655633000000002}},{"type":"Feature","id":124,"geometry":{"type":"Point","coordinates":[139.74223100000006,35.65563300000008]},"properties":{"OBJECTID":124,"name":"ふたばクラブ東麻布保育園","lon":139.742231,"lat":35.655633000000002}},{"type":"Feature","id":125,"geometry":{"type":"Point","coordinates":[139.74157200000002,35.656068000000062]},"properties":{"OBJECTID":125,"name":"東麻布保育園","lon":139.74157199999999,"lat":35.656067999999998}},{"type":"Feature","id":126,"geometry":{"type":"Point","coordinates":[139.74051400000008,35.655985000000044]},"properties":{"OBJECTID":126,"name":"ＡＩＡＩ　ＮＵＲＳＥＲＹ麻布十番","lon":139.74051399999999,"lat":35.655985000000001}},{"type":"Feature","id":127,"geometry":{"type":"Point","coordinates":[139.73583600000006,35.656991000000062]},"properties":{"OBJECTID":127,"name":"麻布十番ちとせ保育園","lon":139.73583600000001,"lat":35.656990999999998}},{"type":"Feature","id":128,"geometry":{"type":"Point","coordinates":[139.72732300000007,35.657418000000064]},"properties":{"OBJECTID":128,"name":"アイグラン保育園元麻布","lon":139.72732300000001,"lat":35.657418}},{"type":"Feature","id":129,"geometry":{"type":"Point","coordinates":[139.73038000000008,35.652968000000044]},"properties":{"OBJECTID":129,"name":"元麻布保育園","lon":139.73038,"lat":35.652968000000001}},{"type":"Feature","id":130,"geometry":{"type":"Point","coordinates":[139.73408600000005,35.651137000000062]},"properties":{"OBJECTID":130,"name":"まなびの森保育園麻布十番","lon":139.73408599999999,"lat":35.651136999999999}},{"type":"Feature","id":131,"geometry":{"type":"Point","coordinates":[139.73583300000007,35.650871000000052]},"properties":{"OBJECTID":131,"name":"まなびの森保育園麻布","lon":139.73583300000001,"lat":35.650871000000002}},{"type":"Feature","id":132,"geometry":{"type":"Point","coordinates":[139.72716300000002,35.647023000000047]},"properties":{"OBJECTID":132,"name":"太陽の子南麻布保育園","lon":139.72716299999999,"lat":35.647022999999997}},{"type":"Feature","id":133,"geometry":{"type":"Point","coordinates":[139.72412900000006,35.647745000000043]},"properties":{"OBJECTID":133,"name":"南麻布保育園","lon":139.724129,"lat":35.647745}},{"type":"Feature","id":134,"geometry":{"type":"Point","coordinates":[139.73071500000003,35.649991000000057]},"properties":{"OBJECTID":134,"name":"本村保育園","lon":139.730715,"lat":35.649991}},{"type":"Feature","id":135,"geometry":{"type":"Point","coordinates":[139.73578400000008,35.647684000000027]},"properties":{"OBJECTID":135,"name":"アイグラン保育園南麻布","lon":139.735784,"lat":35.647683999999998}},{"type":"Feature","id":136,"geometry":{"type":"Point","coordinates":[139.73402500000009,35.671049000000039]},"properties":{"OBJECTID":136,"name":"赤坂保育園","lon":139.734025,"lat":35.671048999999996}},{"type":"Feature","id":137,"geometry":{"type":"Point","coordinates":[139.73470200000008,35.676397000000065]},"properties":{"OBJECTID":137,"name":"赤坂山王保育園","lon":139.734702,"lat":35.676397000000001}},{"type":"Feature","id":138,"geometry":{"type":"Point","coordinates":[139.73402900000008,35.675465000000031]},"properties":{"OBJECTID":138,"name":"赤坂ちとせ保育園","lon":139.73402899999999,"lat":35.675465000000003}},{"type":"Feature","id":139,"geometry":{"type":"Point","coordinates":[139.73298700000009,35.67547200000007]},"properties":{"OBJECTID":139,"name":"赤坂クレア保育園","lon":139.73298700000001,"lat":35.675471999999999}},{"type":"Feature","id":140,"geometry":{"type":"Point","coordinates":[139.73058000000003,35.669910000000073]},"properties":{"OBJECTID":140,"name":"太陽の子赤坂保育園","lon":139.73058,"lat":35.669910000000002}},{"type":"Feature","id":141,"geometry":{"type":"Point","coordinates":[139.71244400000012,35.666948000000048]},"properties":{"OBJECTID":141,"name":"青山保育園","lon":139.712444,"lat":35.666947999999998}},{"type":"Feature","id":142,"geometry":{"type":"Point","coordinates":[139.7133510000001,35.667575000000056]},"properties":{"OBJECTID":142,"name":"おはよう保育園　ののあおやま","lon":139.71335099999999,"lat":35.667574999999999}},{"type":"Feature","id":143,"geometry":{"type":"Point","coordinates":[139.72546000000011,35.671088000000054]},"properties":{"OBJECTID":143,"name":"南青山保育園","lon":139.72546,"lat":35.671087999999997}},{"type":"Feature","id":144,"geometry":{"type":"Point","coordinates":[139.72541300000012,35.671858000000043]},"properties":{"OBJECTID":144,"name":"アイグラン保育園青山一丁目","lon":139.725413,"lat":35.671858}},{"type":"Feature","id":145,"geometry":{"type":"Point","coordinates":[139.7183040000001,35.664916000000062]},"properties":{"OBJECTID":145,"name":"小学館アカデミー南青山保育園","lon":139.71830399999999,"lat":35.664915999999998}},{"type":"Feature","id":146,"geometry":{"type":"Point","coordinates":[139.7191620000001,35.66732200000007]},"properties":{"OBJECTID":146,"name":"太陽の子南青山保育園","lon":139.71916200000001,"lat":35.667321999999999}},{"type":"Feature","id":147,"geometry":{"type":"Point","coordinates":[139.74776500000007,35.648302000000058]},"properties":{"OBJECTID":147,"name":"芝保育園","lon":139.74776499999999,"lat":35.648302000000001}},{"type":"Feature","id":148,"geometry":{"type":"Point","coordinates":[139.75586400000009,35.642496000000051]},"properties":{"OBJECTID":148,"name":"にじいろ保育園海岸三丁目","lon":139.755864,"lat":35.642496000000001}},{"type":"Feature","id":149,"geometry":{"type":"Point","coordinates":[139.75021200000003,35.64514900000006]},"properties":{"OBJECTID":149,"name":"しばうら保育園","lon":139.750212,"lat":35.645149000000004}},{"type":"Feature","id":150,"geometry":{"type":"Point","coordinates":[139.74654200000009,35.642222000000061]},"properties":{"OBJECTID":150,"name":"太陽の子芝浦三丁目保育園","lon":139.74654200000001,"lat":35.642221999999997}},{"type":"Feature","id":151,"geometry":{"type":"Point","coordinates":[139.74907200000007,35.639562000000069]},"properties":{"OBJECTID":151,"name":"アスク芝浦４丁目保育園","lon":139.74907200000001,"lat":35.639561999999998}},{"type":"Feature","id":152,"geometry":{"type":"Point","coordinates":[139.74712700000009,35.637015000000076]},"properties":{"OBJECTID":152,"name":"デイジー保育園芝浦","lon":139.74712700000001,"lat":35.637014999999998}},{"type":"Feature","id":153,"geometry":{"type":"Point","coordinates":[139.75256000000002,35.640442000000064]},"properties":{"OBJECTID":153,"name":"芝浦アイランドこども園","lon":139.75255999999999,"lat":35.640442}},{"type":"Feature","id":154,"geometry":{"type":"Point","coordinates":[139.75454400000001,35.644118000000049]},"properties":{"OBJECTID":154,"name":"にじのいるか保育園芝浦","lon":139.75454400000001,"lat":35.644117999999999}},{"type":"Feature","id":155,"geometry":{"type":"Point","coordinates":[139.75271000000009,35.645143000000076]},"properties":{"OBJECTID":155,"name":"太陽の子芝浦二丁目保育園","lon":139.75271000000001,"lat":35.645142999999997}},{"type":"Feature","id":156,"geometry":{"type":"Point","coordinates":[139.72466900000006,35.635853000000054]},"properties":{"OBJECTID":156,"name":"アイグラン保育園白金台","lon":139.72466900000001,"lat":35.635852999999997}},{"type":"Feature","id":157,"geometry":{"type":"Point","coordinates":[139.7307320000001,35.63319400000006]},"properties":{"OBJECTID":157,"name":"えほんのもり白金台保育園","lon":139.73073199999999,"lat":35.633194000000003}},{"type":"Feature","id":158,"geometry":{"type":"Point","coordinates":[139.73003900000003,35.631745000000024]},"properties":{"OBJECTID":158,"name":"ニチイキッズ白金台保育園","lon":139.730039,"lat":35.631745000000002}},{"type":"Feature","id":159,"geometry":{"type":"Point","coordinates":[139.73323700000003,35.643931000000066]},"properties":{"OBJECTID":159,"name":"ゆらりん白金保育園","lon":139.733237,"lat":35.643931000000002}},{"type":"Feature","id":160,"geometry":{"type":"Point","coordinates":[139.73524600000007,35.646147000000042]},"properties":{"OBJECTID":160,"name":"スターチャイルド白金高輪ナーサリー","lon":139.73524599999999,"lat":35.646146999999999}},{"type":"Feature","id":161,"geometry":{"type":"Point","coordinates":[139.73110200000008,35.644902000000059]},"properties":{"OBJECTID":161,"name":"白金保育園","lon":139.73110199999999,"lat":35.644902000000002}},{"type":"Feature","id":162,"geometry":{"type":"Point","coordinates":[139.73128300000008,35.646560000000079]},"properties":{"OBJECTID":162,"name":"ミアヘルサ保育園ひびき白金高輪","lon":139.73128299999999,"lat":35.646560000000001}},{"type":"Feature","id":163,"geometry":{"type":"Point","coordinates":[139.72728300000006,35.642664000000025]},"properties":{"OBJECTID":163,"name":"みつばち保育園","lon":139.727283,"lat":35.642664000000003}},{"type":"Feature","id":164,"geometry":{"type":"Point","coordinates":[139.74058900000011,35.65499600000004]},"properties":{"OBJECTID":164,"name":"太陽の子三田保育園","lon":139.740589,"lat":35.654995999999997}},{"type":"Feature","id":165,"geometry":{"type":"Point","coordinates":[139.74360800000011,35.654553000000078]},"properties":{"OBJECTID":165,"name":"アイグラン保育園赤羽橋","lon":139.74360799999999,"lat":35.654553}},{"type":"Feature","id":166,"geometry":{"type":"Point","coordinates":[139.73696200000006,35.64516100000003]},"properties":{"OBJECTID":166,"name":"うれしい保育園白金高輪","lon":139.73696200000001,"lat":35.645161000000002}},{"type":"Feature","id":167,"geometry":{"type":"Point","coordinates":[139.73897900000009,35.647675000000049]},"properties":{"OBJECTID":167,"name":"太陽の子三田五丁目保育園","lon":139.738979,"lat":35.647675}},{"type":"Feature","id":168,"geometry":{"type":"Point","coordinates":[139.7387950000001,35.640324000000078]},"properties":{"OBJECTID":168,"name":"伊皿子坂保育園","lon":139.73879500000001,"lat":35.640324}},{"type":"Feature","id":169,"geometry":{"type":"Point","coordinates":[139.73346900000001,35.640944000000047]},"properties":{"OBJECTID":169,"name":"高輪さつき保育園","lon":139.73346900000001,"lat":35.640943999999998}},{"type":"Feature","id":170,"geometry":{"type":"Point","coordinates":[139.73454700000002,35.634308000000033]},"properties":{"OBJECTID":170,"name":"愛星保育園","lon":139.73454699999999,"lat":35.634307999999997}},{"type":"Feature","id":171,"geometry":{"type":"Point","coordinates":[139.73667400000011,35.64167400000008]},"properties":{"OBJECTID":171,"name":"ゆらりん高輪保育園","lon":139.73667399999999,"lat":35.641674000000002}},{"type":"Feature","id":172,"geometry":{"type":"Point","coordinates":[139.73454700000002,35.634308000000033]},"properties":{"OBJECTID":172,"name":"みなと保育園","lon":139.73454699999999,"lat":35.634307999999997}},{"type":"Feature","id":173,"geometry":{"type":"Point","coordinates":[139.73570800000005,35.633188000000075]},"properties":{"OBJECTID":173,"name":"高輪保育園","lon":139.73570799999999,"lat":35.633187999999997}},{"type":"Feature","id":174,"geometry":{"type":"Point","coordinates":[139.73794000000009,35.631973000000073]},"properties":{"OBJECTID":174,"name":"高輪夢保育園","lon":139.73794000000001,"lat":35.631973000000002}},{"type":"Feature","id":175,"geometry":{"type":"Point","coordinates":[139.73454700000002,35.634308000000033]},"properties":{"OBJECTID":175,"name":"ほっぺるランド高輪二丁目","lon":139.73454699999999,"lat":35.634307999999997}},{"type":"Feature","id":176,"geometry":{"type":"Point","coordinates":[139.73454700000002,35.634308000000033]},"properties":{"OBJECTID":176,"name":"さくらさくみらい高輪","lon":139.73454699999999,"lat":35.634307999999997}},{"type":"Feature","id":177,"geometry":{"type":"Point","coordinates":[139.74548400000003,35.629580000000033]},"properties":{"OBJECTID":177,"name":"ゆらりん港南保育園","lon":139.745484,"lat":35.629579999999997}},{"type":"Feature","id":178,"geometry":{"type":"Point","coordinates":[139.74454800000001,35.629643000000044]},"properties":{"OBJECTID":178,"name":"ゆらりんはぁと保育園","lon":139.74454800000001,"lat":35.629643000000002}},{"type":"Feature","id":179,"geometry":{"type":"Point","coordinates":[139.74660200000005,35.629737000000034]},"properties":{"OBJECTID":179,"name":"グローバルキッズ港南保育園","lon":139.746602,"lat":35.629736999999999}},{"type":"Feature","id":180,"geometry":{"type":"Point","coordinates":[139.74795400000005,35.629739000000029]},"properties":{"OBJECTID":180,"name":"こうなん保育園","lon":139.74795399999999,"lat":35.629739000000001}},{"type":"Feature","id":181,"geometry":{"type":"Point","coordinates":[139.74967000000004,35.630968000000053]},"properties":{"OBJECTID":181,"name":"たかはま保育園","lon":139.74967000000001,"lat":35.630968000000003}},{"type":"Feature","id":182,"geometry":{"type":"Point","coordinates":[139.75061400000004,35.627605000000074]},"properties":{"OBJECTID":182,"name":"ベネッセ港南保育園","lon":139.75061400000001,"lat":35.627605000000003}},{"type":"Feature","id":183,"geometry":{"type":"Point","coordinates":[139.75132800000006,35.628630000000044]},"properties":{"OBJECTID":183,"name":"ゆらりん港南緑水保育園","lon":139.751328,"lat":35.628630000000001}},{"type":"Feature","id":184,"geometry":{"type":"Point","coordinates":[139.74032200000011,35.625628000000063]},"properties":{"OBJECTID":184,"name":"ふたばクラブ港南保育園","lon":139.74032199999999,"lat":35.625627999999999}},{"type":"Feature","id":185,"geometry":{"type":"Point","coordinates":[139.77712200000008,35.63000900000003]},"properties":{"OBJECTID":185,"name":"台場保育園","lon":139.77712199999999,"lat":35.630009000000001}},{"type":"Feature","id":186,"geometry":{"type":"Point","coordinates":[139.7246090000001,35.643631000000028]},"properties":{"OBJECTID":186,"name":"神応保育園","lon":139.72460899999999,"lat":35.643630999999999}},{"type":"Feature","id":187,"geometry":{"type":"Point","coordinates":[139.72922000000005,35.687574000000041]},"properties":{"OBJECTID":187,"name":"にじいろ保育園四ツ谷","lon":139.72922,"lat":35.687573999999998}},{"type":"Feature","id":188,"geometry":{"type":"Point","coordinates":[139.71954100000005,35.689974000000063]},"properties":{"OBJECTID":188,"name":"グローバルキッズ愛住町園","lon":139.71954099999999,"lat":35.689973999999999}},{"type":"Feature","id":189,"geometry":{"type":"Point","coordinates":[139.72633200000007,35.686315000000036]},"properties":{"OBJECTID":189,"name":"グローバルキッズ若葉園","lon":139.72633200000001,"lat":35.686315}},{"type":"Feature","id":190,"geometry":{"type":"Point","coordinates":[139.72340900000006,35.682165000000055]},"properties":{"OBJECTID":190,"name":"二葉南元保育園","lon":139.723409,"lat":35.682164999999998}},{"type":"Feature","id":191,"geometry":{"type":"Point","coordinates":[139.71549200000004,35.682199000000026]},"properties":{"OBJECTID":191,"name":"新宿三つの木保育園もりさんかくしかく","lon":139.71549200000001,"lat":35.682198999999997}},{"type":"Feature","id":192,"geometry":{"type":"Point","coordinates":[139.70976600000006,35.697053000000039]},"properties":{"OBJECTID":192,"name":"フロンティアキッズ新宿","lon":139.709766,"lat":35.697052999999997}},{"type":"Feature","id":193,"geometry":{"type":"Point","coordinates":[139.70900800000004,35.692913000000033]},"properties":{"OBJECTID":193,"name":"きゃんばす東新宿保育園","lon":139.70900800000001,"lat":35.692912999999997}},{"type":"Feature","id":194,"geometry":{"type":"Point","coordinates":[139.68708500000002,35.695133000000055]},"properties":{"OBJECTID":194,"name":"ポピンズナーサリースクール西新宿","lon":139.687085,"lat":35.695132999999998}},{"type":"Feature","id":195,"geometry":{"type":"Point","coordinates":[139.68694300000004,35.693753000000072]},"properties":{"OBJECTID":195,"name":"グローバルキッズ西新宿園","lon":139.68694300000001,"lat":35.693753000000001}},{"type":"Feature","id":196,"geometry":{"type":"Point","coordinates":[139.68991200000005,35.694811000000072]},"properties":{"OBJECTID":196,"name":"アイグラン保育園西新宿","lon":139.68991199999999,"lat":35.694811000000001}},{"type":"Feature","id":197,"geometry":{"type":"Point","coordinates":[139.69369000000006,35.691346000000067]},"properties":{"OBJECTID":197,"name":"新宿成子坂愛育園","lon":139.69369,"lat":35.691346000000003}},{"type":"Feature","id":198,"geometry":{"type":"Point","coordinates":[139.69674100000009,35.695601000000067]},"properties":{"OBJECTID":198,"name":"ルーチェ保育園　西新宿","lon":139.696741,"lat":35.695601000000003}},{"type":"Feature","id":199,"geometry":{"type":"Point","coordinates":[139.67852700000003,35.720209000000068]},"properties":{"OBJECTID":199,"name":"キッズガーデン新宿西落合","lon":139.678527,"lat":35.720208999999997}},{"type":"Feature","id":200,"geometry":{"type":"Point","coordinates":[139.67934200000002,35.725619000000052]},"properties":{"OBJECTID":200,"name":"グローバルキッズ西落合保育園","lon":139.67934199999999,"lat":35.725619000000002}},{"type":"Feature","id":201,"geometry":{"type":"Point","coordinates":[139.69398000000001,35.717940000000056]},"properties":{"OBJECTID":201,"name":"中落合第ニ保育園","lon":139.69398000000001,"lat":35.717939999999999}},{"type":"Feature","id":202,"geometry":{"type":"Point","coordinates":[139.69459900000004,35.717894000000058]},"properties":{"OBJECTID":202,"name":"下落合そらいろ保育園","lon":139.69459900000001,"lat":35.717894000000001}},{"type":"Feature","id":203,"geometry":{"type":"Point","coordinates":[139.68691000000001,35.720942000000036]},"properties":{"OBJECTID":203,"name":"ウィズブック保育園中落合","lon":139.68691000000001,"lat":35.720942000000001}},{"type":"Feature","id":204,"geometry":{"type":"Point","coordinates":[139.68215600000008,35.719061000000067]},"properties":{"OBJECTID":204,"name":"新宿こだま保育園","lon":139.68215599999999,"lat":35.719061000000004}},{"type":"Feature","id":205,"geometry":{"type":"Point","coordinates":[139.70007200000009,35.717994000000033]},"properties":{"OBJECTID":205,"name":"キッズタウン下落合保育園","lon":139.70007200000001,"lat":35.717993999999997}},{"type":"Feature","id":206,"geometry":{"type":"Point","coordinates":[139.69319200000007,35.715640000000064]},"properties":{"OBJECTID":206,"name":"ほっぺるランド上落合","lon":139.69319200000001,"lat":35.71564}},{"type":"Feature","id":207,"geometry":{"type":"Point","coordinates":[139.69113400000003,35.712729000000024]},"properties":{"OBJECTID":207,"name":"八幡神社愛育園","lon":139.69113400000001,"lat":35.712729000000003}},{"type":"Feature","id":208,"geometry":{"type":"Point","coordinates":[139.69149600000003,35.711285000000032]},"properties":{"OBJECTID":208,"name":"アイグラン保育園落合","lon":139.691496,"lat":35.711284999999997}},{"type":"Feature","id":209,"geometry":{"type":"Point","coordinates":[139.6861550000001,35.717675000000042]},"properties":{"OBJECTID":209,"name":"獅子吼保育園","lon":139.68615500000001,"lat":35.717675}},{"type":"Feature","id":210,"geometry":{"type":"Point","coordinates":[139.72780200000011,35.708885000000066]},"properties":{"OBJECTID":210,"name":"ほっぺるランド早稲田鶴巻町","lon":139.727802,"lat":35.708885000000002}},{"type":"Feature","id":211,"geometry":{"type":"Point","coordinates":[139.72228200000006,35.705126000000064]},"properties":{"OBJECTID":211,"name":"早稲田南町保育園","lon":139.72228200000001,"lat":35.705126}},{"type":"Feature","id":212,"geometry":{"type":"Point","coordinates":[139.71228300000007,35.702114000000051]},"properties":{"OBJECTID":212,"name":"戸山第ニ保育園","lon":139.71228300000001,"lat":35.702114000000002}},{"type":"Feature","id":213,"geometry":{"type":"Point","coordinates":[139.72371900000007,35.698879000000034]},"properties":{"OBJECTID":213,"name":"原町みゆき保育園","lon":139.72371899999999,"lat":35.698878999999998}},{"type":"Feature","id":214,"geometry":{"type":"Point","coordinates":[139.7178110000001,35.697511000000077]},"properties":{"OBJECTID":214,"name":"至誠会保育園","lon":139.71781100000001,"lat":35.697510999999999}},{"type":"Feature","id":215,"geometry":{"type":"Point","coordinates":[139.72148900000002,35.696557000000041]},"properties":{"OBJECTID":215,"name":"フロンティアキッズ曙橋","lon":139.72148899999999,"lat":35.696556999999999}},{"type":"Feature","id":216,"geometry":{"type":"Point","coordinates":[139.72746300000006,35.696614000000068]},"properties":{"OBJECTID":216,"name":"にじいろ保育園市谷加賀町","lon":139.727463,"lat":35.696613999999997}},{"type":"Feature","id":217,"geometry":{"type":"Point","coordinates":[139.72411000000011,35.697957000000031]},"properties":{"OBJECTID":217,"name":"アスク薬王寺保育園","lon":139.72411,"lat":35.697957000000002}},{"type":"Feature","id":218,"geometry":{"type":"Point","coordinates":[139.72061900000006,35.693167000000074]},"properties":{"OBJECTID":218,"name":"ニチイキッズ曙橋保育園","lon":139.720619,"lat":35.693167000000003}},{"type":"Feature","id":219,"geometry":{"type":"Point","coordinates":[139.71570000000008,35.694026000000065]},"properties":{"OBJECTID":219,"name":"富久町保育園","lon":139.7157,"lat":35.694026000000001}},{"type":"Feature","id":220,"geometry":{"type":"Point","coordinates":[139.73448700000006,35.702302000000032]},"properties":{"OBJECTID":220,"name":"アスク神楽坂保育園","lon":139.734487,"lat":35.702302000000003}},{"type":"Feature","id":221,"geometry":{"type":"Point","coordinates":[139.72865200000001,35.704544000000055]},"properties":{"OBJECTID":221,"name":"ほっぺるランド神楽坂","lon":139.72865200000001,"lat":35.704543999999999}},{"type":"Feature","id":222,"geometry":{"type":"Point","coordinates":[139.74013500000001,35.70678300000003]},"properties":{"OBJECTID":222,"name":"東五軒町保育園","lon":139.74013500000001,"lat":35.706783000000001}},{"type":"Feature","id":223,"geometry":{"type":"Point","coordinates":[139.74328900000012,35.704490000000078]},"properties":{"OBJECTID":223,"name":"太陽の子新小川町保育園","lon":139.743289,"lat":35.70449}},{"type":"Feature","id":224,"geometry":{"type":"Point","coordinates":[139.74336800000003,35.705599000000063]},"properties":{"OBJECTID":224,"name":"小学館アカデミー飯田橋ガーデン保育園","lon":139.743368,"lat":35.705598999999999}},{"type":"Feature","id":225,"geometry":{"type":"Point","coordinates":[139.73961600000007,35.702586000000053]},"properties":{"OBJECTID":225,"name":"グローバルキッズ神楽坂園","lon":139.73961600000001,"lat":35.702585999999997}},{"type":"Feature","id":226,"geometry":{"type":"Point","coordinates":[139.73975400000006,35.69722500000006]},"properties":{"OBJECTID":226,"name":"ぽけっとランド市ヶ谷保育園","lon":139.739754,"lat":35.697225000000003}},{"type":"Feature","id":227,"geometry":{"type":"Point","coordinates":[139.73504600000001,35.698331000000053]},"properties":{"OBJECTID":227,"name":"アスク新宿南町保育園","lon":139.73504600000001,"lat":35.698331000000003}},{"type":"Feature","id":228,"geometry":{"type":"Point","coordinates":[139.73482600000011,35.696648000000039]},"properties":{"OBJECTID":228,"name":"ポピンズナーサリースクール市ヶ谷","lon":139.734826,"lat":35.696648000000003}},{"type":"Feature","id":229,"geometry":{"type":"Point","coordinates":[139.73155700000007,35.690241000000071]},"properties":{"OBJECTID":229,"name":"ポピンズナーサリースクール四ッ谷","lon":139.73155700000001,"lat":35.690241}},{"type":"Feature","id":230,"geometry":{"type":"Point","coordinates":[139.73428200000012,35.694052000000056]},"properties":{"OBJECTID":230,"name":"長延保育園","lon":139.73428200000001,"lat":35.694051999999999}},{"type":"Feature","id":231,"geometry":{"type":"Point","coordinates":[139.7233930000001,35.706174000000033]},"properties":{"OBJECTID":231,"name":"弁天町保育園","lon":139.72339299999999,"lat":35.706173999999997}},{"type":"Feature","id":232,"geometry":{"type":"Point","coordinates":[139.73197100000004,35.699714000000029]},"properties":{"OBJECTID":232,"name":"ほっぺるランド牛込","lon":139.73197099999999,"lat":35.699714}},{"type":"Feature","id":233,"geometry":{"type":"Point","coordinates":[139.71539200000007,35.71038800000008]},"properties":{"OBJECTID":233,"name":"にじいろ保育園西早稲田","lon":139.71539200000001,"lat":35.710388000000002}},{"type":"Feature","id":234,"geometry":{"type":"Point","coordinates":[139.71539200000007,35.71038800000008]},"properties":{"OBJECTID":234,"name":"西早稲田保育園","lon":139.71539200000001,"lat":35.710388000000002}},{"type":"Feature","id":235,"geometry":{"type":"Point","coordinates":[139.71539200000007,35.71038800000008]},"properties":{"OBJECTID":235,"name":"ぴっころきっず西早稲田","lon":139.71539200000001,"lat":35.710388000000002}},{"type":"Feature","id":236,"geometry":{"type":"Point","coordinates":[139.70301000000006,35.700615000000028]},"properties":{"OBJECTID":236,"name":"ほっぺるランド新大久保","lon":139.70301000000001,"lat":35.700614999999999}},{"type":"Feature","id":237,"geometry":{"type":"Point","coordinates":[139.70688500000006,35.702480000000037]},"properties":{"OBJECTID":237,"name":"エイビイシイ保育園","lon":139.706885,"lat":35.702480000000001}},{"type":"Feature","id":238,"geometry":{"type":"Point","coordinates":[139.70633000000009,35.708421000000044]},"properties":{"OBJECTID":238,"name":"大久保第一保育園","lon":139.70633000000001,"lat":35.708421000000001}},{"type":"Feature","id":239,"geometry":{"type":"Point","coordinates":[139.70285700000011,35.709134000000063]},"properties":{"OBJECTID":239,"name":"にじいろ保育園高田馬場南","lon":139.70285699999999,"lat":35.709133999999999}},{"type":"Feature","id":240,"geometry":{"type":"Point","coordinates":[139.69751900000006,35.703207000000077]},"properties":{"OBJECTID":240,"name":"百人町保育園","lon":139.697519,"lat":35.703206999999999}},{"type":"Feature","id":241,"geometry":{"type":"Point","coordinates":[139.69751900000006,35.703207000000077]},"properties":{"OBJECTID":241,"name":"クオリスキッズおおくぼ保育園","lon":139.697519,"lat":35.703206999999999}},{"type":"Feature","id":242,"geometry":{"type":"Point","coordinates":[139.69983300000001,35.704883000000052]},"properties":{"OBJECTID":242,"name":"新栄保育園","lon":139.69983300000001,"lat":35.704883000000002}},{"type":"Feature","id":243,"geometry":{"type":"Point","coordinates":[139.70781100000011,35.688919000000055]},"properties":{"OBJECTID":243,"name":"アスク北新宿保育園","lon":139.70781099999999,"lat":35.688918999999999}},{"type":"Feature","id":244,"geometry":{"type":"Point","coordinates":[139.69267300000001,35.702173000000073]},"properties":{"OBJECTID":244,"name":"ほっぺるランド北新宿","lon":139.69267300000001,"lat":35.702173000000002}},{"type":"Feature","id":245,"geometry":{"type":"Point","coordinates":[139.6924140000001,35.701154000000031]},"properties":{"OBJECTID":245,"name":"東京母子愛育会保育園","lon":139.69241400000001,"lat":35.701154000000002}},{"type":"Feature","id":246,"geometry":{"type":"Point","coordinates":[139.70737400000007,35.711067000000071]},"properties":{"OBJECTID":246,"name":"にじいろ保育園高田馬場東","lon":139.70737399999999,"lat":35.711067}},{"type":"Feature","id":247,"geometry":{"type":"Point","coordinates":[139.70521800000006,35.71178400000008]},"properties":{"OBJECTID":247,"name":"にじいろ保育園高田馬場西","lon":139.705218,"lat":35.711784000000002}},{"type":"Feature","id":248,"geometry":{"type":"Point","coordinates":[139.70953700000007,35.711432000000059]},"properties":{"OBJECTID":248,"name":"高田馬場第ニ保育園","lon":139.70953700000001,"lat":35.711432000000002}},{"type":"Feature","id":249,"geometry":{"type":"Point","coordinates":[139.70352300000002,35.71456100000006]},"properties":{"OBJECTID":249,"name":"保育所まぁむ高田馬場駅前園","lon":139.70352299999999,"lat":35.714561000000003}},{"type":"Feature","id":250,"geometry":{"type":"Point","coordinates":[139.69630900000004,35.712946000000045]},"properties":{"OBJECTID":250,"name":"オルト保育園","lon":139.69630900000001,"lat":35.712946000000002}},{"type":"Feature","id":251,"geometry":{"type":"Point","coordinates":[139.81655400000011,35.690449000000058]},"properties":{"OBJECTID":251,"name":"江東区毛利保育園","lon":139.816554,"lat":35.690449000000001}},{"type":"Feature","id":252,"geometry":{"type":"Point","coordinates":[139.81126900000004,35.687976000000049]},"properties":{"OBJECTID":252,"name":"グローバルキッズ住吉園","lon":139.81126900000001,"lat":35.687975999999999}},{"type":"Feature","id":253,"geometry":{"type":"Point","coordinates":[139.81625000000008,35.687684000000047]},"properties":{"OBJECTID":253,"name":"めばえ保育園","lon":139.81625,"lat":35.687683999999997}},{"type":"Feature","id":254,"geometry":{"type":"Point","coordinates":[139.81442700000002,35.686405000000036]},"properties":{"OBJECTID":254,"name":"キッズスマイル江東猿江","lon":139.81442699999999,"lat":35.686405000000001}},{"type":"Feature","id":255,"geometry":{"type":"Point","coordinates":[139.81442700000002,35.686405000000036]},"properties":{"OBJECTID":255,"name":"江東区猿江保育園","lon":139.81442699999999,"lat":35.686405000000001}},{"type":"Feature","id":256,"geometry":{"type":"Point","coordinates":[139.79666400000008,35.686560000000043]},"properties":{"OBJECTID":256,"name":"ゆめの森保育園","lon":139.79666399999999,"lat":35.68656}},{"type":"Feature","id":257,"geometry":{"type":"Point","coordinates":[139.80303700000002,35.685972000000049]},"properties":{"OBJECTID":257,"name":"江東区森下保育園","lon":139.80303699999999,"lat":35.685972}},{"type":"Feature","id":258,"geometry":{"type":"Point","coordinates":[139.80333700000006,35.687151000000028]},"properties":{"OBJECTID":258,"name":"あゆみ保育園","lon":139.803337,"lat":35.687151}},{"type":"Feature","id":259,"geometry":{"type":"Point","coordinates":[139.80164900000011,35.686789000000033]},"properties":{"OBJECTID":259,"name":"太陽の子　森下三丁目保育園","lon":139.801649,"lat":35.686788999999997}},{"type":"Feature","id":260,"geometry":{"type":"Point","coordinates":[139.80886200000009,35.684958000000051]},"properties":{"OBJECTID":260,"name":"グローバルキッズ森下五丁目園","lon":139.808862,"lat":35.684958000000002}},{"type":"Feature","id":261,"geometry":{"type":"Point","coordinates":[139.8013390000001,35.686530000000062]},"properties":{"OBJECTID":261,"name":"神愛保育園","lon":139.80133900000001,"lat":35.686529999999998}},{"type":"Feature","id":262,"geometry":{"type":"Point","coordinates":[139.80607400000008,35.685968000000059]},"properties":{"OBJECTID":262,"name":"グローバルキッズ深川森下園（本園）","lon":139.806074,"lat":35.685968000000003}},{"type":"Feature","id":263,"geometry":{"type":"Point","coordinates":[139.79482600000006,35.690009000000032]},"properties":{"OBJECTID":263,"name":"ワーカーズコープ　新大橋のびっこ保育園","lon":139.794826,"lat":35.690009000000003}},{"type":"Feature","id":264,"geometry":{"type":"Point","coordinates":[139.81083700000011,35.682995000000062]},"properties":{"OBJECTID":264,"name":"保育園ミルキーウェイ清澄白河園","lon":139.81083699999999,"lat":35.682994999999998}},{"type":"Feature","id":265,"geometry":{"type":"Point","coordinates":[139.81282300000009,35.683912000000078]},"properties":{"OBJECTID":265,"name":"マミー保育園扇橋","lon":139.81282300000001,"lat":35.683911999999999}},{"type":"Feature","id":266,"geometry":{"type":"Point","coordinates":[139.81944300000009,35.682401000000027]},"properties":{"OBJECTID":266,"name":"アソシエ住吉扇橋","lon":139.81944300000001,"lat":35.682400999999999}},{"type":"Feature","id":267,"geometry":{"type":"Point","coordinates":[139.81655100000012,35.680591000000049]},"properties":{"OBJECTID":267,"name":"江東区千田保育園","lon":139.816551,"lat":35.680591}},{"type":"Feature","id":268,"geometry":{"type":"Point","coordinates":[139.81140900000003,35.67710500000004]},"properties":{"OBJECTID":268,"name":"チェリッシュナーサリースクール木場","lon":139.811409,"lat":35.677104999999997}},{"type":"Feature","id":269,"geometry":{"type":"Point","coordinates":[139.81650700000012,35.678512000000069]},"properties":{"OBJECTID":269,"name":"キッズスマイル江東千石","lon":139.816507,"lat":35.678511999999998}},{"type":"Feature","id":270,"geometry":{"type":"Point","coordinates":[139.81505700000002,35.666517000000056]},"properties":{"OBJECTID":270,"name":"マミー保育園東陽町","lon":139.815057,"lat":35.666516999999999}},{"type":"Feature","id":271,"geometry":{"type":"Point","coordinates":[139.8182230000001,35.66908200000006]},"properties":{"OBJECTID":271,"name":"さくらさくみらい新東陽","lon":139.81822299999999,"lat":35.669082000000003}},{"type":"Feature","id":272,"geometry":{"type":"Point","coordinates":[139.81810400000006,35.668783000000076]},"properties":{"OBJECTID":272,"name":"さくらさくみらい東陽二丁目","lon":139.81810400000001,"lat":35.668782999999998}},{"type":"Feature","id":273,"geometry":{"type":"Point","coordinates":[139.81371600000011,35.669205000000034]},"properties":{"OBJECTID":273,"name":"江東区東陽保育園","lon":139.813716,"lat":35.669204999999998}},{"type":"Feature","id":274,"geometry":{"type":"Point","coordinates":[139.81511400000011,35.66977600000007]},"properties":{"OBJECTID":274,"name":"スターチス保育園","lon":139.81511399999999,"lat":35.669775999999999}},{"type":"Feature","id":275,"geometry":{"type":"Point","coordinates":[139.81434700000011,35.671802000000071]},"properties":{"OBJECTID":275,"name":"さくらさくみらい東陽町","lon":139.814347,"lat":35.671802}},{"type":"Feature","id":276,"geometry":{"type":"Point","coordinates":[139.81444400000009,35.669777000000067]},"properties":{"OBJECTID":276,"name":"テンダーラビング保育園東陽","lon":139.81444400000001,"lat":35.669777000000003}},{"type":"Feature","id":277,"geometry":{"type":"Point","coordinates":[139.81935800000008,35.669128000000057]},"properties":{"OBJECTID":277,"name":"ほっぺるランド東陽町","lon":139.81935799999999,"lat":35.669128000000001}},{"type":"Feature","id":278,"geometry":{"type":"Point","coordinates":[139.79971200000011,35.683146000000079]},"properties":{"OBJECTID":278,"name":"江東区白河保育園","lon":139.799712,"lat":35.683146000000001}},{"type":"Feature","id":279,"geometry":{"type":"Point","coordinates":[139.79967000000011,35.682687000000044]},"properties":{"OBJECTID":279,"name":"グローバルキッズ白河一丁目園","lon":139.79966999999999,"lat":35.682687000000001}},{"type":"Feature","id":280,"geometry":{"type":"Point","coordinates":[139.80622800000003,35.683473000000049]},"properties":{"OBJECTID":280,"name":"小鳩保育園　清澄白河","lon":139.806228,"lat":35.683472999999999}},{"type":"Feature","id":281,"geometry":{"type":"Point","coordinates":[139.80440900000008,35.681580000000054]},"properties":{"OBJECTID":281,"name":"グローバルキッズ清澄白河園","lon":139.80440899999999,"lat":35.681579999999997}},{"type":"Feature","id":282,"geometry":{"type":"Point","coordinates":[139.80866700000001,35.683822000000077]},"properties":{"OBJECTID":282,"name":"まなびの森保育園白河","lon":139.80866700000001,"lat":35.683821999999999}},{"type":"Feature","id":283,"geometry":{"type":"Point","coordinates":[139.80026000000009,35.68336400000004]},"properties":{"OBJECTID":283,"name":"江東区白河かもめ保育園","lon":139.80026000000001,"lat":35.683363999999997}},{"type":"Feature","id":284,"geometry":{"type":"Point","coordinates":[139.80582900000002,35.681808000000046]},"properties":{"OBJECTID":284,"name":"子供の村保育園","lon":139.80582899999999,"lat":35.681807999999997}},{"type":"Feature","id":285,"geometry":{"type":"Point","coordinates":[139.80693700000006,35.682868000000042]},"properties":{"OBJECTID":285,"name":"さんいく保育園清澄白河","lon":139.806937,"lat":35.682867999999999}},{"type":"Feature","id":286,"geometry":{"type":"Point","coordinates":[139.80347700000004,35.67951000000005]},"properties":{"OBJECTID":286,"name":"さくらさくみらい三好","lon":139.80347699999999,"lat":35.679510000000001}},{"type":"Feature","id":287,"geometry":{"type":"Point","coordinates":[139.80537500000003,35.680001000000061]},"properties":{"OBJECTID":287,"name":"アンジェリカ白河","lon":139.805375,"lat":35.680000999999997}},{"type":"Feature","id":288,"geometry":{"type":"Point","coordinates":[139.7994010000001,35.678381000000059]},"properties":{"OBJECTID":288,"name":"グローバルキッズ平野園","lon":139.79940099999999,"lat":35.678381000000002}},{"type":"Feature","id":289,"geometry":{"type":"Point","coordinates":[139.79425300000003,35.682770000000062]},"properties":{"OBJECTID":289,"name":"おはよう保育園　清澄白河","lon":139.794253,"lat":35.682769999999998}},{"type":"Feature","id":290,"geometry":{"type":"Point","coordinates":[139.79738300000008,35.683080000000075]},"properties":{"OBJECTID":290,"name":"うぃず清澄白河駅前保育園","lon":139.797383,"lat":35.683079999999997}},{"type":"Feature","id":291,"geometry":{"type":"Point","coordinates":[139.79640600000005,35.677343000000064]},"properties":{"OBJECTID":291,"name":"江東区深川一丁目保育園","lon":139.79640599999999,"lat":35.677343}},{"type":"Feature","id":292,"geometry":{"type":"Point","coordinates":[139.80008000000009,35.673521000000051]},"properties":{"OBJECTID":292,"name":"もんなかほうゆう保育園","lon":139.80008000000001,"lat":35.673521000000001}},{"type":"Feature","id":293,"geometry":{"type":"Point","coordinates":[139.80024000000003,35.673155000000065]},"properties":{"OBJECTID":293,"name":"ナーサリールームベリーベアー深川冬木","lon":139.80024,"lat":35.673155000000001}},{"type":"Feature","id":294,"geometry":{"type":"Point","coordinates":[139.80127100000004,35.674941000000047]},"properties":{"OBJECTID":294,"name":"まこと保育園","lon":139.80127100000001,"lat":35.674940999999997}},{"type":"Feature","id":295,"geometry":{"type":"Point","coordinates":[139.80475600000011,35.668615000000045]},"properties":{"OBJECTID":295,"name":"スマイルクラブナーサリー木場","lon":139.804756,"lat":35.668615000000003}},{"type":"Feature","id":296,"geometry":{"type":"Point","coordinates":[139.8042650000001,35.668671000000074]},"properties":{"OBJECTID":296,"name":"さくらさくみらい木場","lon":139.80426499999999,"lat":35.668671000000003}},{"type":"Feature","id":297,"geometry":{"type":"Point","coordinates":[139.8043560000001,35.671321000000034]},"properties":{"OBJECTID":297,"name":"タムスわんぱく保育園木場","lon":139.80435600000001,"lat":35.671320999999999}},{"type":"Feature","id":298,"geometry":{"type":"Point","coordinates":[139.80935100000011,35.672782000000041]},"properties":{"OBJECTID":298,"name":"ＭＩＷＡ木場公園保育園","lon":139.80935099999999,"lat":35.672781999999998}},{"type":"Feature","id":299,"geometry":{"type":"Point","coordinates":[139.80789600000003,35.670724000000064]},"properties":{"OBJECTID":299,"name":"グレース保育園","lon":139.807896,"lat":35.670724}},{"type":"Feature","id":300,"geometry":{"type":"Point","coordinates":[139.80249400000002,35.668679000000054]},"properties":{"OBJECTID":300,"name":"アゼリヤ保育園","lon":139.802494,"lat":35.668678999999997}},{"type":"Feature","id":301,"geometry":{"type":"Point","coordinates":[139.80213600000002,35.663773000000049]},"properties":{"OBJECTID":301,"name":"聖華しおかぜ保育園","lon":139.80213599999999,"lat":35.663772999999999}},{"type":"Feature","id":302,"geometry":{"type":"Point","coordinates":[139.80915100000004,35.662330000000054]},"properties":{"OBJECTID":302,"name":"キッズスマイル江東塩浜","lon":139.80915100000001,"lat":35.662329999999997}},{"type":"Feature","id":303,"geometry":{"type":"Point","coordinates":[139.80787200000009,35.660957000000053]},"properties":{"OBJECTID":303,"name":"ＬＩＦＥ　ＳＣＨＯＯＬ　塩浜　こどものいえ","lon":139.807872,"lat":35.660957000000003}},{"type":"Feature","id":304,"geometry":{"type":"Point","coordinates":[139.80865100000005,35.660893000000044]},"properties":{"OBJECTID":304,"name":"江東区塩崎保育園","lon":139.808651,"lat":35.660893000000002}},{"type":"Feature","id":305,"geometry":{"type":"Point","coordinates":[139.80077200000005,35.663487000000032]},"properties":{"OBJECTID":305,"name":"江東区塩浜保育園","lon":139.80077199999999,"lat":35.663487000000003}},{"type":"Feature","id":306,"geometry":{"type":"Point","coordinates":[139.79497900000001,35.665077000000053]},"properties":{"OBJECTID":306,"name":"太陽の子越中島","lon":139.79497900000001,"lat":35.665076999999997}},{"type":"Feature","id":307,"geometry":{"type":"Point","coordinates":[139.79554000000007,35.664889000000073]},"properties":{"OBJECTID":307,"name":"ポピンズナーサリースクール越中島","lon":139.79553999999999,"lat":35.664889000000002}},{"type":"Feature","id":308,"geometry":{"type":"Point","coordinates":[139.79876200000001,35.667216000000053]},"properties":{"OBJECTID":308,"name":"江東区古石場保育園","lon":139.79876200000001,"lat":35.667216000000003}},{"type":"Feature","id":309,"geometry":{"type":"Point","coordinates":[139.79784900000004,35.670505000000048]},"properties":{"OBJECTID":309,"name":"富岡クローバー保育園","lon":139.79784900000001,"lat":35.670504999999999}},{"type":"Feature","id":310,"geometry":{"type":"Point","coordinates":[139.80161900000007,35.670495000000074]},"properties":{"OBJECTID":310,"name":"さくらさくみらい富岡","lon":139.80161899999999,"lat":35.670495000000003}},{"type":"Feature","id":311,"geometry":{"type":"Point","coordinates":[139.80191800000011,35.672032000000058]},"properties":{"OBJECTID":311,"name":"コスモス江東富岡保育園","lon":139.801918,"lat":35.672032000000002}},{"type":"Feature","id":312,"geometry":{"type":"Point","coordinates":[139.79682600000001,35.672765000000027]},"properties":{"OBJECTID":312,"name":"アスクもんなか保育園","lon":139.79682600000001,"lat":35.672764999999998}},{"type":"Feature","id":313,"geometry":{"type":"Point","coordinates":[139.80141000000003,35.670479000000057]},"properties":{"OBJECTID":313,"name":"木下の保育園　富岡","lon":139.80141,"lat":35.670479}},{"type":"Feature","id":314,"geometry":{"type":"Point","coordinates":[139.8025980000001,35.658989000000076]},"properties":{"OBJECTID":314,"name":"豊洲枝川さくらんぼ","lon":139.80259799999999,"lat":35.658988999999998}},{"type":"Feature","id":315,"geometry":{"type":"Point","coordinates":[139.81047200000012,35.65841800000004]},"properties":{"OBJECTID":315,"name":"愛隣シャローム保育園","lon":139.810472,"lat":35.658417999999998}},{"type":"Feature","id":316,"geometry":{"type":"Point","coordinates":[139.80816600000003,35.657313000000045]},"properties":{"OBJECTID":316,"name":"深川愛隣保育園","lon":139.808166,"lat":35.657313000000002}},{"type":"Feature","id":317,"geometry":{"type":"Point","coordinates":[139.81634500000007,35.657886000000076]},"properties":{"OBJECTID":317,"name":"太陽の子　潮見保育園","lon":139.81634500000001,"lat":35.657885999999998}},{"type":"Feature","id":318,"geometry":{"type":"Point","coordinates":[139.81634500000007,35.657886000000076]},"properties":{"OBJECTID":318,"name":"江東区潮見保育園","lon":139.81634500000001,"lat":35.657885999999998}},{"type":"Feature","id":319,"geometry":{"type":"Point","coordinates":[139.8113810000001,35.648193000000049]},"properties":{"OBJECTID":319,"name":"江東区辰巳第三保育園","lon":139.81138100000001,"lat":35.648192999999999}},{"type":"Feature","id":320,"geometry":{"type":"Point","coordinates":[139.80866000000003,35.649466000000075]},"properties":{"OBJECTID":320,"name":"江東区辰巳第二保育園","lon":139.80866,"lat":35.649465999999997}},{"type":"Feature","id":321,"geometry":{"type":"Point","coordinates":[139.7958900000001,35.656897000000072]},"properties":{"OBJECTID":321,"name":"ゆらりん豊洲フロント保育園","lon":139.79589000000001,"lat":35.656897000000001}},{"type":"Feature","id":322,"geometry":{"type":"Point","coordinates":[139.7980050000001,35.656674000000066]},"properties":{"OBJECTID":322,"name":"ＴＫチルドレンズファーム豊洲校","lon":139.79800499999999,"lat":35.656674000000002}},{"type":"Feature","id":323,"geometry":{"type":"Point","coordinates":[139.7980050000001,35.656674000000066]},"properties":{"OBJECTID":323,"name":"ＴＫチルドレンズファーム豊洲第二校","lon":139.79800499999999,"lat":35.656674000000002}},{"type":"Feature","id":324,"geometry":{"type":"Point","coordinates":[139.79596500000002,35.659995000000038]},"properties":{"OBJECTID":324,"name":"アスク豊洲保育園","lon":139.795965,"lat":35.659995000000002}},{"type":"Feature","id":325,"geometry":{"type":"Point","coordinates":[139.7965200000001,35.654589000000044]},"properties":{"OBJECTID":325,"name":"さくらさくみらい豊洲","lon":139.79651999999999,"lat":35.654589000000001}},{"type":"Feature","id":326,"geometry":{"type":"Point","coordinates":[139.79493700000012,35.651950000000056]},"properties":{"OBJECTID":326,"name":"グローバルキッズ豊洲","lon":139.794937,"lat":35.651949999999999}},{"type":"Feature","id":327,"geometry":{"type":"Point","coordinates":[139.7965200000001,35.654589000000044]},"properties":{"OBJECTID":327,"name":"グローバルキッズ豊洲五丁目保育園","lon":139.79651999999999,"lat":35.654589000000001}},{"type":"Feature","id":328,"geometry":{"type":"Point","coordinates":[139.79924100000005,35.650611000000026]},"properties":{"OBJECTID":328,"name":"アイグラン保育園豊洲","lon":139.79924099999999,"lat":35.650610999999998}},{"type":"Feature","id":329,"geometry":{"type":"Point","coordinates":[139.79303000000004,35.649424000000067]},"properties":{"OBJECTID":329,"name":"小学館アカデミーしんとよす保育園","lon":139.79302999999999,"lat":35.649424000000003}},{"type":"Feature","id":330,"geometry":{"type":"Point","coordinates":[139.7965200000001,35.654589000000044]},"properties":{"OBJECTID":330,"name":"キッズポケット豊洲保育園","lon":139.79651999999999,"lat":35.654589000000001}},{"type":"Feature","id":331,"geometry":{"type":"Point","coordinates":[139.7965200000001,35.654589000000044]},"properties":{"OBJECTID":331,"name":"蓮美幼児学園とよすナーサリー","lon":139.79651999999999,"lat":35.654589000000001}},{"type":"Feature","id":332,"geometry":{"type":"Point","coordinates":[139.7965200000001,35.654589000000044]},"properties":{"OBJECTID":332,"name":"蓮美幼児学園第２とよすナーサリー","lon":139.79651999999999,"lat":35.654589000000001}},{"type":"Feature","id":333,"geometry":{"type":"Point","coordinates":[139.80131000000006,35.653792000000067]},"properties":{"OBJECTID":333,"name":"ゆらりん豊四保育園","lon":139.80131,"lat":35.653792000000003}},{"type":"Feature","id":334,"geometry":{"type":"Point","coordinates":[139.7965200000001,35.654589000000044]},"properties":{"OBJECTID":334,"name":"ひまわりキッズガーデン豊洲","lon":139.79651999999999,"lat":35.654589000000001}},{"type":"Feature","id":335,"geometry":{"type":"Point","coordinates":[139.7965200000001,35.654589000000044]},"properties":{"OBJECTID":335,"name":"ミアヘルサ保育園ひびき豊洲","lon":139.79651999999999,"lat":35.654589000000001}},{"type":"Feature","id":336,"geometry":{"type":"Point","coordinates":[139.7965200000001,35.654589000000044]},"properties":{"OBJECTID":336,"name":"江東区豊洲保育園","lon":139.79651999999999,"lat":35.654589000000001}},{"type":"Feature","id":337,"geometry":{"type":"Point","coordinates":[139.79220100000009,35.65836100000007]},"properties":{"OBJECTID":337,"name":"ＭＩＷＡシンフォニア保育園","lon":139.79220100000001,"lat":35.658360999999999}},{"type":"Feature","id":338,"geometry":{"type":"Point","coordinates":[139.80241400000011,35.650661000000071]},"properties":{"OBJECTID":338,"name":"グローバルキッズしののめ園","lon":139.802414,"lat":35.650660999999999}},{"type":"Feature","id":339,"geometry":{"type":"Point","coordinates":[139.80023600000004,35.644941000000074]},"properties":{"OBJECTID":339,"name":"江東区東雲保育園","lon":139.80023600000001,"lat":35.644941000000003}},{"type":"Feature","id":340,"geometry":{"type":"Point","coordinates":[139.80149900000004,35.643794000000071]},"properties":{"OBJECTID":340,"name":"みんなのみらいをつくる保育園東雲","lon":139.80149900000001,"lat":35.643794}},{"type":"Feature","id":341,"geometry":{"type":"Point","coordinates":[139.79929400000003,35.643329000000051]},"properties":{"OBJECTID":341,"name":"江東区東雲第二保育園","lon":139.799294,"lat":35.643329000000001}},{"type":"Feature","id":342,"geometry":{"type":"Point","coordinates":[139.80091600000003,35.644821000000036]},"properties":{"OBJECTID":342,"name":"ＹＭＣＡオリーブ保育園","lon":139.800916,"lat":35.644821}},{"type":"Feature","id":343,"geometry":{"type":"Point","coordinates":[139.80442100000005,35.646477000000061]},"properties":{"OBJECTID":343,"name":"ＹＭＣＡキャナルコート保育園","lon":139.80442099999999,"lat":35.646476999999997}},{"type":"Feature","id":344,"geometry":{"type":"Point","coordinates":[139.80422900000008,35.647664000000077]},"properties":{"OBJECTID":344,"name":"ひまわりキッズガーデン東雲","lon":139.80422899999999,"lat":35.647663999999999}},{"type":"Feature","id":345,"geometry":{"type":"Point","coordinates":[139.8045350000001,35.649163000000044]},"properties":{"OBJECTID":345,"name":"東雲キャナルコートナーサリースクール","lon":139.80453499999999,"lat":35.649163000000001}},{"type":"Feature","id":346,"geometry":{"type":"Point","coordinates":[139.80072100000007,35.642184000000043]},"properties":{"OBJECTID":346,"name":"ナーサリールームベリーベアー東雲","lon":139.80072100000001,"lat":35.642184}},{"type":"Feature","id":347,"geometry":{"type":"Point","coordinates":[139.79456700000003,35.641812000000073]},"properties":{"OBJECTID":347,"name":"みらいく有明園","lon":139.794567,"lat":35.641812000000002}},{"type":"Feature","id":348,"geometry":{"type":"Point","coordinates":[139.79013200000009,35.638781000000051]},"properties":{"OBJECTID":348,"name":"キッズスマイル江東有明","lon":139.790132,"lat":35.638781000000002}},{"type":"Feature","id":349,"geometry":{"type":"Point","coordinates":[139.78262200000006,35.636114000000077]},"properties":{"OBJECTID":349,"name":"さんいく保育園有明","lon":139.782622,"lat":35.636113999999999}},{"type":"Feature","id":350,"geometry":{"type":"Point","coordinates":[139.78174300000012,35.637360000000058]},"properties":{"OBJECTID":350,"name":"江東湾岸サテライトスマートナーサリースクール","lon":139.78174300000001,"lat":35.637360000000001}},{"type":"Feature","id":351,"geometry":{"type":"Point","coordinates":[139.78302100000008,35.634283000000039]},"properties":{"OBJECTID":351,"name":"おはよう保育園有明","lon":139.78302099999999,"lat":35.634283000000003}},{"type":"Feature","id":352,"geometry":{"type":"Point","coordinates":[139.79062800000008,35.630895000000066]},"properties":{"OBJECTID":352,"name":"ニチイキッズありあけ保育園","lon":139.790628,"lat":35.630895000000002}},{"type":"Feature","id":353,"geometry":{"type":"Point","coordinates":[139.78724800000009,35.637139000000047]},"properties":{"OBJECTID":353,"name":"ひまわりキッズガーデン有明","lon":139.78724800000001,"lat":35.637138999999998}},{"type":"Feature","id":354,"geometry":{"type":"Point","coordinates":[139.78642500000001,35.636660000000063]},"properties":{"OBJECTID":354,"name":"ひまわりキッズガーデン有明の森","lon":139.78642500000001,"lat":35.636659999999999}},{"type":"Feature","id":355,"geometry":{"type":"Point","coordinates":[139.79179000000011,35.631467000000043]},"properties":{"OBJECTID":355,"name":"江東湾岸サテライトナーサリースクール（本園）","lon":139.79178999999999,"lat":35.631467000000001}},{"type":"Feature","id":356,"geometry":{"type":"Point","coordinates":[139.82404600000007,35.69453100000004]},"properties":{"OBJECTID":356,"name":"江東区亀戸第三保育園","lon":139.82404600000001,"lat":35.694530999999998}},{"type":"Feature","id":357,"geometry":{"type":"Point","coordinates":[139.82076600000005,35.696675000000027]},"properties":{"OBJECTID":357,"name":"おはよう保育園　亀戸","lon":139.82076599999999,"lat":35.696674999999999}},{"type":"Feature","id":358,"geometry":{"type":"Point","coordinates":[139.82310000000007,35.700341000000037]},"properties":{"OBJECTID":358,"name":"クオリスキッズ亀戸保育園","lon":139.82310000000001,"lat":35.700341000000002}},{"type":"Feature","id":359,"geometry":{"type":"Point","coordinates":[139.82200100000011,35.703735000000052]},"properties":{"OBJECTID":359,"name":"にじいろ保育園亀戸","lon":139.822001,"lat":35.703735000000002}},{"type":"Feature","id":360,"geometry":{"type":"Point","coordinates":[139.83228600000007,35.697896000000071]},"properties":{"OBJECTID":360,"name":"グローバルキッズ亀戸園","lon":139.83228600000001,"lat":35.697896}},{"type":"Feature","id":361,"geometry":{"type":"Point","coordinates":[139.82868900000005,35.695395000000076]},"properties":{"OBJECTID":361,"name":"ポピンズナーサリースクール亀戸","lon":139.828689,"lat":35.695394999999998}},{"type":"Feature","id":362,"geometry":{"type":"Point","coordinates":[139.83197400000006,35.69633900000008]},"properties":{"OBJECTID":362,"name":"こころこうとう保育園","lon":139.831974,"lat":35.696339000000002}},{"type":"Feature","id":363,"geometry":{"type":"Point","coordinates":[139.83246200000008,35.696525000000065]},"properties":{"OBJECTID":363,"name":"江東区亀戸保育園","lon":139.83246199999999,"lat":35.696525000000001}},{"type":"Feature","id":364,"geometry":{"type":"Point","coordinates":[139.83421300000009,35.697658000000047]},"properties":{"OBJECTID":364,"name":"まなびの森保育園亀戸","lon":139.83421300000001,"lat":35.697657999999997}},{"type":"Feature","id":365,"geometry":{"type":"Point","coordinates":[139.83935100000008,35.697506000000033]},"properties":{"OBJECTID":365,"name":"保育園ミルキーウェイ亀戸園","lon":139.83935099999999,"lat":35.697505999999997}},{"type":"Feature","id":366,"geometry":{"type":"Point","coordinates":[139.83944400000007,35.696654000000024]},"properties":{"OBJECTID":366,"name":"江東亀戸サテライトグローバルキッズ竪川園","lon":139.83944399999999,"lat":35.696654000000002}},{"type":"Feature","id":367,"geometry":{"type":"Point","coordinates":[139.83738800000003,35.696776000000057]},"properties":{"OBJECTID":367,"name":"江東区亀戸第二保育園","lon":139.837388,"lat":35.696776}},{"type":"Feature","id":368,"geometry":{"type":"Point","coordinates":[139.84044600000004,35.70028300000007]},"properties":{"OBJECTID":368,"name":"亀戸こころ保育園","lon":139.84044599999999,"lat":35.700282999999999}},{"type":"Feature","id":369,"geometry":{"type":"Point","coordinates":[139.83895600000005,35.698439000000064]},"properties":{"OBJECTID":369,"name":"亀戸浅間保育園","lon":139.838956,"lat":35.698439}},{"type":"Feature","id":370,"geometry":{"type":"Point","coordinates":[139.82818000000009,35.700941000000057]},"properties":{"OBJECTID":370,"name":"アンジェリカ亀戸保育園","lon":139.82818,"lat":35.700941}},{"type":"Feature","id":371,"geometry":{"type":"Point","coordinates":[139.82658400000003,35.702639000000033]},"properties":{"OBJECTID":371,"name":"江東区亀戸第四保育園","lon":139.826584,"lat":35.702638999999998}},{"type":"Feature","id":372,"geometry":{"type":"Point","coordinates":[139.82255700000007,35.700170000000071]},"properties":{"OBJECTID":372,"name":"陽だまり保育園","lon":139.82255699999999,"lat":35.70017}},{"type":"Feature","id":373,"geometry":{"type":"Point","coordinates":[139.83265000000006,35.695916000000068]},"properties":{"OBJECTID":373,"name":"コビープリスクールかめいど","lon":139.83265,"lat":35.695915999999997}},{"type":"Feature","id":374,"geometry":{"type":"Point","coordinates":[139.82339900000011,35.688712000000066]},"properties":{"OBJECTID":374,"name":"グローバルキッズ西大島園","lon":139.82339899999999,"lat":35.688712000000002}},{"type":"Feature","id":375,"geometry":{"type":"Point","coordinates":[139.82811800000002,35.689826000000039]},"properties":{"OBJECTID":375,"name":"プチ・ナーサリー西大島","lon":139.82811799999999,"lat":35.689825999999996}},{"type":"Feature","id":376,"geometry":{"type":"Point","coordinates":[139.82883600000002,35.690609000000052]},"properties":{"OBJECTID":376,"name":"大島なかよし保育園","lon":139.828836,"lat":35.690609000000002}},{"type":"Feature","id":377,"geometry":{"type":"Point","coordinates":[139.83008900000004,35.687428000000068]},"properties":{"OBJECTID":377,"name":"江東区大島第二保育園","lon":139.83008899999999,"lat":35.687427999999997}},{"type":"Feature","id":378,"geometry":{"type":"Point","coordinates":[139.83179900000005,35.686485000000062]},"properties":{"OBJECTID":378,"name":"江東区大島第五保育園","lon":139.83179899999999,"lat":35.686484999999998}},{"type":"Feature","id":379,"geometry":{"type":"Point","coordinates":[139.83588200000008,35.686747000000025]},"properties":{"OBJECTID":379,"name":"太陽の子　大島五丁目保育園","lon":139.835882,"lat":35.686746999999997}},{"type":"Feature","id":380,"geometry":{"type":"Point","coordinates":[139.83500300000003,35.687737000000027]},"properties":{"OBJECTID":380,"name":"HOPPAおおじまタウン","lon":139.835003,"lat":35.687736999999998}},{"type":"Feature","id":381,"geometry":{"type":"Point","coordinates":[139.83717800000011,35.68702600000006]},"properties":{"OBJECTID":381,"name":"江東区大島保育園","lon":139.83717799999999,"lat":35.687026000000003}},{"type":"Feature","id":382,"geometry":{"type":"Point","coordinates":[139.83326100000011,35.692341000000056]},"properties":{"OBJECTID":382,"name":"江東区大島第三保育園","lon":139.83326099999999,"lat":35.692340999999999}},{"type":"Feature","id":383,"geometry":{"type":"Point","coordinates":[139.83723700000007,35.692938000000026]},"properties":{"OBJECTID":383,"name":"ココロラボインターナショナル大島","lon":139.83723699999999,"lat":35.692937999999998}},{"type":"Feature","id":384,"geometry":{"type":"Point","coordinates":[139.83701600000006,35.691102000000058]},"properties":{"OBJECTID":384,"name":"キッズスマイル江東大島","lon":139.83701600000001,"lat":35.691102000000001}},{"type":"Feature","id":385,"geometry":{"type":"Point","coordinates":[139.84156400000006,35.691958000000056]},"properties":{"OBJECTID":385,"name":"かがやき保育園","lon":139.84156400000001,"lat":35.691958}},{"type":"Feature","id":386,"geometry":{"type":"Point","coordinates":[139.83900900000003,35.687331000000029]},"properties":{"OBJECTID":386,"name":"江東区大島第四保育園","lon":139.839009,"lat":35.687331}},{"type":"Feature","id":387,"geometry":{"type":"Point","coordinates":[139.84211000000005,35.688990000000047]},"properties":{"OBJECTID":387,"name":"アスク東大島保育園","lon":139.84210999999999,"lat":35.688989999999997}},{"type":"Feature","id":388,"geometry":{"type":"Point","coordinates":[139.84418800000003,35.694046000000071]},"properties":{"OBJECTID":388,"name":"江東区わかば保育園","lon":139.844188,"lat":35.694046}},{"type":"Feature","id":389,"geometry":{"type":"Point","coordinates":[139.82827600000007,35.692453000000057]},"properties":{"OBJECTID":389,"name":"花と鳥保育園","lon":139.82827599999999,"lat":35.692453}},{"type":"Feature","id":390,"geometry":{"type":"Point","coordinates":[139.82528200000002,35.691557000000046]},"properties":{"OBJECTID":390,"name":"マミー保育園西大島","lon":139.82528199999999,"lat":35.691557000000003}},{"type":"Feature","id":391,"geometry":{"type":"Point","coordinates":[139.83169500000008,35.682403000000079]},"properties":{"OBJECTID":391,"name":"江東区北砂保育園","lon":139.831695,"lat":35.682403000000001}},{"type":"Feature","id":392,"geometry":{"type":"Point","coordinates":[139.82368400000007,35.684136000000024]},"properties":{"OBJECTID":392,"name":"江東区小名木川保育園","lon":139.82368399999999,"lat":35.684136000000002}},{"type":"Feature","id":393,"geometry":{"type":"Point","coordinates":[139.83169500000008,35.682403000000079]},"properties":{"OBJECTID":393,"name":"スクルドエンジェル北砂園","lon":139.831695,"lat":35.682403000000001}},{"type":"Feature","id":394,"geometry":{"type":"Point","coordinates":[139.82738700000004,35.684637000000066]},"properties":{"OBJECTID":394,"name":"つくし保育園","lon":139.82738699999999,"lat":35.684637000000002}},{"type":"Feature","id":395,"geometry":{"type":"Point","coordinates":[139.83283400000005,35.680220000000077]},"properties":{"OBJECTID":395,"name":"キッズスマイル江東北砂","lon":139.83283399999999,"lat":35.680219999999998}},{"type":"Feature","id":396,"geometry":{"type":"Point","coordinates":[139.83255400000007,35.679965000000038]},"properties":{"OBJECTID":396,"name":"Ｍｉｌｋｙ　Ｗａｙ　Ｉｎｔｅｒｎａｔｉｏｎａｌ　Ｎｕｒｓｅｒｙ　Ｓｃｈｏｏｌ　北砂校","lon":139.83255399999999,"lat":35.679965000000003}},{"type":"Feature","id":397,"geometry":{"type":"Point","coordinates":[139.83431300000007,35.682068000000072]},"properties":{"OBJECTID":397,"name":"にじいろ保育園北砂","lon":139.83431300000001,"lat":35.682068000000001}},{"type":"Feature","id":398,"geometry":{"type":"Point","coordinates":[139.83380900000009,35.685559000000069]},"properties":{"OBJECTID":398,"name":"江東区亀高第二保育園","lon":139.833809,"lat":35.685558999999998}},{"type":"Feature","id":399,"geometry":{"type":"Point","coordinates":[139.83203500000002,35.682307000000037]},"properties":{"OBJECTID":399,"name":"江東区小名木川第二保育園","lon":139.83203499999999,"lat":35.682307000000002}},{"type":"Feature","id":400,"geometry":{"type":"Point","coordinates":[139.83300600000007,35.68480100000005]},"properties":{"OBJECTID":400,"name":"江東区亀高保育園","lon":139.83300600000001,"lat":35.684801}},{"type":"Feature","id":401,"geometry":{"type":"Point","coordinates":[139.83169500000008,35.682403000000079]},"properties":{"OBJECTID":401,"name":"みらいく北砂園","lon":139.831695,"lat":35.682403000000001}},{"type":"Feature","id":402,"geometry":{"type":"Point","coordinates":[139.83451200000002,35.680734000000029]},"properties":{"OBJECTID":402,"name":"砂町友愛園","lon":139.83451199999999,"lat":35.680734000000001}},{"type":"Feature","id":403,"geometry":{"type":"Point","coordinates":[139.83169500000008,35.682403000000079]},"properties":{"OBJECTID":403,"name":"砂町保育園","lon":139.831695,"lat":35.682403000000001}},{"type":"Feature","id":404,"geometry":{"type":"Point","coordinates":[139.84193000000005,35.677307000000042]},"properties":{"OBJECTID":404,"name":"江東区東砂第三保育園","lon":139.84192999999999,"lat":35.677306999999999}},{"type":"Feature","id":405,"geometry":{"type":"Point","coordinates":[139.84193000000005,35.677307000000042]},"properties":{"OBJECTID":405,"name":"江東区東砂保育園","lon":139.84192999999999,"lat":35.677306999999999}},{"type":"Feature","id":406,"geometry":{"type":"Point","coordinates":[139.84297900000001,35.684457000000066]},"properties":{"OBJECTID":406,"name":"江東区東砂第二保育園","lon":139.84297900000001,"lat":35.684457000000002}},{"type":"Feature","id":407,"geometry":{"type":"Point","coordinates":[139.84193000000005,35.677307000000042]},"properties":{"OBJECTID":407,"name":"マミー保育園東砂","lon":139.84192999999999,"lat":35.677306999999999}},{"type":"Feature","id":408,"geometry":{"type":"Point","coordinates":[139.84449200000006,35.680994000000055]},"properties":{"OBJECTID":408,"name":"みらいく東砂園","lon":139.844492,"lat":35.680993999999998}},{"type":"Feature","id":409,"geometry":{"type":"Point","coordinates":[139.83904600000005,35.671788000000049]},"properties":{"OBJECTID":409,"name":"メリーポピンズ南砂ルーム","lon":139.839046,"lat":35.671787999999999}},{"type":"Feature","id":410,"geometry":{"type":"Point","coordinates":[139.84193000000005,35.677307000000042]},"properties":{"OBJECTID":410,"name":"江東区東砂第四保育園","lon":139.84192999999999,"lat":35.677306999999999}},{"type":"Feature","id":411,"geometry":{"type":"Point","coordinates":[139.83773900000006,35.675280000000043]},"properties":{"OBJECTID":411,"name":"にじいろ保育園東砂","lon":139.837739,"lat":35.675280000000001}},{"type":"Feature","id":412,"geometry":{"type":"Point","coordinates":[139.84161000000006,35.667701000000079]},"properties":{"OBJECTID":412,"name":"キッズスマイル江東東砂","lon":139.84161,"lat":35.667701000000001}},{"type":"Feature","id":413,"geometry":{"type":"Point","coordinates":[139.84154300000012,35.669828000000052]},"properties":{"OBJECTID":413,"name":"ともしび保育園","lon":139.841543,"lat":35.669828000000003}},{"type":"Feature","id":414,"geometry":{"type":"Point","coordinates":[139.83169500000008,35.659429000000046]},"properties":{"OBJECTID":414,"name":"江東区新砂保育園","lon":139.831695,"lat":35.659429000000003}},{"type":"Feature","id":415,"geometry":{"type":"Point","coordinates":[139.82352200000003,35.669609000000037]},"properties":{"OBJECTID":415,"name":"南砂あら川保育園","lon":139.823522,"lat":35.669609000000001}},{"type":"Feature","id":416,"geometry":{"type":"Point","coordinates":[139.82166600000005,35.67543100000006]},"properties":{"OBJECTID":416,"name":"ドリームキッズランド保育園","lon":139.82166599999999,"lat":35.675431000000003}},{"type":"Feature","id":417,"geometry":{"type":"Point","coordinates":[139.82300400000008,35.673170000000027]},"properties":{"OBJECTID":417,"name":"江東区南砂第三保育園","lon":139.823004,"lat":35.673169999999999}},{"type":"Feature","id":418,"geometry":{"type":"Point","coordinates":[139.82324500000004,35.671798000000024]},"properties":{"OBJECTID":418,"name":"江東区南砂第四保育園","lon":139.82324499999999,"lat":35.671798000000003}},{"type":"Feature","id":419,"geometry":{"type":"Point","coordinates":[139.82584500000007,35.67232000000007]},"properties":{"OBJECTID":419,"name":"太陽の子　南砂２丁目保育園","lon":139.82584499999999,"lat":35.672319999999999}},{"type":"Feature","id":420,"geometry":{"type":"Point","coordinates":[139.82384900000011,35.67019300000004]},"properties":{"OBJECTID":420,"name":"江東区南砂第五保育園","lon":139.823849,"lat":35.670192999999998}},{"type":"Feature","id":421,"geometry":{"type":"Point","coordinates":[139.83288300000004,35.670138000000065]},"properties":{"OBJECTID":421,"name":"グローバルキッズ南砂園","lon":139.83288300000001,"lat":35.670138000000001}},{"type":"Feature","id":422,"geometry":{"type":"Point","coordinates":[139.83247900000003,35.672965000000033]},"properties":{"OBJECTID":422,"name":"ルーチェ保育園　南砂","lon":139.83247900000001,"lat":35.672964999999998}},{"type":"Feature","id":423,"geometry":{"type":"Point","coordinates":[139.82785700000011,35.672828000000038]},"properties":{"OBJECTID":423,"name":"江東区南砂第一保育園","lon":139.82785699999999,"lat":35.672828000000003}},{"type":"Feature","id":424,"geometry":{"type":"Point","coordinates":[139.83557700000006,35.670636000000059]},"properties":{"OBJECTID":424,"name":"おはよう保育園　南砂町","lon":139.835577,"lat":35.670636000000002}},{"type":"Feature","id":425,"geometry":{"type":"Point","coordinates":[139.83508400000005,35.668332000000078]},"properties":{"OBJECTID":425,"name":"ひまわり保育園","lon":139.83508399999999,"lat":35.668331999999999}},{"type":"Feature","id":426,"geometry":{"type":"Point","coordinates":[139.8351560000001,35.669867000000067]},"properties":{"OBJECTID":426,"name":"江東区城東保育園","lon":139.83515600000001,"lat":35.669867000000004}},{"type":"Feature","id":427,"geometry":{"type":"Point","coordinates":[139.83046900000011,35.670060000000035]},"properties":{"OBJECTID":427,"name":"南砂町保育園","lon":139.83046899999999,"lat":35.670059999999999}},{"type":"Feature","id":428,"geometry":{"type":"Point","coordinates":[139.83778300000006,35.668907000000047]},"properties":{"OBJECTID":428,"name":"八幡保育園","lon":139.837783,"lat":35.668906999999997}},{"type":"Feature","id":429,"geometry":{"type":"Point","coordinates":[139.82200100000011,35.670288000000028]},"properties":{"OBJECTID":429,"name":"江東区南砂第二保育園","lon":139.822001,"lat":35.670287999999999}},{"type":"Feature","id":430,"geometry":{"type":"Point","coordinates":[139.83485300000007,35.671211000000028]},"properties":{"OBJECTID":430,"name":"江東区南砂さくら保育園","lon":139.83485300000001,"lat":35.671211}},{"type":"Feature","id":431,"geometry":{"type":"Point","coordinates":[139.74147700000003,35.620262000000025]},"properties":{"OBJECTID":431,"name":"さくらさくみらい　北品川","lon":139.741477,"lat":35.620261999999997}},{"type":"Feature","id":432,"geometry":{"type":"Point","coordinates":[139.73927800000001,35.620436000000041]},"properties":{"OBJECTID":432,"name":"さくらさくみらい御殿山","lon":139.73927800000001,"lat":35.620435999999998}},{"type":"Feature","id":433,"geometry":{"type":"Point","coordinates":[139.74940400000003,35.621181000000036]},"properties":{"OBJECTID":433,"name":"ウィズブック保育園天王洲","lon":139.749404,"lat":35.621181}},{"type":"Feature","id":434,"geometry":{"type":"Point","coordinates":[139.74742000000003,35.613004000000046]},"properties":{"OBJECTID":434,"name":"ほっぺるランド東品川","lon":139.74742000000001,"lat":35.613003999999997}},{"type":"Feature","id":435,"geometry":{"type":"Point","coordinates":[139.74606300000005,35.612460000000056]},"properties":{"OBJECTID":435,"name":"みらいく東品川園","lon":139.74606299999999,"lat":35.612459999999999}},{"type":"Feature","id":436,"geometry":{"type":"Point","coordinates":[139.74787900000001,35.607714000000044]},"properties":{"OBJECTID":436,"name":"まなびの森保育園品川シーサイド","lon":139.74787900000001,"lat":35.607714000000001}},{"type":"Feature","id":437,"geometry":{"type":"Point","coordinates":[139.74584800000002,35.609444000000053]},"properties":{"OBJECTID":437,"name":"アンジェリカ東品川保育園","lon":139.745848,"lat":35.609444000000003}},{"type":"Feature","id":438,"geometry":{"type":"Point","coordinates":[139.74584800000002,35.609444000000053]},"properties":{"OBJECTID":438,"name":"青物横丁えほん保育園","lon":139.745848,"lat":35.609444000000003}},{"type":"Feature","id":439,"geometry":{"type":"Point","coordinates":[139.74544400000002,35.60885600000006]},"properties":{"OBJECTID":439,"name":"さくらさくみらい　東品川","lon":139.74544399999999,"lat":35.608856000000003}},{"type":"Feature","id":440,"geometry":{"type":"Point","coordinates":[139.74169200000006,35.61159200000003]},"properties":{"OBJECTID":440,"name":"太陽の子南品川保育園","lon":139.741692,"lat":35.611592000000002}},{"type":"Feature","id":441,"geometry":{"type":"Point","coordinates":[139.73825900000008,35.609421000000054]},"properties":{"OBJECTID":441,"name":"さんさん森の保育園大井町","lon":139.738259,"lat":35.609420999999998}},{"type":"Feature","id":442,"geometry":{"type":"Point","coordinates":[139.73768600000005,35.612082000000044]},"properties":{"OBJECTID":442,"name":"こころしながわおおいまち保育園","lon":139.737686,"lat":35.612082000000001}},{"type":"Feature","id":443,"geometry":{"type":"Point","coordinates":[139.74578300000007,35.606354000000067]},"properties":{"OBJECTID":443,"name":"さくらさくみらい品川シーサイド","lon":139.74578299999999,"lat":35.606354000000003}},{"type":"Feature","id":444,"geometry":{"type":"Point","coordinates":[139.74007500000005,35.601445000000069]},"properties":{"OBJECTID":444,"name":"さくらさくみらい　東大井","lon":139.74007499999999,"lat":35.601444999999998}},{"type":"Feature","id":445,"geometry":{"type":"Point","coordinates":[139.73852000000011,35.604130000000055]},"properties":{"OBJECTID":445,"name":"アソシエ東大井公園保育園","lon":139.73851999999999,"lat":35.604129999999998}},{"type":"Feature","id":446,"geometry":{"type":"Point","coordinates":[139.73853300000007,35.600614000000064]},"properties":{"OBJECTID":446,"name":"アンジェリカはまかわ保育園","lon":139.73853299999999,"lat":35.600614}},{"type":"Feature","id":447,"geometry":{"type":"Point","coordinates":[139.73875800000008,35.605727000000059]},"properties":{"OBJECTID":447,"name":"みらいく東大井園","lon":139.73875799999999,"lat":35.605727000000002}},{"type":"Feature","id":448,"geometry":{"type":"Point","coordinates":[139.73506600000007,35.60505500000005]},"properties":{"OBJECTID":448,"name":"大井町えほん保育園","lon":139.73506599999999,"lat":35.605055}},{"type":"Feature","id":449,"geometry":{"type":"Point","coordinates":[139.74417200000005,35.606338000000051]},"properties":{"OBJECTID":449,"name":"こころしながわひがしおおい保育園","lon":139.74417199999999,"lat":35.606338000000001}},{"type":"Feature","id":450,"geometry":{"type":"Point","coordinates":[139.7436560000001,35.596166000000039]},"properties":{"OBJECTID":450,"name":"えがおの森保育園・かつしま","lon":139.74365599999999,"lat":35.596165999999997}},{"type":"Feature","id":451,"geometry":{"type":"Point","coordinates":[139.74440600000003,35.597671000000048]},"properties":{"OBJECTID":451,"name":"ポピンズナーサリースクール勝島","lon":139.744406,"lat":35.597670999999998}},{"type":"Feature","id":452,"geometry":{"type":"Point","coordinates":[139.73894700000005,35.592980000000068]},"properties":{"OBJECTID":452,"name":"にじいろ保育園勝島","lon":139.738947,"lat":35.592979999999997}},{"type":"Feature","id":453,"geometry":{"type":"Point","coordinates":[139.7302360000001,35.607461000000058]},"properties":{"OBJECTID":453,"name":"にじいろ保育園南大井","lon":139.73023599999999,"lat":35.607461000000001}},{"type":"Feature","id":454,"geometry":{"type":"Point","coordinates":[139.73948100000007,35.596351000000027]},"properties":{"OBJECTID":454,"name":"グローバルキッズ立会川園","lon":139.73948100000001,"lat":35.596350999999999}},{"type":"Feature","id":455,"geometry":{"type":"Point","coordinates":[139.73019700000009,35.590970000000027]},"properties":{"OBJECTID":455,"name":"大空と大地のなーさりぃ大森駅前園","lon":139.730197,"lat":35.590969999999999}},{"type":"Feature","id":456,"geometry":{"type":"Point","coordinates":[139.73219200000005,35.589186000000041]},"properties":{"OBJECTID":456,"name":"アスク南大井保育園","lon":139.732192,"lat":35.589185999999998}},{"type":"Feature","id":457,"geometry":{"type":"Point","coordinates":[139.73151400000006,35.588164000000063]},"properties":{"OBJECTID":457,"name":"キッズガーデン南大井","lon":139.731514,"lat":35.588163999999999}},{"type":"Feature","id":458,"geometry":{"type":"Point","coordinates":[139.73105500000008,35.601706000000036]},"properties":{"OBJECTID":458,"name":"クオリスキッズ大井町保育園","lon":139.731055,"lat":35.601706}},{"type":"Feature","id":459,"geometry":{"type":"Point","coordinates":[139.73049600000002,35.600728000000061]},"properties":{"OBJECTID":459,"name":"クオリスキッズ大井町第２保育園","lon":139.73049599999999,"lat":35.600727999999997}},{"type":"Feature","id":460,"geometry":{"type":"Point","coordinates":[139.73083300000008,35.605500000000063]},"properties":{"OBJECTID":460,"name":"しなおおコスモ保育園","lon":139.73083299999999,"lat":35.605499999999999}},{"type":"Feature","id":461,"geometry":{"type":"Point","coordinates":[139.72049900000002,35.597670000000051]},"properties":{"OBJECTID":461,"name":"まなびの森保育園西大井","lon":139.72049899999999,"lat":35.597670000000001}},{"type":"Feature","id":462,"geometry":{"type":"Point","coordinates":[139.72049900000002,35.597670000000051]},"properties":{"OBJECTID":462,"name":"グローバルキッズ西大井園","lon":139.72049899999999,"lat":35.597670000000001}},{"type":"Feature","id":463,"geometry":{"type":"Point","coordinates":[139.72049900000002,35.597670000000051]},"properties":{"OBJECTID":463,"name":"西大井えほん保育園","lon":139.72049899999999,"lat":35.597670000000001}},{"type":"Feature","id":464,"geometry":{"type":"Point","coordinates":[139.73837900000001,35.620918000000074]},"properties":{"OBJECTID":464,"name":"グローバルキッズ大崎園","lon":139.73837900000001,"lat":35.620918000000003}},{"type":"Feature","id":465,"geometry":{"type":"Point","coordinates":[139.73837900000001,35.620918000000074]},"properties":{"OBJECTID":465,"name":"キッズガーデン北品川","lon":139.73837900000001,"lat":35.620918000000003}},{"type":"Feature","id":466,"geometry":{"type":"Point","coordinates":[139.71876900000007,35.631542000000024]},"properties":{"OBJECTID":466,"name":"ポピンズナーサリースクール上大崎","lon":139.71876900000001,"lat":35.631542000000003}},{"type":"Feature","id":467,"geometry":{"type":"Point","coordinates":[139.72377100000006,35.617715000000032]},"properties":{"OBJECTID":467,"name":"ＴＫチルドレンズファーム上大崎校","lon":139.723771,"lat":35.617714999999997}},{"type":"Feature","id":468,"geometry":{"type":"Point","coordinates":[139.71556900000007,35.628599000000065]},"properties":{"OBJECTID":468,"name":"キッズガーデン品川上大崎","lon":139.71556899999999,"lat":35.628599000000001}},{"type":"Feature","id":469,"geometry":{"type":"Point","coordinates":[139.72722300000009,35.627836000000059]},"properties":{"OBJECTID":469,"name":"ほっぺるランド東五反田","lon":139.72722300000001,"lat":35.627836000000002}},{"type":"Feature","id":470,"geometry":{"type":"Point","coordinates":[139.72560700000008,35.627278000000047]},"properties":{"OBJECTID":470,"name":"大空と大地のなーさりぃ東五反田園","lon":139.725607,"lat":35.627277999999997}},{"type":"Feature","id":471,"geometry":{"type":"Point","coordinates":[139.72326300000009,35.622972000000061]},"properties":{"OBJECTID":471,"name":"まなびの森保育園大崎広小路","lon":139.723263,"lat":35.622971999999997}},{"type":"Feature","id":472,"geometry":{"type":"Point","coordinates":[139.72030000000007,35.627337000000068]},"properties":{"OBJECTID":472,"name":"Ｇａｋｋｅｎこども園","lon":139.72030000000001,"lat":35.627336999999997}},{"type":"Feature","id":473,"geometry":{"type":"Point","coordinates":[139.71475500000008,35.627280000000042]},"properties":{"OBJECTID":473,"name":"不動前えほん保育園","lon":139.714755,"lat":35.627279999999999}},{"type":"Feature","id":474,"geometry":{"type":"Point","coordinates":[139.71778600000005,35.629162000000065]},"properties":{"OBJECTID":474,"name":"ポピンズナーサリースクール目黒","lon":139.71778599999999,"lat":35.629162000000001}},{"type":"Feature","id":475,"geometry":{"type":"Point","coordinates":[139.71797500000002,35.626434000000074]},"properties":{"OBJECTID":475,"name":"ウィズブック保育園西五反田","lon":139.717975,"lat":35.626434000000003}},{"type":"Feature","id":476,"geometry":{"type":"Point","coordinates":[139.71922200000006,35.623568000000034]},"properties":{"OBJECTID":476,"name":"こころしながわふどうまえ保育園","lon":139.719222,"lat":35.623567999999999}},{"type":"Feature","id":477,"geometry":{"type":"Point","coordinates":[139.71850200000006,35.623891000000071]},"properties":{"OBJECTID":477,"name":"太陽の子西五反田保育園","lon":139.718502,"lat":35.623891}},{"type":"Feature","id":478,"geometry":{"type":"Point","coordinates":[139.72032000000002,35.619577000000049]},"properties":{"OBJECTID":478,"name":"キッズガーデン品川西五反田","lon":139.72031999999999,"lat":35.619577}},{"type":"Feature","id":479,"geometry":{"type":"Point","coordinates":[139.7195220000001,35.619616000000065]},"properties":{"OBJECTID":479,"name":"ポピンズナーサリースクール西五反田","lon":139.71952200000001,"lat":35.619616000000001}},{"type":"Feature","id":480,"geometry":{"type":"Point","coordinates":[139.72211500000003,35.624998000000062]},"properties":{"OBJECTID":480,"name":"キッズガーデン五反田駅前","lon":139.722115,"lat":35.624997999999998}},{"type":"Feature","id":481,"geometry":{"type":"Point","coordinates":[139.72759200000007,35.618466000000069]},"properties":{"OBJECTID":481,"name":"ＡＩＡＩ　ＮＵＲＳＥＲＹ　大崎","lon":139.72759199999999,"lat":35.618465999999998}},{"type":"Feature","id":482,"geometry":{"type":"Point","coordinates":[139.72658500000011,35.620440000000031]},"properties":{"OBJECTID":482,"name":"Ｇａｋｋｅｎほいくえん　大崎","lon":139.726585,"lat":35.620440000000002}},{"type":"Feature","id":483,"geometry":{"type":"Point","coordinates":[139.72293300000001,35.622509000000036]},"properties":{"OBJECTID":483,"name":"ベネッセ大崎広小路保育園","lon":139.72293300000001,"lat":35.622509000000001}},{"type":"Feature","id":484,"geometry":{"type":"Point","coordinates":[139.7253280000001,35.623111000000051]},"properties":{"OBJECTID":484,"name":"にじいろ保育園大崎","lon":139.72532799999999,"lat":35.623111000000002}},{"type":"Feature","id":485,"geometry":{"type":"Point","coordinates":[139.72537800000009,35.612777000000051]},"properties":{"OBJECTID":485,"name":"キッズガーデン西品川","lon":139.72537800000001,"lat":35.612777000000001}},{"type":"Feature","id":486,"geometry":{"type":"Point","coordinates":[139.7151990000001,35.610557000000028]},"properties":{"OBJECTID":486,"name":"グローバルキッズ戸越園","lon":139.71519900000001,"lat":35.610557}},