{
  "type" : "FeatureCollection",
  "features" : [{"type":"Feature","id":1,"geometry":{"type":"Point","coordinates":[139.75215690000005,35.702408220000052]},"properties":{"OBJECTID":1,"name":"魚心 うおしん 水道橋西口駅前店","lon":139.75215689999999,"lat":35.702408220000002}},{"type":"Feature","id":2,"geometry":{"type":"Point","coordinates":[139.76082120000001,35.673425590000079]},"properties":{"OBJECTID":2,"name":"個室居酒屋 鶏屋むさし 有楽町店","lon":139.76082120000001,"lat":35.673425590000001}},{"type":"Feature","id":3,"geometry":{"type":"Point","coordinates":[139.77457900000002,35.697968760000037]},"properties":{"OBJECTID":3,"name":"鮨と酒日和 ととうお 秋葉原駅前店","lon":139.77457899999999,"lat":35.697968760000002}},{"type":"Feature","id":4,"geometry":{"type":"Point","coordinates":[139.77671580000003,35.69823351000008]},"properties":{"OBJECTID":4,"name":"産直鮮魚と47都道府県の日本酒の店 黒潮 秋葉原店","lon":139.77671580000001,"lat":35.698233510000001}},{"type":"Feature","id":5,"geometry":{"type":"Point","coordinates":[139.78188160000002,35.694384920000061]},"properties":{"OBJECTID":5,"name":"東神田 粋ざま","lon":139.78188159999999,"lat":35.694384919999997}},{"type":"Feature","id":6,"geometry":{"type":"Point","coordinates":[139.76175780000005,35.673186760000078]},"properties":{"OBJECTID":6,"name":"炉端焼きと海鮮とおでん　完全個室居酒屋　吟乃月　有楽町","lon":139.7617578,"lat":35.67318676}},{"type":"Feature","id":7,"geometry":{"type":"Point","coordinates":[139.7593409000001,35.67058282000005]},"properties":{"OBJECTID":7,"name":"花信風","lon":139.75934090000001,"lat":35.67058282}},{"type":"Feature","id":8,"geometry":{"type":"Point","coordinates":[139.75215690000005,35.702408220000052]},"properties":{"OBJECTID":8,"name":"市場直送鮮魚×野菜巻き串個室工房 SHIORI 水道橋店","lon":139.75215689999999,"lat":35.702408220000002}},{"type":"Feature","id":9,"geometry":{"type":"Point","coordinates":[139.77419960000009,35.697906540000076]},"properties":{"OBJECTID":9,"name":"海底撈火鍋 秋葉原店","lon":139.7741996,"lat":35.697906539999998}},{"type":"Feature","id":10,"geometry":{"type":"Point","coordinates":[139.77126160000012,35.69017733000004]},"properties":{"OBJECTID":10,"name":"和バル ko iki コイキ 神田店","lon":139.7712616,"lat":35.690177329999997}},{"type":"Feature","id":11,"geometry":{"type":"Point","coordinates":[139.76023240000006,35.672767880000038]},"properties":{"OBJECTID":11,"name":"鶏のまるよし 有楽町日比谷店","lon":139.76023240000001,"lat":35.672767880000002}},{"type":"Feature","id":12,"geometry":{"type":"Point","coordinates":[139.77136460000008,35.691553280000051]},"properties":{"OBJECTID":12,"name":"四国郷土活性化 藁家88 神田店","lon":139.7713646,"lat":35.691553280000001}},{"type":"Feature","id":13,"geometry":{"type":"Point","coordinates":[139.77515810000011,35.698362340000074]},"properties":{"OBJECTID":13,"name":"仙台牛タンと肉寿司 政宗 秋葉原店","lon":139.7751581,"lat":35.698362340000003}},{"type":"Feature","id":14,"geometry":{"type":"Point","coordinates":[139.77190950000011,35.698790260000067]},"properties":{"OBJECTID":14,"name":"居酒屋 かまどか 秋葉原店","lon":139.77190949999999,"lat":35.698790260000003}},{"type":"Feature","id":15,"geometry":{"type":"Point","coordinates":[139.76507480000009,35.698709810000025]},"properties":{"OBJECTID":15,"name":"大衆IZAKAYAエイト 御茶ノ水店","lon":139.76507480000001,"lat":35.698709809999997}},{"type":"Feature","id":16,"geometry":{"type":"Point","coordinates":[139.75210690000006,35.701173630000028]},"properties":{"OBJECTID":16,"name":"厳選鍋 肉料理 個室居酒屋 水道橋飯店","lon":139.7521069,"lat":35.70117363}},{"type":"Feature","id":17,"geometry":{"type":"Point","coordinates":[139.78022090000002,35.695611960000065]},"properties":{"OBJECTID":17,"name":"本格中華 百味軒","lon":139.78022089999999,"lat":35.695611960000001}},{"type":"Feature","id":18,"geometry":{"type":"Point","coordinates":[139.76912750000008,35.691212710000059]},"properties":{"OBJECTID":18,"name":"【全席喫煙可】 韓国大衆酒場 手仕込み焼売 飲み放題 屋台酒場バッテン 神田西口店","lon":139.7691275,"lat":35.691212710000002}},{"type":"Feature","id":19,"geometry":{"type":"Point","coordinates":[139.76157220000005,35.673228970000025]},"properties":{"OBJECTID":19,"name":"ダイニングダーツバー Bee 有楽町店","lon":139.76157219999999,"lat":35.673228969999997}},{"type":"Feature","id":20,"geometry":{"type":"Point","coordinates":[139.75742050000008,35.697065900000041]},"properties":{"OBJECTID":20,"name":"各国わいんと蒸留酒酒場 わいん焼酎 208","lon":139.75742049999999,"lat":35.697065899999998}},{"type":"Feature","id":21,"geometry":{"type":"Point","coordinates":[139.76006270000005,35.672619280000049]},"properties":{"OBJECTID":21,"name":"完全個室居酒屋わらやき道場 有楽町日比谷店","lon":139.76006269999999,"lat":35.672619279999999}},{"type":"Feature","id":22,"geometry":{"type":"Point","coordinates":[139.74520220000011,35.701481470000033]},"properties":{"OBJECTID":22,"name":"祭酒場 飯田橋東口駅前店","lon":139.74520219999999,"lat":35.701481469999997}},{"type":"Feature","id":23,"geometry":{"type":"Point","coordinates":[139.77091080000002,35.690185930000041]},"properties":{"OBJECTID":23,"name":"北海 ホッカイ 神田店","lon":139.7709108,"lat":35.690185929999998}},{"type":"Feature","id":24,"geometry":{"type":"Point","coordinates":[139.77168350000011,35.690298430000041]},"properties":{"OBJECTID":24,"name":"個室居酒屋 神田 ゑびす屋","lon":139.77168349999999,"lat":35.690298429999999}},{"type":"Feature","id":25,"geometry":{"type":"Point","coordinates":[139.77448790000005,35.697650180000039]},"properties":{"OBJECTID":25,"name":"Darts UP ダーツ アップ 秋葉原","lon":139.7744879,"lat":35.697650179999997}},{"type":"Feature","id":26,"geometry":{"type":"Point","coordinates":[139.76503120000007,35.676627290000056]},"properties":{"OBJECTID":26,"name":"三九厨房 有楽町店","lon":139.76503120000001,"lat":35.676627289999999}},{"type":"Feature","id":27,"geometry":{"type":"Point","coordinates":[139.77090600000008,35.691358570000034]},"properties":{"OBJECTID":27,"name":"焼肉 神田精肉店","lon":139.770906,"lat":35.691358569999998}},{"type":"Feature","id":28,"geometry":{"type":"Point","coordinates":[139.76053170000012,35.673838600000067]},"properties":{"OBJECTID":28,"name":"仙台牛タンと肉寿司 政宗 有楽町店","lon":139.7605317,"lat":35.673838600000003}},{"type":"Feature","id":29,"geometry":{"type":"Point","coordinates":[139.7660125000001,35.69100209000004]},"properties":{"OBJECTID":29,"name":"個室居酒屋 作 ZAKU 神田本店","lon":139.76601249999999,"lat":35.691002089999998}},{"type":"Feature","id":30,"geometry":{"type":"Point","coordinates":[139.75208580000003,35.701444990000027]},"properties":{"OBJECTID":30,"name":"居酒屋 炭次郎酒場 水道橋店","lon":139.7520858,"lat":35.701444989999999}},{"type":"Feature","id":31,"geometry":{"type":"Point","coordinates":[139.76089920000004,35.694768200000055]},"properties":{"OBJECTID":31,"name":"BISTRO Kuu ビストロ クウ","lon":139.76089920000001,"lat":35.694768199999999}},{"type":"Feature","id":32,"geometry":{"type":"Point","coordinates":[139.77445850000004,35.697845720000032]},"properties":{"OBJECTID":32,"name":"元祖牛タン専門店 タン二郎 秋葉原店","lon":139.77445850000001,"lat":35.697845719999997}},{"type":"Feature","id":33,"geometry":{"type":"Point","coordinates":[139.76996610000003,35.691331610000077]},"properties":{"OBJECTID":33,"name":"肉と魚の日本酒酒場 あんず 神田本店","lon":139.7699661,"lat":35.691331609999999}},{"type":"Feature","id":34,"geometry":{"type":"Point","coordinates":[139.75229460000003,35.701865500000054]},"properties":{"OBJECTID":34,"name":"大衆個室居酒屋 鮮丸 水道橋東京ドーム店","lon":139.7522946,"lat":35.701865499999997}},{"type":"Feature","id":35,"geometry":{"type":"Point","coordinates":[139.73527100000001,35.689178690000062]},"properties":{"OBJECTID":35,"name":"Bistro Grill De salita 市ヶ谷店","lon":139.73527100000001,"lat":35.689178689999999}},{"type":"Feature","id":36,"geometry":{"type":"Point","coordinates":[139.77152670000009,35.698886350000066]},"properties":{"OBJECTID":36,"name":"完全個室 きんのだし 秋葉原店","lon":139.77152670000001,"lat":35.698886350000002}},{"type":"Feature","id":37,"geometry":{"type":"Point","coordinates":[139.77019580000001,35.691145800000072]},"properties":{"OBJECTID":37,"name":"三代目鳥メロ 神田西口駅前店","lon":139.77019580000001,"lat":35.691145800000001}},{"type":"Feature","id":38,"geometry":{"type":"Point","coordinates":[139.75409150000007,35.701140630000054]},"properties":{"OBJECTID":38,"name":"肉&ワイン カジュアルフレンチ ビストロユウ 水道橋","lon":139.75409149999999,"lat":35.701140629999998}},{"type":"Feature","id":39,"geometry":{"type":"Point","coordinates":[139.75782660000004,35.695896600000026]},"properties":{"OBJECTID":39,"name":"KOREAN DINING チョゴリ 韓国料理","lon":139.75782659999999,"lat":35.695896599999998}},{"type":"Feature","id":40,"geometry":{"type":"Point","coordinates":[139.77840390000006,35.698607680000066]},"properties":{"OBJECTID":40,"name":"個室肉バル ミートガーデン 秋葉原店","lon":139.7784039,"lat":35.698607680000002}},{"type":"Feature","id":41,"geometry":{"type":"Point","coordinates":[139.76175780000005,35.673186760000078]},"properties":{"OBJECTID":41,"name":"創作和食 匠 有楽町店","lon":139.7617578,"lat":35.67318676}},{"type":"Feature","id":42,"geometry":{"type":"Point","coordinates":[139.76134230000002,35.677720130000068]},"properties":{"OBJECTID":42,"name":"土鍋炊ごはん なかよし 有楽町店","lon":139.7613423,"lat":35.677720129999997}},{"type":"Feature","id":43,"geometry":{"type":"Point","coordinates":[139.76158890000011,35.673262300000033]},"properties":{"OBJECTID":43,"name":"楽蔵 うたげ 銀座 有楽町駅前店","lon":139.76158889999999,"lat":35.673262299999998}},{"type":"Feature","id":44,"geometry":{"type":"Point","coordinates":[139.77019470000005,35.691153580000048]},"properties":{"OBJECTID":44,"name":"肉と日本酒 いぶり 神田西口店","lon":139.77019469999999,"lat":35.691153579999998}},{"type":"Feature","id":45,"geometry":{"type":"Point","coordinates":[139.76175780000005,35.673186760000078]},"properties":{"OBJECTID":45,"name":"まぐろ奉行とかに代官 有楽町店","lon":139.7617578,"lat":35.67318676}},{"type":"Feature","id":46,"geometry":{"type":"Point","coordinates":[139.77445850000004,35.697845720000032]},"properties":{"OBJECTID":46,"name":"食彩の房 秋葉原店","lon":139.77445850000001,"lat":35.697845719999997}},{"type":"Feature","id":47,"geometry":{"type":"Point","coordinates":[139.76996610000003,35.691259950000074]},"properties":{"OBJECTID":47,"name":"九州炭火酒場 ばってん 神田店","lon":139.7699661,"lat":35.691259950000003}},{"type":"Feature","id":48,"geometry":{"type":"Point","coordinates":[139.77449900000011,35.697721560000048]},"properties":{"OBJECTID":48,"name":"博多焼き鳥 野菜巻き 半蔵 秋葉原駅前店","lon":139.77449899999999,"lat":35.697721559999998}},{"type":"Feature","id":49,"geometry":{"type":"Point","coordinates":[139.77461180000012,35.69796376000005]},"properties":{"OBJECTID":49,"name":"楽蔵 RAKUZO 秋葉原駅前店","lon":139.7746118,"lat":35.69796376}},{"type":"Feature","id":50,"geometry":{"type":"Point","coordinates":[139.76006270000005,35.672619280000049]},"properties":{"OBJECTID":50,"name":"園庭京 有楽町本店","lon":139.76006269999999,"lat":35.672619279999999}},{"type":"Feature","id":51,"geometry":{"type":"Point","coordinates":[139.77161840000008,35.693107560000044]},"properties":{"OBJECTID":51,"name":"焼肉 宴会 焼肉酒場 2919 神田駅前","lon":139.77161839999999,"lat":35.693107560000001}},{"type":"Feature","id":52,"geometry":{"type":"Point","coordinates":[139.74608850000004,35.701228460000038]},"properties":{"OBJECTID":52,"name":"完全個室居酒屋 八鶴 飯田橋店","lon":139.74608850000001,"lat":35.701228460000003}},{"type":"Feature","id":53,"geometry":{"type":"Point","coordinates":[139.75284680000004,35.701345020000076]},"properties":{"OBJECTID":53,"name":"大衆IZAKAYAエイト 水道橋店","lon":139.75284679999999,"lat":35.701345019999998}},{"type":"Feature","id":54,"geometry":{"type":"Point","coordinates":[139.75226910000003,35.700705080000034]},"properties":{"OBJECTID":54,"name":"完全個室ダイニング サディの木 水道橋店","lon":139.75226910000001,"lat":35.700705079999999}},{"type":"Feature","id":55,"geometry":{"type":"Point","coordinates":[139.76660990000005,35.693160200000079]},"properties":{"OBJECTID":55,"name":"上海台所 神田店","lon":139.76660989999999,"lat":35.693160200000001}},{"type":"Feature","id":56,"geometry":{"type":"Point","coordinates":[139.76052060000006,35.673841370000048]},"properties":{"OBJECTID":56,"name":"完全個室居酒屋 ともしび 有楽町本店","lon":139.76052060000001,"lat":35.673841369999998}},{"type":"Feature","id":57,"geometry":{"type":"Point","coordinates":[139.76991520000001,35.691827100000069]},"properties":{"OBJECTID":57,"name":"ゴルフバー59 フィフティナイン","lon":139.76991520000001,"lat":35.691827099999998}},{"type":"Feature","id":58,"geometry":{"type":"Point","coordinates":[139.77519810000001,35.697768800000063]},"properties":{"OBJECTID":58,"name":"和牛＆海鮮居酒屋 炭焼き海鮮料理×黒毛和牛 焼牛-やきうし-離れ 秋葉原","lon":139.77519810000001,"lat":35.697768799999999}},{"type":"Feature","id":59,"geometry":{"type":"Point","coordinates":[139.76411010000004,35.698889210000061]},"properties":{"OBJECTID":59,"name":"御茶ノ水 和食 天 TEN","lon":139.76411010000001,"lat":35.698889209999997}},{"type":"Feature","id":60,"geometry":{"type":"Point","coordinates":[139.76125060000004,35.673032590000048]},"properties":{"OBJECTID":60,"name":"にくと魚 有楽町日比谷店","lon":139.76125060000001,"lat":35.673032589999998}},{"type":"Feature","id":61,"geometry":{"type":"Point","coordinates":[139.75403530000006,35.701337000000024]},"properties":{"OBJECTID":61,"name":"それゆけ!鶏ヤロー! 水道橋店","lon":139.7540353,"lat":35.701337000000002}},{"type":"Feature","id":62,"geometry":{"type":"Point","coordinates":[139.76080910000007,35.696366900000044]},"properties":{"OBJECTID":62,"name":"焼肉あきら 漸","lon":139.76080909999999,"lat":35.696366900000001}},{"type":"Feature","id":63,"geometry":{"type":"Point","coordinates":[139.74620850000008,35.700953770000069]},"properties":{"OBJECTID":63,"name":"野菜串巻き&肉寿司 全席個室 飯田橋邸","lon":139.74620849999999,"lat":35.700953769999998}},{"type":"Feature","id":64,"geometry":{"type":"Point","coordinates":[139.77174570000011,35.690705060000028]},"properties":{"OBJECTID":64,"name":"楽蔵 RAKUZO 神田駅前店","lon":139.7717457,"lat":35.690705059999999}},{"type":"Feature","id":65,"geometry":{"type":"Point","coordinates":[139.77068480000003,35.692695920000062]},"properties":{"OBJECTID":65,"name":"2000円 食べ放題飲み放題 居酒屋 おすすめ屋 神田秋葉原店","lon":139.7706848,"lat":35.692695919999998}},{"type":"Feature","id":66,"geometry":{"type":"Point","coordinates":[139.77060510000001,35.692484550000074]},"properties":{"OBJECTID":66,"name":"串カツ あらた 神田駅前店","lon":139.77060510000001,"lat":35.692484550000003}},{"type":"Feature","id":67,"geometry":{"type":"Point","coordinates":[139.74636820000012,35.701125430000047]},"properties":{"OBJECTID":67,"name":"串ごろ 飯田橋店","lon":139.74636820000001,"lat":35.701125429999998}},{"type":"Feature","id":68,"geometry":{"type":"Point","coordinates":[139.74525030000007,35.701537570000028]},"properties":{"OBJECTID":68,"name":"個室居酒屋 酔ってこい 飯田橋本店","lon":139.74525030000001,"lat":35.701537569999999}},{"type":"Feature","id":69,"geometry":{"type":"Point","coordinates":[139.76047340000002,35.672893420000037]},"properties":{"OBJECTID":69,"name":"炭家 有楽町日比谷店","lon":139.7604734,"lat":35.672893420000001}},{"type":"Feature","id":70,"geometry":{"type":"Point","coordinates":[139.77454240000009,35.697801560000073]},"properties":{"OBJECTID":70,"name":"和ノ音 wanone 秋葉原駅前店","lon":139.7745424,"lat":35.697801560000002}},{"type":"Feature","id":71,"geometry":{"type":"Point","coordinates":[139.76439520000008,35.682588270000053]},"properties":{"OBJECTID":71,"name":"海鮮居酒屋 Luv Fish? 東京","lon":139.7643952,"lat":35.682588269999997}},{"type":"Feature","id":72,"geometry":{"type":"Point","coordinates":[139.77641000000006,35.697982420000073]},"properties":{"OBJECTID":72,"name":"うお炭 uozumi 秋葉原店","lon":139.77641,"lat":35.697982420000002}},{"type":"Feature","id":73,"geometry":{"type":"Point","coordinates":[139.77461180000012,35.697687680000058]},"properties":{"OBJECTID":73,"name":"扉付き個室居酒屋　博多野菜巻き串と朝獲れ鮮魚　 福丸　秋葉原駅前店","lon":139.7746118,"lat":35.697687680000001}},{"type":"Feature","id":74,"geometry":{"type":"Point","coordinates":[139.76228470000001,35.679330530000072]},"properties":{"OBJECTID":74,"name":"アリスアクアガーデン Alice aqua garden 丸の内店","lon":139.76228470000001,"lat":35.679330530000001}},{"type":"Feature","id":75,"geometry":{"type":"Point","coordinates":[139.76130440000009,35.696170000000052]},"properties":{"OBJECTID":75,"name":"激安酒場 座135 神田神保町店","lon":139.7613044,"lat":35.696170000000002}},{"type":"Feature","id":76,"geometry":{"type":"Point","coordinates":[139.74544000000003,35.699453370000072]},"properties":{"OBJECTID":76,"name":"肉&生ハム 隠れ家バル ボノボ 飯田橋","lon":139.74544,"lat":35.699453370000001}},{"type":"Feature","id":77,"geometry":{"type":"Point","coordinates":[139.76174560000004,35.673202590000074]},"properties":{"OBJECTID":77,"name":"奥羽本荘 有楽町店","lon":139.76174560000001,"lat":35.673202590000002}},{"type":"Feature","id":78,"geometry":{"type":"Point","coordinates":[139.76049180000007,35.673011190000068]},"properties":{"OBJECTID":78,"name":"日和 有楽町店","lon":139.76049180000001,"lat":35.673011189999997}},{"type":"Feature","id":79,"geometry":{"type":"Point","coordinates":[139.75701410000011,35.697526120000077]},"properties":{"OBJECTID":79,"name":"座楽 神保町店","lon":139.75701409999999,"lat":35.697526119999999}},{"type":"Feature","id":80,"geometry":{"type":"Point","coordinates":[139.76037150000002,35.672880920000068]},"properties":{"OBJECTID":80,"name":"個室居酒屋 海神の後楽園 有楽町店","lon":139.76037149999999,"lat":35.672880919999997}},{"type":"Feature","id":81,"geometry":{"type":"Point","coordinates":[139.76592890000006,35.698982860000058]},"properties":{"OBJECTID":81,"name":"サイアムセラドン 御茶ノ水ソラシティ店","lon":139.76592890000001,"lat":35.698982860000001}},{"type":"Feature","id":82,"geometry":{"type":"Point","coordinates":[139.7449908000001,35.701027620000048]},"properties":{"OBJECTID":82,"name":"錦記香港居酒屋 ","lon":139.74499080000001,"lat":35.701027619999998}},{"type":"Feature","id":83,"geometry":{"type":"Point","coordinates":[139.77598390000003,35.698426530000063]},"properties":{"OBJECTID":83,"name":"やきとん酒場 秋葉原 とら八","lon":139.7759839,"lat":35.698426529999999}},{"type":"Feature","id":84,"geometry":{"type":"Point","coordinates":[139.77032960000008,35.692480930000045]},"properties":{"OBJECTID":84,"name":"関西風料理と焼鳥 居酒屋 おおきに","lon":139.7703296,"lat":35.692480930000002}},{"type":"Feature","id":85,"geometry":{"type":"Point","coordinates":[139.76957640000012,35.69102330000004]},"properties":{"OBJECTID":85,"name":"焼き鳥職人 炭 神田本店","lon":139.76957640000001,"lat":35.691023299999998}},{"type":"Feature","id":86,"geometry":{"type":"Point","coordinates":[139.76028930000007,35.672828150000043]},"properties":{"OBJECTID":86,"name":"吉蔵 有楽町日比谷店","lon":139.76028930000001,"lat":35.672828150000001}},{"type":"Feature","id":87,"geometry":{"type":"Point","coordinates":[139.77445850000004,35.697845720000032]},"properties":{"OBJECTID":87,"name":"創作和食個室居酒屋 龍の屋 秋葉原店","lon":139.77445850000001,"lat":35.697845719999997}},{"type":"Feature","id":88,"geometry":{"type":"Point","coordinates":[139.76471480000009,35.679846920000045]},"properties":{"OBJECTID":88,"name":"炭焼 寿し処 くし路 KITTE丸の内店","lon":139.76471480000001,"lat":35.679846920000003}},{"type":"Feature","id":89,"geometry":{"type":"Point","coordinates":[139.76053170000012,35.673838600000067]},"properties":{"OBJECTID":89,"name":"串焼きと野菜巻き 串治郎 有楽町店","lon":139.7605317,"lat":35.673838600000003}},{"type":"Feature","id":90,"geometry":{"type":"Point","coordinates":[139.76175780000005,35.673186760000078]},"properties":{"OBJECTID":90,"name":"旨い九州料理と全席個室居酒屋 九州蔵 くすぞう 有楽町店","lon":139.7617578,"lat":35.67318676}},{"type":"Feature","id":91,"geometry":{"type":"Point","coordinates":[139.77144820000001,35.691532180000024]},"properties":{"OBJECTID":91,"name":"さかながはねて 神田店","lon":139.77144820000001,"lat":35.691532180000003}},{"type":"Feature","id":92,"geometry":{"type":"Point","coordinates":[139.77236230000005,35.703159510000035]},"properties":{"OBJECTID":92,"name":"ハワイアンリゾートダイニング Waikiki ワイキキ 秋葉原店","lon":139.7723623,"lat":35.703159509999999}},{"type":"Feature","id":93,"geometry":{"type":"Point","coordinates":[139.76094420000004,35.673581970000043]},"properties":{"OBJECTID":93,"name":"三代目鳥メロ 有楽町日比谷口店","lon":139.76094420000001,"lat":35.673581970000001}},{"type":"Feature","id":94,"geometry":{"type":"Point","coordinates":[139.77513620000002,35.698372900000038]},"properties":{"OBJECTID":94,"name":"魚縁 GYOEN 秋葉原店","lon":139.77513619999999,"lat":35.698372900000003}},{"type":"Feature","id":95,"geometry":{"type":"Point","coordinates":[139.74712650000004,35.700461910000058]},"properties":{"OBJECTID":95,"name":"大衆和牛酒場 コンロ家 飯田橋店","lon":139.74712650000001,"lat":35.700461910000001}},{"type":"Feature","id":96,"geometry":{"type":"Point","coordinates":[139.76691490000007,35.678031910000072]},"properties":{"OBJECTID":96,"name":"東京ビアパラダイス Tokyo Beer Paradise by Primus トーキョー ビア パラダイス バイ プリムス","lon":139.76691489999999,"lat":35.678031910000001}},{"type":"Feature","id":97,"geometry":{"type":"Point","coordinates":[139.77381570000011,35.698068730000045]},"properties":{"OBJECTID":97,"name":"個室Dining 新荘園 SHINSOUEN","lon":139.7738157,"lat":35.698068730000003}},{"type":"Feature","id":98,"geometry":{"type":"Point","coordinates":[139.75026070000001,35.70109165000008]},"properties":{"OBJECTID":98,"name":"SPHINX EGYPTIAN RESTAURANT スフィンクス エジプティアン レストラン","lon":139.75026070000001,"lat":35.701091650000002}},{"type":"Feature","id":99,"geometry":{"type":"Point","coordinates":[139.76006270000005,35.672619280000049]},"properties":{"OBJECTID":99,"name":"ハイボール酒場 串焼道場 有楽町日比谷店","lon":139.76006269999999,"lat":35.672619279999999}},{"type":"Feature","id":100,"geometry":{"type":"Point","coordinates":[139.76010320000012,35.672421800000052]},"properties":{"OBJECTID":100,"name":"LOBOS ロボス 日比谷店","lon":139.7601032,"lat":35.672421800000002}},{"type":"Feature","id":101,"geometry":{"type":"Point","coordinates":[139.76010320000012,35.672421800000052]},"properties":{"OBJECTID":101,"name":"LOBOS ロボス 日比谷店","lon":139.7601032,"lat":35.672421800000002}},{"type":"Feature","id":102,"geometry":{"type":"Point","coordinates":[139.7721944000001,35.692512640000075]},"properties":{"OBJECTID":102,"name":"鮮選酒場 あられ屋 神田本店","lon":139.77219439999999,"lat":35.692512639999997}},{"type":"Feature","id":103,"geometry":{"type":"Point","coordinates":[139.76079620000007,35.693320300000039]},"properties":{"OBJECTID":103,"name":"グッドモーニングカフェ GOOD MORNING CAFE 神田錦町","lon":139.76079619999999,"lat":35.693320300000003}},{"type":"Feature","id":104,"geometry":{"type":"Point","coordinates":[139.76175780000005,35.673186760000078]},"properties":{"OBJECTID":104,"name":"海鮮料理と完全個室居酒屋 あばれ鮮魚 有楽町店","lon":139.7617578,"lat":35.67318676}},{"type":"Feature","id":105,"geometry":{"type":"Point","coordinates":[139.74622240000008,35.700956000000076]},"properties":{"OBJECTID":105,"name":"土間土間 飯田橋東口店","lon":139.74622239999999,"lat":35.700955999999998}},{"type":"Feature","id":106,"geometry":{"type":"Point","coordinates":[139.76006270000005,35.672619280000049]},"properties":{"OBJECTID":106,"name":"完全個室 鮮魚と信州蕎麦 二代目八兵衛 有楽町本店","lon":139.76006269999999,"lat":35.672619279999999}},{"type":"Feature","id":107,"geometry":{"type":"Point","coordinates":[139.76439520000008,35.682588270000053]},"properties":{"OBJECTID":107,"name":"Koko Head cafe ココヘッドカフェ","lon":139.7643952,"lat":35.682588269999997}},{"type":"Feature","id":108,"geometry":{"type":"Point","coordinates":[139.77257200000008,35.690466220000076]},"properties":{"OBJECTID":108,"name":"大衆韓国居酒屋チュルギダ　GEMS新日本橋 神田店","lon":139.772572,"lat":35.690466219999998}},{"type":"Feature","id":109,"geometry":{"type":"Point","coordinates":[139.76175780000005,35.673186760000078]},"properties":{"OBJECTID":109,"name":"北の大地 有楽町店","lon":139.7617578,"lat":35.67318676}},{"type":"Feature","id":110,"geometry":{"type":"Point","coordinates":[139.77461180000012,35.69768657000003]},"properties":{"OBJECTID":110,"name":"博多野菜巻き串・熊本馬刺し・九州料理 完全個室　薩摩日和　秋葉原店","lon":139.7746118,"lat":35.697686570000002}},{"type":"Feature","id":111,"geometry":{"type":"Point","coordinates":[139.77445850000004,35.697845720000032]},"properties":{"OBJECTID":111,"name":"肉問屋直営 国産和牛焼肉 牛若丸 秋葉原店","lon":139.77445850000001,"lat":35.697845719999997}},{"type":"Feature","id":112,"geometry":{"type":"Point","coordinates":[139.77160340000012,35.69772676000008]},"properties":{"OBJECTID":112,"name":"炉端とおでん 呼炉凪来 秋葉原店","lon":139.7716034,"lat":35.697726760000002}},{"type":"Feature","id":113,"geometry":{"type":"Point","coordinates":[139.76485460000004,35.684323370000072]},"properties":{"OBJECTID":113,"name":"土鍋炊ごはん　なかよし　丸の内 iiyo!!店","lon":139.76485460000001,"lat":35.684323370000001}},{"type":"Feature","id":114,"geometry":{"type":"Point","coordinates":[139.77011960000004,35.692265120000059]},"properties":{"OBJECTID":114,"name":"神田シーシャ WARP","lon":139.77011959999999,"lat":35.692265120000002}},{"type":"Feature","id":115,"geometry":{"type":"Point","coordinates":[139.76007160000006,35.672598720000053]},"properties":{"OBJECTID":115,"name":"魚馬る 有楽町店","lon":139.7600716,"lat":35.672598720000003}},{"type":"Feature","id":116,"geometry":{"type":"Point","coordinates":[139.77507950000006,35.697804070000075]},"properties":{"OBJECTID":116,"name":"個室居酒屋 サンイチマル","lon":139.7750795,"lat":35.697804069999997}},{"type":"Feature","id":117,"geometry":{"type":"Point","coordinates":[139.77141040000004,35.691497460000051]},"properties":{"OBJECTID":117,"name":"鉄板ビストロ シーフードバンク GOCHI","lon":139.77141040000001,"lat":35.691497460000001}},{"type":"Feature","id":118,"geometry":{"type":"Point","coordinates":[139.76021650000007,35.67267927000006]},"properties":{"OBJECTID":118,"name":"トロ政 有楽町日比谷店","lon":139.76021650000001,"lat":35.672679270000003}},{"type":"Feature","id":119,"geometry":{"type":"Point","coordinates":[139.75570490000007,35.701062350000029]},"properties":{"OBJECTID":119,"name":"焼肉ストーリー 水道橋店","lon":139.75570490000001,"lat":35.701062350000001}},{"type":"Feature","id":120,"geometry":{"type":"Point","coordinates":[139.77477570000008,35.698359830000072]},"properties":{"OBJECTID":120,"name":"四十八漁場 秋葉原昭和通り口店","lon":139.77477569999999,"lat":35.698359830000001}},{"type":"Feature","id":121,"geometry":{"type":"Point","coordinates":[139.76542440000003,35.68701808000003]},"properties":{"OBJECTID":121,"name":"よね蔵 東京サンケイビル店","lon":139.7654244,"lat":35.687018080000001}},{"type":"Feature","id":122,"geometry":{"type":"Point","coordinates":[139.75873290000004,35.66974429000004]},"properties":{"OBJECTID":122,"name":"Trattoria・La・Puglia（トラットリア・ラ・プーリア）　日比谷OKUROJI店","lon":139.75873290000001,"lat":35.669744289999997}},{"type":"Feature","id":123,"geometry":{"type":"Point","coordinates":[139.77068480000003,35.692695920000062]},"properties":{"OBJECTID":123,"name":"2000円 食べ放題飲み放題 居酒屋 おすすめ屋 神田店","lon":139.7706848,"lat":35.692695919999998}},{"type":"Feature","id":124,"geometry":{"type":"Point","coordinates":[139.76889700000004,35.691813470000056]},"properties":{"OBJECTID":124,"name":"飛騨牛×鮮魚と地酒 モダン個室　和食のふるさと　神田総本店","lon":139.76889700000001,"lat":35.69181347}},{"type":"Feature","id":125,"geometry":{"type":"Point","coordinates":[139.76125060000004,35.673032590000048]},"properties":{"OBJECTID":125,"name":"国産牛タンと三陸牡蠣 いっすい 有楽町日比谷店","lon":139.76125060000001,"lat":35.673032589999998}},{"type":"Feature","id":126,"geometry":{"type":"Point","coordinates":[139.77145130000008,35.697390960000064]},"properties":{"OBJECTID":126,"name":"居酒屋 焼肉 甘太郎 秋葉原店","lon":139.7714513,"lat":35.69739096}},{"type":"Feature","id":127,"geometry":{"type":"Point","coordinates":[139.77507810000009,35.697936000000027]},"properties":{"OBJECTID":127,"name":"個室UMIバル×肉酒場 310 秋葉原店","lon":139.7750781,"lat":35.697935999999999}},{"type":"Feature","id":128,"geometry":{"type":"Point","coordinates":[139.77121510000006,35.690866140000026]},"properties":{"OBJECTID":128,"name":"星夜の宴 神田駅前店","lon":139.77121510000001,"lat":35.690866139999997}},{"type":"Feature","id":129,"geometry":{"type":"Point","coordinates":[139.74620850000008,35.700953770000069]},"properties":{"OBJECTID":129,"name":"薩摩隼人 飯田橋店","lon":139.74620849999999,"lat":35.700953769999998}},{"type":"Feature","id":130,"geometry":{"type":"Point","coordinates":[139.7521091000001,35.701156690000062]},"properties":{"OBJECTID":130,"name":"個室居酒屋 東京小町 水道橋西口","lon":139.75210910000001,"lat":35.701156689999998}},{"type":"Feature","id":131,"geometry":{"type":"Point","coordinates":[139.77515810000011,35.698362340000074]},"properties":{"OBJECTID":131,"name":"串焼きと野菜巻き 串治郎 秋葉原店","lon":139.7751581,"lat":35.698362340000003}},{"type":"Feature","id":132,"geometry":{"type":"Point","coordinates":[139.77955190000011,35.693021400000077]},"properties":{"OBJECTID":132,"name":"中華居酒屋 貴族 岩本町店","lon":139.7795519,"lat":35.693021399999999}},{"type":"Feature","id":133,"geometry":{"type":"Point","coordinates":[139.76005020000002,35.672618440000065]},"properties":{"OBJECTID":133,"name":"地鶏専門店 いいとこ鷄 有楽町店","lon":139.76005019999999,"lat":35.672618440000001}},{"type":"Feature","id":134,"geometry":{"type":"Point","coordinates":[139.74620850000008,35.700953770000069]},"properties":{"OBJECTID":134,"name":"匠焼き鳥&匠焼きトン 串焼き専門店 暖簾 飯田橋店","lon":139.74620849999999,"lat":35.700953769999998}},{"type":"Feature","id":135,"geometry":{"type":"Point","coordinates":[139.76175780000005,35.673186760000078]},"properties":{"OBJECTID":135,"name":"串ばってん 有楽町店","lon":139.7617578,"lat":35.67318676}},{"type":"Feature","id":136,"geometry":{"type":"Point","coordinates":[139.74562530000003,35.699467260000063]},"properties":{"OBJECTID":136,"name":"はかた商店 飯田橋西口店","lon":139.7456253,"lat":35.699467259999999}},{"type":"Feature","id":137,"geometry":{"type":"Point","coordinates":[139.75256180000008,35.701641370000061]},"properties":{"OBJECTID":137,"name":"シュラスコ×肉寿司　個室居酒屋　肉丸酒場　水道橋店","lon":139.7525618,"lat":35.701641369999997}},{"type":"Feature","id":138,"geometry":{"type":"Point","coordinates":[139.76033700000005,35.694989270000065]},"properties":{"OBJECTID":138,"name":"黒毛和牛とホルモン 神保焼肉料理店","lon":139.76033699999999,"lat":35.694989270000001}},{"type":"Feature","id":139,"geometry":{"type":"Point","coordinates":[139.74721180000006,35.700392200000067]},"properties":{"OBJECTID":139,"name":"巻きの助 飯田橋店","lon":139.7472118,"lat":35.700392200000003}},{"type":"Feature","id":140,"geometry":{"type":"Point","coordinates":[139.74551530000008,35.699445590000039]},"properties":{"OBJECTID":140,"name":"原価ビストロBAN! 飯田橋","lon":139.74551529999999,"lat":35.699445590000003}},{"type":"Feature","id":141,"geometry":{"type":"Point","coordinates":[139.76157220000005,35.673228970000025]},"properties":{"OBJECTID":141,"name":"ウメ子の家 銀座 有楽町駅前店","lon":139.76157219999999,"lat":35.673228969999997}},{"type":"Feature","id":142,"geometry":{"type":"Point","coordinates":[139.75214070000004,35.702376000000072]},"properties":{"OBJECTID":142,"name":"栞 水道橋駅前店","lon":139.75214070000001,"lat":35.702376000000001}},{"type":"Feature","id":143,"geometry":{"type":"Point","coordinates":[139.76053170000012,35.673838600000067]},"properties":{"OBJECTID":143,"name":"たん兵衛 有楽町総本店","lon":139.7605317,"lat":35.673838600000003}},{"type":"Feature","id":144,"geometry":{"type":"Point","coordinates":[139.77010410000003,35.690959980000059]},"properties":{"OBJECTID":144,"name":"レモンサワー50円　串焼き＆焼き鳥　大衆居酒屋　飲み放題　ちから　神田店","lon":139.7701041,"lat":35.690959980000002}},{"type":"Feature","id":145,"geometry":{"type":"Point","coordinates":[139.75934570000004,35.694807320000052]},"properties":{"OBJECTID":145,"name":"オステリア ラウロ Osteria Lauro 神保町","lon":139.75934570000001,"lat":35.694807320000002}},{"type":"Feature","id":146,"geometry":{"type":"Point","coordinates":[139.77073910000001,35.690010660000041]},"properties":{"OBJECTID":146,"name":"串焼 なかま","lon":139.77073909999999,"lat":35.690010659999999}},{"type":"Feature","id":147,"geometry":{"type":"Point","coordinates":[139.76006270000005,35.672619280000049]},"properties":{"OBJECTID":147,"name":"全席完全個室 名産日本酒と海鮮と寿司居酒屋 名物家 有楽町本店","lon":139.76006269999999,"lat":35.672619279999999}},{"type":"Feature","id":148,"geometry":{"type":"Point","coordinates":[139.75231660000009,35.701862730000073]},"properties":{"OBJECTID":148,"name":"肉バル 29DOME ニクドーム 水道橋店","lon":139.7523166,"lat":35.701862730000002}},{"type":"Feature","id":149,"geometry":{"type":"Point","coordinates":[139.76027240000008,35.672819810000078]},"properties":{"OBJECTID":149,"name":"燦々 有楽町日比谷店","lon":139.76027239999999,"lat":35.67281981}},{"type":"Feature","id":150,"geometry":{"type":"Point","coordinates":[139.77100350000012,35.691270250000059]},"properties":{"OBJECTID":150,"name":"神田の肉バル ランプキャップ RUMP CAP 神田店","lon":139.77100350000001,"lat":35.691270250000002}},{"type":"Feature","id":151,"geometry":{"type":"Point","coordinates":[139.77649770000005,35.698948700000074]},"properties":{"OBJECTID":151,"name":"陳家私菜 ちんかしさい 秋葉原店","lon":139.77649769999999,"lat":35.698948700000003}},{"type":"Feature","id":152,"geometry":{"type":"Point","coordinates":[139.75467340000012,35.700947890000066]},"properties":{"OBJECTID":152,"name":"がブリチキン 水道橋店","lon":139.7546734,"lat":35.700947890000002}},{"type":"Feature","id":153,"geometry":{"type":"Point","coordinates":[139.76092730000005,35.673591130000034]},"properties":{"OBJECTID":153,"name":"じぶんどき 有楽町日比谷店","lon":139.76092729999999,"lat":35.673591129999998}},{"type":"Feature","id":154,"geometry":{"type":"Point","coordinates":[139.77459010000007,35.69796376000005]},"properties":{"OBJECTID":154,"name":"ウメ子の家 秋葉原駅前店","lon":139.77459010000001,"lat":35.69796376}},{"type":"Feature","id":155,"geometry":{"type":"Point","coordinates":[139.74608850000004,35.701228460000038]},"properties":{"OBJECTID":155,"name":"完全個室居酒屋 鮮丸 飯田橋店","lon":139.74608850000001,"lat":35.701228460000003}},{"type":"Feature","id":156,"geometry":{"type":"Point","coordinates":[139.77456460000008,35.697954320000065]},"properties":{"OBJECTID":156,"name":"十勝石狩函館 秋葉原駅前店","lon":139.77456459999999,"lat":35.697954320000001}},{"type":"Feature","id":157,"geometry":{"type":"Point","coordinates":[139.77039690000004,35.689755410000032]},"properties":{"OBJECTID":157,"name":"焼き鳥 きんざん 神田店","lon":139.77039690000001,"lat":35.689755409999997}},{"type":"Feature","id":158,"geometry":{"type":"Point","coordinates":[139.7713960000001,35.697305140000026]},"properties":{"OBJECTID":158,"name":"北海道 秋葉原店","lon":139.77139600000001,"lat":35.697305139999997}},{"type":"Feature","id":159,"geometry":{"type":"Point","coordinates":[139.75893570000005,35.696145210000054]},"properties":{"OBJECTID":159,"name":"シュラスコレストラン ALEGRIA Jimbocho アレグリア神保町","lon":139.75893569999999,"lat":35.696145209999997}},{"type":"Feature","id":160,"geometry":{"type":"Point","coordinates":[139.76892600000008,35.681554340000048]},"properties":{"OBJECTID":160,"name":"京都祇園 八坂圓堂 大丸東京店","lon":139.76892599999999,"lat":35.681554339999998}},{"type":"Feature","id":161,"geometry":{"type":"Point","coordinates":[139.77659610000012,35.698364880000042]},"properties":{"OBJECTID":161,"name":"鶏喜鶏喜 ちょきちょき 秋葉原店","lon":139.77659610000001,"lat":35.69836488}},{"type":"Feature","id":162,"geometry":{"type":"Point","coordinates":[139.76175780000005,35.673186760000078]},"properties":{"OBJECTID":162,"name":"国産地鶏と最高鮮度の海鮮 吟楽 有楽町店","lon":139.7617578,"lat":35.67318676}},{"type":"Feature","id":163,"geometry":{"type":"Point","coordinates":[139.76047340000002,35.672893420000037]},"properties":{"OBJECTID":163,"name":"居酒屋 栄 有楽町駅前店","lon":139.7604734,"lat":35.672893420000001}},{"type":"Feature","id":164,"geometry":{"type":"Point","coordinates":[139.77444930000001,35.697726290000048]},"properties":{"OBJECTID":164,"name":"韓国居酒屋 古里屋 秋葉原店","lon":139.77444929999999,"lat":35.697726289999999}},{"type":"Feature","id":165,"geometry":{"type":"Point","coordinates":[139.76052060000006,35.673841370000048]},"properties":{"OBJECTID":165,"name":"完全個室居酒屋 あかり 有楽町本店","lon":139.76052060000001,"lat":35.673841369999998}},{"type":"Feature","id":166,"geometry":{"type":"Point","coordinates":[139.74035360000005,35.691727990000061]},"properties":{"OBJECTID":166,"name":"和食処 いと家","lon":139.74035359999999,"lat":35.691727989999997}},{"type":"Feature","id":167,"geometry":{"type":"Point","coordinates":[139.77445850000004,35.697845720000032]},"properties":{"OBJECTID":167,"name":"はなこま 秋葉原店","lon":139.77445850000001,"lat":35.697845719999997}},{"type":"Feature","id":168,"geometry":{"type":"Point","coordinates":[139.76175780000005,35.673186760000078]},"properties":{"OBJECTID":168,"name":"まぐろ奉行とかに代官 有楽町店","lon":139.7617578,"lat":35.67318676}},{"type":"Feature","id":169,"geometry":{"type":"Point","coordinates":[139.7613348000001,35.69162440000008]},"properties":{"OBJECTID":169,"name":"呑み処 明日食","lon":139.76133479999999,"lat":35.691624400000002}},{"type":"Feature","id":170,"geometry":{"type":"Point","coordinates":[139.76976890000003,35.682305390000067]},"properties":{"OBJECTID":170,"name":"しゃぶしゃぶ会席 おもき 東京駅八重洲店","lon":139.7697689,"lat":35.682305390000003}},{"type":"Feature","id":171,"geometry":{"type":"Point","coordinates":[139.74804470000004,35.70122463000007]},"properties":{"OBJECTID":171,"name":"ダイニングバー Rupo ルポ 飯田橋","lon":139.74804470000001,"lat":35.701224629999999}},{"type":"Feature","id":172,"geometry":{"type":"Point","coordinates":[139.7522858000001,35.70074285000004]},"properties":{"OBJECTID":172,"name":"80円焼鳥 信長 水道橋店","lon":139.75228580000001,"lat":35.700742849999997}},{"type":"Feature","id":173,"geometry":{"type":"Point","coordinates":[139.75231410000004,35.701856060000068]},"properties":{"OBJECTID":173,"name":"紬 つむぎ 水道橋東京ドーム店","lon":139.75231410000001,"lat":35.701856059999997}},{"type":"Feature","id":174,"geometry":{"type":"Point","coordinates":[139.73545400000012,35.690382170000078]},"properties":{"OBJECTID":174,"name":"琉球酒場 げん","lon":139.735454,"lat":35.690382169999999}},{"type":"Feature","id":175,"geometry":{"type":"Point","coordinates":[139.7746082000001,35.697657960000072]},"properties":{"OBJECTID":175,"name":"古民家個室と九州料理 薩摩日和 秋葉原店","lon":139.77460819999999,"lat":35.697657960000001}},{"type":"Feature","id":176,"geometry":{"type":"Point","coordinates":[139.74636820000012,35.701125430000047]},"properties":{"OBJECTID":176,"name":"九州蔵 くすぞう 飯田橋店","lon":139.74636820000001,"lat":35.701125429999998}},{"type":"Feature","id":177,"geometry":{"type":"Point","coordinates":[139.77067850000003,35.69268814000003]},"properties":{"OBJECTID":177,"name":"焼鳥食べ放題 乾杯500酒場 神田店","lon":139.7706785,"lat":35.692688140000001}},{"type":"Feature","id":178,"geometry":{"type":"Point","coordinates":[139.76027240000008,35.672819810000078]},"properties":{"OBJECTID":178,"name":"個室で味わう肉寿司と各地の銘酒 オサケと肉 有楽町駅前店","lon":139.76027239999999,"lat":35.67281981}},{"type":"Feature","id":179,"geometry":{"type":"Point","coordinates":[139.78014740000003,35.698812700000076]},"properties":{"OBJECTID":179,"name":"BBQ &シュラスコ食べ放題トロ 秋葉原店","lon":139.7801474,"lat":35.698812699999998}},{"type":"Feature","id":180,"geometry":{"type":"Point","coordinates":[139.76175780000005,35.673186760000078]},"properties":{"OBJECTID":180,"name":"個室居酒屋 なまいき 有楽町店","lon":139.7617578,"lat":35.67318676}},{"type":"Feature","id":181,"geometry":{"type":"Point","coordinates":[139.75191860000007,35.701594970000031]},"properties":{"OBJECTID":181,"name":"鮮魚と牛タン自慢!食べ飲み放題2980円\uFF5E!!喫煙OK個室居酒屋 道らく 東京ドーム水道橋","lon":139.75191860000001,"lat":35.701594970000002}},{"type":"Feature","id":182,"geometry":{"type":"Point","coordinates":[139.76023240000006,35.672767880000038]},"properties":{"OBJECTID":182,"name":"たんじろう 有楽町日比谷店","lon":139.76023240000001,"lat":35.672767880000002}},{"type":"Feature","id":183,"geometry":{"type":"Point","coordinates":[139.74620850000008,35.700953770000069]},"properties":{"OBJECTID":183,"name":"和風個室居酒屋 京おでん 土鍋ご飯 お蕎麦 うのたくみ 飯田橋店","lon":139.74620849999999,"lat":35.700953769999998}},{"type":"Feature","id":184,"geometry":{"type":"Point","coordinates":[139.74525030000007,35.701537570000028]},"properties":{"OBJECTID":184,"name":"焼き鳥 地鶏専門店 居酒屋 鳥びと 飯田橋本店","lon":139.74525030000001,"lat":35.701537569999999}},{"type":"Feature","id":185,"geometry":{"type":"Point","coordinates":[139.76037150000002,35.672880920000068]},"properties":{"OBJECTID":185,"name":"大衆居酒屋 達磨酒場 有楽町店","lon":139.76037149999999,"lat":35.672880919999997}},{"type":"Feature","id":186,"geometry":{"type":"Point","coordinates":[139.77212920000011,35.698756110000033]},"properties":{"OBJECTID":186,"name":"全席個室 じぶんどき 秋葉原駅前店","lon":139.77212919999999,"lat":35.698756109999998}},{"type":"Feature","id":187,"geometry":{"type":"Point","coordinates":[139.77519310000002,35.697842680000065]},"properties":{"OBJECTID":187,"name":"焼肉居酒屋 焼牛 Yakiushi 秋葉原","lon":139.7751931,"lat":35.697842680000001}},{"type":"Feature","id":188,"geometry":{"type":"Point","coordinates":[139.76882460000002,35.68127743000008]},"properties":{"OBJECTID":188,"name":"サイアムセラドン東京 鉄鋼ビル店","lon":139.76882459999999,"lat":35.681277430000002}},{"type":"Feature","id":189,"geometry":{"type":"Point","coordinates":[139.77189590000012,35.698848590000068]},"properties":{"OBJECTID":189,"name":"北海道 秋葉原電気街北口店","lon":139.7718959,"lat":35.698848589999997}},{"type":"Feature","id":190,"geometry":{"type":"Point","coordinates":[139.7736407000001,35.698518400000069]},"properties":{"OBJECTID":190,"name":"居酒屋革命 酔っ手羽 ヨドバシ Akiba店","lon":139.77364069999999,"lat":35.698518399999998}},{"type":"Feature","id":191,"geometry":{"type":"Point","coordinates":[139.75232960000005,35.701978550000035]},"properties":{"OBJECTID":191,"name":"水道橋商店 水道橋駅前店","lon":139.7523296,"lat":35.70197855}},{"type":"Feature","id":192,"geometry":{"type":"Point","coordinates":[139.74336990000006,35.699392210000042]},"properties":{"OBJECTID":192,"name":"Mancher Kitchen マンチャーキッチン 飯田橋店","lon":139.7433699,"lat":35.699392209999999}},{"type":"Feature","id":193,"geometry":{"type":"Point","coordinates":[139.73523770000008,35.689161470000045]},"properties":{"OBJECTID":193,"name":"出汁しゃぶ おばんざい おかか 市ヶ谷","lon":139.7352377,"lat":35.689161470000002}},{"type":"Feature","id":194,"geometry":{"type":"Point","coordinates":[139.77092440000001,35.69555366000003]},"properties":{"OBJECTID":194,"name":"FURON SAIKAN 福龍菜館ー","lon":139.77092440000001,"lat":35.695553660000002}},{"type":"Feature","id":195,"geometry":{"type":"Point","coordinates":[139.7687165000001,35.68240202000004]},"properties":{"OBJECTID":195,"name":"キッサカバ プロント東京駅店","lon":139.76871650000001,"lat":35.682402019999998}},{"type":"Feature","id":196,"geometry":{"type":"Point","coordinates":[139.73711020000007,35.691628190000074]},"properties":{"OBJECTID":196,"name":"キッサカバ PRONTO プロント 市ヶ谷店","lon":139.73711019999999,"lat":35.691628190000003}},{"type":"Feature","id":197,"geometry":{"type":"Point","coordinates":[139.76738990000001,35.69747140000004]},"properties":{"OBJECTID":197,"name":"WIZ","lon":139.76738990000001,"lat":35.697471399999998}},{"type":"Feature","id":198,"geometry":{"type":"Point","coordinates":[139.75411280000003,35.701580580000041]},"properties":{"OBJECTID":198,"name":"とりいちず 水道橋店","lon":139.7541128,"lat":35.701580579999998}},{"type":"Feature","id":199,"geometry":{"type":"Point","coordinates":[139.74620880000009,35.70095850000007]},"properties":{"OBJECTID":199,"name":"韓無量 飯田橋東口店","lon":139.74620880000001,"lat":35.700958499999999}},{"type":"Feature","id":200,"geometry":{"type":"Point","coordinates":[139.75667410000005,35.698319070000025]},"properties":{"OBJECTID":200,"name":"秀吉 神保町","lon":139.7566741,"lat":35.698319069999997}},{"type":"Feature","id":201,"geometry":{"type":"Point","coordinates":[139.77057240000011,35.684056610000027]},"properties":{"OBJECTID":201,"name":"MY Shokudo Dining & Sakaba マイショクドウダイニングアンドサカバ","lon":139.77057239999999,"lat":35.684056609999999}},{"type":"Feature","id":202,"geometry":{"type":"Point","coordinates":[139.75982280000005,35.696195230000058]},"properties":{"OBJECTID":202,"name":"刺身と個室 わいがや 神保町店","lon":139.75982279999999,"lat":35.696195230000001}},{"type":"Feature","id":203,"geometry":{"type":"Point","coordinates":[139.75916130000007,35.673578870000028]},"properties":{"OBJECTID":203,"name":"DRAWING HOUSE OF HIBIYA ドローイング ハウス オブ 日比谷","lon":139.75916129999999,"lat":35.67357887}},{"type":"Feature","id":204,"geometry":{"type":"Point","coordinates":[139.75852740000005,35.669407650000039]},"properties":{"OBJECTID":204,"name":"居酒屋 燈 新橋店","lon":139.75852739999999,"lat":35.669407649999997}},{"type":"Feature","id":205,"geometry":{"type":"Point","coordinates":[139.77427940000007,35.696073410000054]},"properties":{"OBJECTID":205,"name":"居酒屋カーター","lon":139.77427940000001,"lat":35.696073409999997}},{"type":"Feature","id":206,"geometry":{"type":"Point","coordinates":[139.76081150000005,35.673423090000028]},"properties":{"OBJECTID":206,"name":"季節の日本酒豊富 有楽町居酒屋 海賊 かいぞく","lon":139.76081149999999,"lat":35.67342309}},{"type":"Feature","id":207,"geometry":{"type":"Point","coordinates":[139.73979620000011,35.68286758000005]},"properties":{"OBJECTID":207,"name":"IRISH PUB Peter Cole 半蔵門平河町店","lon":139.7397962,"lat":35.68286758}},{"type":"Feature","id":208,"geometry":{"type":"Point","coordinates":[139.75359710000009,35.700550130000067]},"properties":{"OBJECTID":208,"name":"水道橋 海鮮阿酒羅","lon":139.75359710000001,"lat":35.700550130000003}},{"type":"Feature","id":209,"geometry":{"type":"Point","coordinates":[139.75191860000007,35.701594970000031]},"properties":{"OBJECTID":209,"name":"大衆酒場　龍太郎","lon":139.75191860000001,"lat":35.701594970000002}},{"type":"Feature","id":210,"geometry":{"type":"Point","coordinates":[139.76401040000007,35.685778460000051]},"properties":{"OBJECTID":210,"name":"コラボ KollaBo 焼肉 韓国料理 大手町店","lon":139.76401039999999,"lat":35.685778460000002}},{"type":"Feature","id":211,"geometry":{"type":"Point","coordinates":[139.75486920000003,35.700654870000051]},"properties":{"OBJECTID":211,"name":"浜焼き海鮮居酒屋 大庄水産 水道橋店","lon":139.7548692,"lat":35.700654870000001}},{"type":"Feature","id":212,"geometry":{"type":"Point","coordinates":[139.7691923000001,35.696019670000055]},"properties":{"OBJECTID":212,"name":"SALAMANCA サラマンカ","lon":139.76919229999999,"lat":35.696019669999998}},{"type":"Feature","id":213,"geometry":{"type":"Point","coordinates":[139.75881400000003,35.696271030000048]},"properties":{"OBJECTID":213,"name":"コート・ダジュール 神保町店","lon":139.758814,"lat":35.696271029999998}},{"type":"Feature","id":214,"geometry":{"type":"Point","coordinates":[139.74630410000009,35.701048210000067]},"properties":{"OBJECTID":214,"name":"鶏料理と釜めし 居酒屋 かまどか 飯田橋店","lon":139.7463041,"lat":35.701048210000003}},{"type":"Feature","id":215,"geometry":{"type":"Point","coordinates":[139.77390770000011,35.69671500000004]},"properties":{"OBJECTID":215,"name":"キャンティ・デュエ 秋葉原","lon":139.7739077,"lat":35.696714999999998}},{"type":"Feature","id":216,"geometry":{"type":"Point","coordinates":[139.75359710000009,35.700550130000067]},"properties":{"OBJECTID":216,"name":"本格アジアン居酒屋 ラミちゃんの台所 水道橋店","lon":139.75359710000001,"lat":35.700550130000003}},{"type":"Feature","id":217,"geometry":{"type":"Point","coordinates":[139.77213970000003,35.69879971000006]},"properties":{"OBJECTID":217,"name":"ダイニングダーツバー Bee 秋葉原店","lon":139.7721397,"lat":35.698799710000003}},{"type":"Feature","id":218,"geometry":{"type":"Point","coordinates":[139.75973010000007,35.694769560000054]},"properties":{"OBJECTID":218,"name":"四川料理 秋 神保町本店","lon":139.75973010000001,"lat":35.694769559999997}},{"type":"Feature","id":219,"geometry":{"type":"Point","coordinates":[139.76419280000005,35.687853510000025]},"properties":{"OBJECTID":219,"name":"北海道 大手町店","lon":139.76419279999999,"lat":35.687853509999997}},{"type":"Feature","id":220,"geometry":{"type":"Point","coordinates":[139.75027510000007,35.701105530000063]},"properties":{"OBJECTID":220,"name":"とりあえずビビンバ","lon":139.75027510000001,"lat":35.70110553}},{"type":"Feature","id":221,"geometry":{"type":"Point","coordinates":[139.76722100000006,35.678614630000027]},"properties":{"OBJECTID":221,"name":"ミンミン 八重洲店 東京駅サウスタワー内","lon":139.76722100000001,"lat":35.678614629999998}},{"type":"Feature","id":222,"geometry":{"type":"Point","coordinates":[139.77022790000001,35.693069200000025]},"properties":{"OBJECTID":222,"name":"嘉徳園 かとくえん 神田本店","lon":139.77022790000001,"lat":35.693069199999996}},{"type":"Feature","id":223,"geometry":{"type":"Point","coordinates":[139.7777976000001,35.698073840000063]},"properties":{"OBJECTID":223,"name":"すし土風炉 秋葉原店","lon":139.77779760000001,"lat":35.698073839999999}},{"type":"Feature","id":224,"geometry":{"type":"Point","coordinates":[139.77508010000008,35.697974330000079]},"properties":{"OBJECTID":224,"name":"0秒レモンサワー 仙台ホルモン焼肉酒場 ときわ亭 秋葉原店","lon":139.7750801,"lat":35.697974330000001}},{"type":"Feature","id":225,"geometry":{"type":"Point","coordinates":[139.73748300000011,35.683646040000042]},"properties":{"OBJECTID":225,"name":"とり鉄 麹町店","lon":139.737483,"lat":35.683646039999999}},{"type":"Feature","id":226,"geometry":{"type":"Point","coordinates":[139.77158090000012,35.69906522000008]},"properties":{"OBJECTID":226,"name":"塚田農場 秋葉原中央通り店 宮崎県日南市","lon":139.7715809,"lat":35.699065220000001}},{"type":"Feature","id":227,"geometry":{"type":"Point","coordinates":[139.77013090000003,35.703138060000072]},"properties":{"OBJECTID":227,"name":"魚河岸 おに平 末広町","lon":139.7701309,"lat":35.703138060000001}},{"type":"Feature","id":228,"geometry":{"type":"Point","coordinates":[139.74876110000002,35.699856190000048]},"properties":{"OBJECTID":228,"name":"個室居酒屋 佳宴 飯田橋店","lon":139.7487611,"lat":35.699856189999998}},{"type":"Feature","id":229,"geometry":{"type":"Point","coordinates":[139.76310920000003,35.676085360000059]},"properties":{"OBJECTID":229,"name":"キッサカバ PRONTO ILBAR プロント イルバール 東京国際フォーラム店","lon":139.7631092,"lat":35.676085360000002}},{"type":"Feature","id":230,"geometry":{"type":"Point","coordinates":[139.74647390000007,35.670686070000045]},"properties":{"OBJECTID":230,"name":"デリリウムカフェ トーキョー","lon":139.74647390000001,"lat":35.670686070000002}},{"type":"Feature","id":231,"geometry":{"type":"Point","coordinates":[139.76822670000001,35.685344450000059]},"properties":{"OBJECTID":231,"name":"やきとん酒場 大手町 とら八","lon":139.76822670000001,"lat":35.685344450000002}},{"type":"Feature","id":232,"geometry":{"type":"Point","coordinates":[139.74182510000003,35.686003670000048]},"properties":{"OBJECTID":232,"name":"大衆IZAKAYAエイト 半蔵門店","lon":139.7418251,"lat":35.686003669999998}},{"type":"Feature","id":233,"geometry":{"type":"Point","coordinates":[139.76900760000001,35.696255750000034]},"properties":{"OBJECTID":233,"name":"LA TESTADURA ラテスタドゥーラ","lon":139.76900760000001,"lat":35.696255749999999}},{"type":"Feature","id":234,"geometry":{"type":"Point","coordinates":[139.73675420000006,35.691450700000075]},"properties":{"OBJECTID":234,"name":"インドカレー ナンハウス 市ヶ谷店","lon":139.73675420000001,"lat":35.691450699999997}},{"type":"Feature","id":235,"geometry":{"type":"Point","coordinates":[139.76935420000007,35.690680000000043]},"properties":{"OBJECTID":235,"name":"やきとん酒場 神田とら八","lon":139.76935420000001,"lat":35.69068}},{"type":"Feature","id":236,"geometry":{"type":"Point","coordinates":[139.76680310000006,35.694910280000045]},"properties":{"OBJECTID":236,"name":"韓国料理 スジャ食堂 神田店","lon":139.7668031,"lat":35.694910280000002}},{"type":"Feature","id":237,"geometry":{"type":"Point","coordinates":[139.74609460000011,35.701211520000072]},"properties":{"OBJECTID":237,"name":"やきとりセンター 飯田橋店","lon":139.74609459999999,"lat":35.701211520000001}},{"type":"Feature","id":238,"geometry":{"type":"Point","coordinates":[139.74505060000001,35.699521400000037]},"properties":{"OBJECTID":238,"name":"居酒屋酔火 飯田橋店","lon":139.74505060000001,"lat":35.699521400000002}},{"type":"Feature","id":239,"geometry":{"type":"Point","coordinates":[139.76902870000004,35.690285310000036]},"properties":{"OBJECTID":239,"name":"三番酒場","lon":139.76902870000001,"lat":35.69028531}},{"type":"Feature","id":240,"geometry":{"type":"Point","coordinates":[139.77264370000012,35.695229570000038]},"properties":{"OBJECTID":240,"name":"串吟 秋葉原 神田 3号店","lon":139.7726437,"lat":35.695229570000002}},{"type":"Feature","id":241,"geometry":{"type":"Point","coordinates":[139.77000610000005,35.691168290000064]},"properties":{"OBJECTID":241,"name":"ZINO 神田店","lon":139.77000609999999,"lat":35.69116829}},{"type":"Feature","id":242,"geometry":{"type":"Point","coordinates":[139.77034320000007,35.693098080000027]},"properties":{"OBJECTID":242,"name":"ダイニングビアバーウォルトンズ 神田店","lon":139.77034320000001,"lat":35.693098079999999}},{"type":"Feature","id":243,"geometry":{"type":"Point","coordinates":[139.76385790000006,35.699463030000061]},"properties":{"OBJECTID":243,"name":"個室居酒屋 えびず 御茶ノ水店","lon":139.7638579,"lat":35.699463029999997}},{"type":"Feature","id":244,"geometry":{"type":"Point","coordinates":[139.76720230000001,35.693115780000028]},"properties":{"OBJECTID":244,"name":"華龍飯店 神田店","lon":139.76720230000001,"lat":35.693115779999999}},{"type":"Feature","id":245,"geometry":{"type":"Point","coordinates":[139.76996610000003,35.690721950000068]},"properties":{"OBJECTID":245,"name":"赤身焼肉のカリスマ 牛恋 神田店","lon":139.7699661,"lat":35.690721949999997}},{"type":"Feature","id":246,"geometry":{"type":"Point","coordinates":[139.74486120000006,35.699149500000033]},"properties":{"OBJECTID":246,"name":"牛角 飯田橋西口駅前店","lon":139.7448612,"lat":35.699149499999997}},{"type":"Feature","id":247,"geometry":{"type":"Point","coordinates":[139.76422680000007,35.684626930000036]},"properties":{"OBJECTID":247,"name":"MARUNOUCHI BASE 丸の内ベース ダイニング","lon":139.76422679999999,"lat":35.68462693}},{"type":"Feature","id":248,"geometry":{"type":"Point","coordinates":[139.77375330000007,35.696215600000073]},"properties":{"OBJECTID":248,"name":"立ち呑み炉端焼き 串吟","lon":139.77375330000001,"lat":35.696215600000002}},{"type":"Feature","id":249,"geometry":{"type":"Point","coordinates":[139.74135820000004,35.685364010000058]},"properties":{"OBJECTID":249,"name":"カルビうどん153 いちごさん","lon":139.74135820000001,"lat":35.685364010000001}},{"type":"Feature","id":250,"geometry":{"type":"Point","coordinates":[139.7620591000001,35.693685020000032]},"properties":{"OBJECTID":250,"name":"デニーロ神田店","lon":139.76205909999999,"lat":35.693685019999997}},{"type":"Feature","id":251,"geometry":{"type":"Point","coordinates":[139.76833780000004,35.685628590000078]},"properties":{"OBJECTID":251,"name":"羊肉酒場 悟大 大手町2丁目店","lon":139.76833780000001,"lat":35.68562859}},{"type":"Feature","id":252,"geometry":{"type":"Point","coordinates":[139.75916210000003,35.673745240000073]},"properties":{"OBJECTID":252,"name":"天ぷら 天寅 東京ミッドタウン日比谷店","lon":139.7591621,"lat":35.673745240000002}},{"type":"Feature","id":253,"geometry":{"type":"Point","coordinates":[139.77095400000007,35.692946450000079]},"properties":{"OBJECTID":253,"name":"Darts Cafe GROVE グローブ 神田店","lon":139.77095399999999,"lat":35.692946450000001}},{"type":"Feature","id":254,"geometry":{"type":"Point","coordinates":[139.75026850000006,35.70106609000004]},"properties":{"OBJECTID":254,"name":"MIDTOWN BBQ TOKYO","lon":139.7502685,"lat":35.701066089999998}},{"type":"Feature","id":255,"geometry":{"type":"Point","coordinates":[139.76415100000008,35.698976420000065]},"properties":{"OBJECTID":255,"name":"居酒屋 肉ピン 御茶ノ水店","lon":139.764151,"lat":35.698976420000001}},{"type":"Feature","id":256,"geometry":{"type":"Point","coordinates":[139.76683910000008,35.678134390000025]},"properties":{"OBJECTID":256,"name":"KOHINOOR コヒノール 丸の内","lon":139.7668391,"lat":35.678134389999997}},{"type":"Feature","id":257,"geometry":{"type":"Point","coordinates":[139.77213970000003,35.69879971000006]},"properties":{"OBJECTID":257,"name":"大衆酒場 ちばチャン 秋葉原電気街口店","lon":139.7721397,"lat":35.698799710000003}},{"type":"Feature","id":258,"geometry":{"type":"Point","coordinates":[139.77051080000001,35.69009426000008]},"properties":{"OBJECTID":258,"name":"小籠包マニア 神田本店","lon":139.77051080000001,"lat":35.690094260000002}},{"type":"Feature","id":259,"geometry":{"type":"Point","coordinates":[139.77454240000009,35.697801560000073]},"properties":{"OBJECTID":259,"name":"温野菜 秋葉原昭和通り口店","lon":139.7745424,"lat":35.697801560000002}},{"type":"Feature","id":260,"geometry":{"type":"Point","coordinates":[139.77160340000012,35.69772676000008]},"properties":{"OBJECTID":260,"name":"韓無量 秋葉原店","lon":139.7716034,"lat":35.697726760000002}},{"type":"Feature","id":261,"geometry":{"type":"Point","coordinates":[139.77122010000005,35.691328860000056]},"properties":{"OBJECTID":261,"name":"プロント PRONTO 神田店","lon":139.77122009999999,"lat":35.691328859999999}},{"type":"Feature","id":262,"geometry":{"type":"Point","coordinates":[139.77815370000008,35.698379370000055]},"properties":{"OBJECTID":262,"name":"順順餃子房 秋葉原2号店","lon":139.77815369999999,"lat":35.698379369999998}},{"type":"Feature","id":263,"geometry":{"type":"Point","coordinates":[139.77160340000012,35.697762590000025]},"properties":{"OBJECTID":263,"name":"牛角 秋葉原3rd店","lon":139.7716034,"lat":35.697762590000004}},{"type":"Feature","id":264,"geometry":{"type":"Point","coordinates":[139.76967660000003,35.692282600000055]},"properties":{"OBJECTID":264,"name":"裏神田 自然生村","lon":139.7696766,"lat":35.692282599999999}},{"type":"Feature","id":265,"geometry":{"type":"Point","coordinates":[139.77097460000005,35.690112880000072]},"properties":{"OBJECTID":265,"name":"ニイハオ 神田店","lon":139.77097459999999,"lat":35.690112880000001}},{"type":"Feature","id":266,"geometry":{"type":"Point","coordinates":[139.75222000000008,35.700753960000043]},"properties":{"OBJECTID":266,"name":"恋と、焼肉。 水道橋本店","lon":139.75221999999999,"lat":35.70075396}},{"type":"Feature","id":267,"geometry":{"type":"Point","coordinates":[139.77183800000012,35.701401080000039]},"properties":{"OBJECTID":267,"name":"大衆酒場 ちばチャン 秋葉原中央通り店","lon":139.771838,"lat":35.701401079999997}},{"type":"Feature","id":268,"geometry":{"type":"Point","coordinates":[139.77253410000003,35.700420650000069]},"properties":{"OBJECTID":268,"name":"築地食堂 源ちゃん AKIBA ICHI店 秋葉原UDXレストラン街","lon":139.7725341,"lat":35.700420649999998}},{"type":"Feature","id":269,"geometry":{"type":"Point","coordinates":[139.77673100000004,35.700048590000051]},"properties":{"OBJECTID":269,"name":"日本酒 炉端焼き 郷味 本店","lon":139.77673100000001,"lat":35.700048590000002}},{"type":"Feature","id":270,"geometry":{"type":"Point","coordinates":[139.76802500000008,35.679798410000046]},"properties":{"OBJECTID":270,"name":"ACORN グランスタ八重洲店","lon":139.76802499999999,"lat":35.679798409999997}},{"type":"Feature","id":271,"geometry":{"type":"Point","coordinates":[139.73578690000011,35.687743870000077]},"properties":{"OBJECTID":271,"name":"焼肉一龍 市ヶ谷","lon":139.73578689999999,"lat":35.687743869999998}},{"type":"Feature","id":272,"geometry":{"type":"Point","coordinates":[139.76429940000003,35.682544660000076]},"properties":{"OBJECTID":272,"name":"デリツィオーゾ フィレンツェ DELIZIOSO FIRENZE 新丸ビル","lon":139.7642994,"lat":35.682544659999998}},{"type":"Feature","id":273,"geometry":{"type":"Point","coordinates":[139.77063870000006,35.692488440000034]},"properties":{"OBJECTID":273,"name":"肉豊作 焼肉酒場 神田駅前店","lon":139.77063870000001,"lat":35.692488439999998}},{"type":"Feature","id":274,"geometry":{"type":"Point","coordinates":[139.74101280000002,35.682738460000053]},"properties":{"OBJECTID":274,"name":"ひもの屋 半蔵門総本店","lon":139.74101279999999,"lat":35.682738460000003}},{"type":"Feature","id":275,"geometry":{"type":"Point","coordinates":[139.76615450000008,35.690613250000069]},"properties":{"OBJECTID":275,"name":"カレー料理屋 ザ タンドール 神田店","lon":139.7661545,"lat":35.690613249999998}},{"type":"Feature","id":276,"geometry":{"type":"Point","coordinates":[139.74164860000008,35.682235760000026]},"properties":{"OBJECTID":276,"name":"幸福園","lon":139.74164859999999,"lat":35.682235759999998}},{"type":"Feature","id":277,"geometry":{"type":"Point","coordinates":[139.75631360000011,35.698820670000032]},"properties":{"OBJECTID":277,"name":"神保町 水道橋 楽 餃子居酒屋","lon":139.7563136,"lat":35.698820670000003}},{"type":"Feature","id":278,"geometry":{"type":"Point","coordinates":[139.74636820000012,35.701125430000047]},"properties":{"OBJECTID":278,"name":"あか牛焼肉と馬刺し たべとも","lon":139.74636820000001,"lat":35.701125429999998}},{"type":"Feature","id":279,"geometry":{"type":"Point","coordinates":[139.74621410000009,35.701203190000058]},"properties":{"OBJECTID":279,"name":"築地食堂 源ちゃん 飯田橋店","lon":139.7462141,"lat":35.701203190000001}},{"type":"Feature","id":280,"geometry":{"type":"Point","coordinates":[139.75204130000009,35.701558860000034]},"properties":{"OBJECTID":280,"name":"浦島たろう","lon":139.7520413,"lat":35.701558859999999}},{"type":"Feature","id":281,"geometry":{"type":"Point","coordinates":[139.76874370000007,35.696382670000048]},"properties":{"OBJECTID":281,"name":"ぼたん","lon":139.76874369999999,"lat":35.696382669999998}},{"type":"Feature","id":282,"geometry":{"type":"Point","coordinates":[139.77631640000004,35.69843209000004]},"properties":{"OBJECTID":282,"name":"焼肉酒場 秋葉牧場 秋葉原店","lon":139.77631640000001,"lat":35.698432089999997}},{"type":"Feature","id":283,"geometry":{"type":"Point","coordinates":[139.76702870000008,35.68674038000006]},"properties":{"OBJECTID":283,"name":"干物食堂 越後屋金四郎","lon":139.7670287,"lat":35.686740380000003}},{"type":"Feature","id":284,"geometry":{"type":"Point","coordinates":[139.73798160000001,35.683056400000055]},"properties":{"OBJECTID":284,"name":"塩梅 東京酒BAL 紀尾井町店","lon":139.73798160000001,"lat":35.683056399999998}},{"type":"Feature","id":285,"geometry":{"type":"Point","coordinates":[139.74917770000002,35.700947740000061]},"properties":{"OBJECTID":285,"name":"ベルテンポ Beltempo ホテル メトロポリタン エドモント","lon":139.74917769999999,"lat":35.700947739999997}},{"type":"Feature","id":286,"geometry":{"type":"Point","coordinates":[139.7681682000001,35.682594210000047]},"properties":{"OBJECTID":286,"name":"酒肴日和 アテニヨル 八重洲店","lon":139.76816819999999,"lat":35.682594209999998}},{"type":"Feature","id":287,"geometry":{"type":"Point","coordinates":[139.76575880000007,35.687590520000072]},"properties":{"OBJECTID":287,"name":"ブラッセルズ 大手町","lon":139.76575879999999,"lat":35.687590520000001}},{"type":"Feature","id":288,"geometry":{"type":"Point","coordinates":[139.76118040000006,35.676989650000053]},"properties":{"OBJECTID":288,"name":"陳家私菜 ちんかしさい 有楽町店","lon":139.7611804,"lat":35.676989650000003}},{"type":"Feature","id":289,"geometry":{"type":"Point","coordinates":[139.76113960000009,35.677178790000028]},"properties":{"OBJECTID":289,"name":"Ciao! WHIPHY チャオウィッフィー","lon":139.76113960000001,"lat":35.677178789999999}},{"type":"Feature","id":290,"geometry":{"type":"Point","coordinates":[139.76687100000004,35.678056900000058]},"properties":{"OBJECTID":290,"name":"NIHONBASHI BREWERY. T.S","lon":139.76687100000001,"lat":35.678056900000001}},{"type":"Feature","id":291,"geometry":{"type":"Point","coordinates":[139.76193140000009,35.686209190000056]},"properties":{"OBJECTID":291,"name":"マロリーポークステーキ　大手町ホトリア店","lon":139.76193140000001,"lat":35.68620919}},{"type":"Feature","id":292,"geometry":{"type":"Point","coordinates":[139.76958360000003,35.699352360000034]},"properties":{"OBJECTID":292,"name":"秋葉原下町もんじゃ おしかつ & やきとん元気 秋葉原電気街口店","lon":139.7695836,"lat":35.699352359999999}},{"type":"Feature","id":293,"geometry":{"type":"Point","coordinates":[139.76848220000011,35.68597217000007]},"properties":{"OBJECTID":293,"name":"えびず永山 大手町店","lon":139.76848219999999,"lat":35.685972169999999}},{"type":"Feature","id":294,"geometry":{"type":"Point","coordinates":[139.77317430000005,35.693427290000045]},"properties":{"OBJECTID":294,"name":"大衆和牛酒場 コンロ家 神田店","lon":139.77317429999999,"lat":35.693427290000002}},{"type":"Feature","id":295,"geometry":{"type":"Point","coordinates":[139.77381440000011,35.697262710000075]},"properties":{"OBJECTID":295,"name":"麹蔵 秋葉原店","lon":139.77381439999999,"lat":35.697262709999997}},{"type":"Feature","id":296,"geometry":{"type":"Point","coordinates":[139.77238690000001,35.700757000000067]},"properties":{"OBJECTID":296,"name":"熟成肉 ウルビアマン OERBIERMAN","lon":139.77238689999999,"lat":35.700757000000003}},{"type":"Feature","id":297,"geometry":{"type":"Point","coordinates":[139.7637562000001,35.681184520000045]},"properties":{"OBJECTID":297,"name":"スパイスビストロB","lon":139.76375619999999,"lat":35.681184520000002}},{"type":"Feature","id":298,"geometry":{"type":"Point","coordinates":[139.75163800000007,35.701948810000033]},"properties":{"OBJECTID":298,"name":"羊肉酒場 悟大 水道橋店","lon":139.75163800000001,"lat":35.701948809999998}},{"type":"Feature","id":299,"geometry":{"type":"Point","coordinates":[139.77040440000007,35.689790680000044]},"properties":{"OBJECTID":299,"name":"創作中華料理　漢唐楼　神田","lon":139.77040439999999,"lat":35.689790680000002}},{"type":"Feature","id":300,"geometry":{"type":"Point","coordinates":[139.7637562000001,35.681184520000045]},"properties":{"OBJECTID":300,"name":"ゴドノフ東京 丸ビル店","lon":139.76375619999999,"lat":35.681184520000002}},{"type":"Feature","id":301,"geometry":{"type":"Point","coordinates":[139.74537800000007,35.701580900000067]},"properties":{"OBJECTID":301,"name":"博多きむら屋 飯田橋","lon":139.74537799999999,"lat":35.701580900000003}},{"type":"Feature","id":302,"geometry":{"type":"Point","coordinates":[139.75479200000007,35.700775690000057]},"properties":{"OBJECTID":302,"name":"牛角 水道橋店","lon":139.75479200000001,"lat":35.70077569}},{"type":"Feature","id":303,"geometry":{"type":"Point","coordinates":[139.73788790000003,35.691828190000024]},"properties":{"OBJECTID":303,"name":"イチガヤキッチン ワキータ","lon":139.7378879,"lat":35.691828190000003}},{"type":"Feature","id":304,"geometry":{"type":"Point","coordinates":[139.77516730000002,35.698384840000074]},"properties":{"OBJECTID":304,"name":"牛角 秋葉原 昭和通り口店","lon":139.77516729999999,"lat":35.698384840000003}},{"type":"Feature","id":305,"geometry":{"type":"Point","coordinates":[139.7617206000001,35.677700970000046]},"properties":{"OBJECTID":305,"name":"Ta-im タイーム 丸の内店","lon":139.76172059999999,"lat":35.677700969999997}},{"type":"Feature","id":306,"geometry":{"type":"Point","coordinates":[139.77204280000001,35.692881490000048]},"properties":{"OBJECTID":306,"name":"マルヤス酒場 神田店 3号店","lon":139.77204280000001,"lat":35.692881489999998}},{"type":"Feature","id":307,"geometry":{"type":"Point","coordinates":[139.74231850000001,35.688158440000052]},"properties":{"OBJECTID":307,"name":"炭や","lon":139.74231850000001,"lat":35.688158440000002}},{"type":"Feature","id":308,"geometry":{"type":"Point","coordinates":[139.77313990000005,35.692999280000038]},"properties":{"OBJECTID":308,"name":"べっぴん 神田","lon":139.77313989999999,"lat":35.692999280000002}},{"type":"Feature","id":309,"geometry":{"type":"Point","coordinates":[139.76401040000007,35.685778460000051]},"properties":{"OBJECTID":309,"name":"The CorkScrew Bar&Grill ザコークスクリューバーアンドグリル","lon":139.76401039999999,"lat":35.685778460000002}},{"type":"Feature","id":310,"geometry":{"type":"Point","coordinates":[139.73826820000011,35.691918470000076]},"properties":{"OBJECTID":310,"name":"麹蔵 市ヶ谷店","lon":139.73826819999999,"lat":35.691918469999997}},{"type":"Feature","id":311,"geometry":{"type":"Point","coordinates":[139.75123740000004,35.696550240000079]},"properties":{"OBJECTID":311,"name":"本格和牛焼肉　『匠苑 -takumien-』 九段下前店","lon":139.75123740000001,"lat":35.696550240000001}},{"type":"Feature","id":312,"geometry":{"type":"Point","coordinates":[139.76429940000003,35.682544660000076]},"properties":{"OBJECTID":312,"name":"サイアムヘリテイジ 新丸の内ビル店","lon":139.7642994,"lat":35.682544659999998}},{"type":"Feature","id":313,"geometry":{"type":"Point","coordinates":[139.7637562000001,35.681184520000045]},"properties":{"OBJECTID":313,"name":"GREEN PAPAYA グリーン パパイヤ 丸の内店","lon":139.76375619999999,"lat":35.681184520000002}},{"type":"Feature","id":314,"geometry":{"type":"Point","coordinates":[139.77270930000009,35.700669520000076]},"properties":{"OBJECTID":314,"name":"沖縄料理と炉端焼き なんくるないさー","lon":139.7727093,"lat":35.700669519999998}},{"type":"Feature","id":315,"geometry":{"type":"Point","coordinates":[139.76487140000006,35.686313700000028]},"properties":{"OBJECTID":315,"name":"生パスタとサルシッチャのワインバル 大手町厨房","lon":139.7648714,"lat":35.686313699999999}},{"type":"Feature","id":316,"geometry":{"type":"Point","coordinates":[139.75949570000012,35.695515580000063]},"properties":{"OBJECTID":316,"name":"築地食堂 源ちゃん 神保町店","lon":139.7594957,"lat":35.695515579999999}},{"type":"Feature","id":317,"geometry":{"type":"Point","coordinates":[139.77152700000011,35.698762480000028]},"properties":{"OBJECTID":317,"name":"赤から鍋とセセリ焼き 赤から 秋葉原中央通り店","lon":139.77152699999999,"lat":35.698762479999999}},{"type":"Feature","id":318,"geometry":{"type":"Point","coordinates":[139.76822660000005,35.695189740000046]},"properties":{"OBJECTID":318,"name":"四川厨房 随苑 淡路町店","lon":139.76822659999999,"lat":35.695189739999996}},{"type":"Feature","id":319,"geometry":{"type":"Point","coordinates":[139.74537800000007,35.701583680000056]},"properties":{"OBJECTID":319,"name":"和牛焼肉食べ放題 肉屋の台所 飯田橋店","lon":139.74537799999999,"lat":35.701583679999999}},{"type":"Feature","id":320,"geometry":{"type":"Point","coordinates":[139.74600350000003,35.701125420000039]},"properties":{"OBJECTID":320,"name":"焼き鳥 てけてけ 飯田橋東口店","lon":139.7460035,"lat":35.701125419999997}},{"type":"Feature","id":321,"geometry":{"type":"Point","coordinates":[139.75875050000002,35.695455560000028]},"properties":{"OBJECTID":321,"name":"本格中華食べ放題 紅燈記 こうとうき 神保町","lon":139.75875049999999,"lat":35.695455559999999}},{"type":"Feature","id":322,"geometry":{"type":"Point","coordinates":[139.77181130000008,35.701150550000079]},"properties":{"OBJECTID":322,"name":"Beer Pong Bar GROVE squad 秋葉原中央通店","lon":139.7718113,"lat":35.701150550000001}},{"type":"Feature","id":323,"geometry":{"type":"Point","coordinates":[139.77046320000011,35.692271790000063]},"properties":{"OBJECTID":323,"name":"でくのぼう 神田店","lon":139.77046319999999,"lat":35.692271789999999}},{"type":"Feature","id":324,"geometry":{"type":"Point","coordinates":[139.74735380000004,35.699851710000075]},"properties":{"OBJECTID":324,"name":"Dining&Bar HEROES ダイニングアンドバー ヒーローズ","lon":139.74735380000001,"lat":35.699851709999997}},{"type":"Feature","id":325,"geometry":{"type":"Point","coordinates":[139.76786350000009,35.697511410000061]},"properties":{"OBJECTID":325,"name":"越後屋 三十郎","lon":139.7678635,"lat":35.697511409999997}},{"type":"Feature","id":326,"geometry":{"type":"Point","coordinates":[139.76369120000004,35.681030930000077]},"properties":{"OBJECTID":326,"name":"沼津 魚がし鮨 丸ビル","lon":139.76369120000001,"lat":35.681030929999999}},{"type":"Feature","id":327,"geometry":{"type":"Point","coordinates":[139.76150730000006,35.685129020000034]},"properties":{"OBJECTID":327,"name":"アジアンレストラン バジル 丸の内パレスビル店","lon":139.76150730000001,"lat":35.685129019999998}},{"type":"Feature","id":328,"geometry":{"type":"Point","coordinates":[139.76492700000006,35.679544460000045]},"properties":{"OBJECTID":328,"name":"豚捨 KITTE 丸の内","lon":139.764927,"lat":35.679544460000002}},{"type":"Feature","id":329,"geometry":{"type":"Point","coordinates":[139.77178830000003,35.701138890000038]},"properties":{"OBJECTID":329,"name":"USHIHACHI 秋葉原店","lon":139.7717883,"lat":35.701138890000003}},{"type":"Feature","id":330,"geometry":{"type":"Point","coordinates":[139.76407110000002,35.696103970000024]},"properties":{"OBJECTID":330,"name":"シーシャバー＠NFT　BAR　from BOSO CREW","lon":139.7640711,"lat":35.696103970000003}},{"type":"Feature","id":331,"geometry":{"type":"Point","coordinates":[139.76918150000006,35.702209250000067]},"properties":{"OBJECTID":331,"name":"四川料理 東和酒場","lon":139.7691815,"lat":35.702209250000003}},{"type":"Feature","id":332,"geometry":{"type":"Point","coordinates":[139.77242860000001,35.698015360000056]},"properties":{"OBJECTID":332,"name":"牛角 秋葉原 電気街口店","lon":139.77242860000001,"lat":35.698015359999999}},{"type":"Feature","id":333,"geometry":{"type":"Point","coordinates":[139.76035290000004,35.673248380000075]},"properties":{"OBJECTID":333,"name":"お好み焼き 88 パチパチ","lon":139.76035289999999,"lat":35.673248379999997}},{"type":"Feature","id":334,"geometry":{"type":"Point","coordinates":[139.77444370000012,35.691916380000066]},"properties":{"OBJECTID":334,"name":"個室中華居酒屋 好来酒場 神田店","lon":139.77444370000001,"lat":35.691916380000002}},{"type":"Feature","id":335,"geometry":{"type":"Point","coordinates":[139.76404240000011,35.699073630000044]},"properties":{"OBJECTID":335,"name":"楽蔵 RAKUZO 御茶ノ水駅前店","lon":139.76404239999999,"lat":35.699073630000001}},{"type":"Feature","id":336,"geometry":{"type":"Point","coordinates":[139.76431910000008,35.695846220000078]},"properties":{"OBJECTID":336,"name":"沖縄居酒屋 梅酒 てぃーだ 御茶ノ水店","lon":139.76431909999999,"lat":35.69584622}},{"type":"Feature","id":337,"geometry":{"type":"Point","coordinates":[139.75058550000006,35.698759690000031]},"properties":{"OBJECTID":337,"name":"炭火焼鳥 心","lon":139.7505855,"lat":35.698759690000003}},{"type":"Feature","id":338,"geometry":{"type":"Point","coordinates":[139.74812120000001,35.700435000000027]},"properties":{"OBJECTID":338,"name":"OliOli MARKET オリオリ マーケット","lon":139.74812120000001,"lat":35.700434999999999}},{"type":"Feature","id":339,"geometry":{"type":"Point","coordinates":[139.76715700000011,35.694190650000053]},"properties":{"OBJECTID":339,"name":"Ottotto BREWERY 淡路町店","lon":139.767157,"lat":35.694190650000003}},{"type":"Feature","id":340,"geometry":{"type":"Point","coordinates":[139.77512010000009,35.697693250000043]},"properties":{"OBJECTID":340,"name":"すし酒場 フジヤマ 秋葉原本店","lon":139.77512010000001,"lat":35.69769325}},{"type":"Feature","id":341,"geometry":{"type":"Point","coordinates":[139.7702488000001,35.692633410000042]},"properties":{"OBJECTID":341,"name":"香鶏酒房 鳥八 とりや 神田店","lon":139.77024879999999,"lat":35.692633409999999}},{"type":"Feature","id":342,"geometry":{"type":"Point","coordinates":[139.75274410000009,35.701075600000024]},"properties":{"OBJECTID":342,"name":"てぃーだ 水道橋店","lon":139.7527441,"lat":35.701075600000003}},{"type":"Feature","id":343,"geometry":{"type":"Point","coordinates":[139.76716180000005,35.693311030000075]},"properties":{"OBJECTID":343,"name":"磯浜魚業","lon":139.7671618,"lat":35.693311029999997}},{"type":"Feature","id":344,"geometry":{"type":"Point","coordinates":[139.76597260000005,35.690017760000046]},"properties":{"OBJECTID":344,"name":"大手町ZION","lon":139.7659726,"lat":35.690017760000003}},{"type":"Feature","id":345,"geometry":{"type":"Point","coordinates":[139.77515810000011,35.698362340000074]},"properties":{"OBJECTID":345,"name":"ZINO 秋葉原店","lon":139.7751581,"lat":35.698362340000003}},{"type":"Feature","id":346,"geometry":{"type":"Point","coordinates":[139.74709210000003,35.694356760000062]},"properties":{"OBJECTID":346,"name":"ラ フェスタ La Fiesta","lon":139.7470921,"lat":35.694356759999998}},{"type":"Feature","id":347,"geometry":{"type":"Point","coordinates":[139.74361270000009,35.698980590000076]},"properties":{"OBJECTID":347,"name":"チョンギワ 飯田橋","lon":139.7436127,"lat":35.698980589999998}},{"type":"Feature","id":348,"geometry":{"type":"Point","coordinates":[139.76457200000004,35.693843960000038]},"properties":{"OBJECTID":348,"name":"龍福軒","lon":139.76457199999999,"lat":35.693843960000002}},{"type":"Feature","id":349,"geometry":{"type":"Point","coordinates":[139.76363010000011,35.681097590000036]},"properties":{"OBJECTID":349,"name":"Cantinetta Buzz カンティネッタ バズ 丸ビル店","lon":139.7636301,"lat":35.68109759}},{"type":"Feature","id":350,"geometry":{"type":"Point","coordinates":[139.74141870000005,35.685286240000039]},"properties":{"OBJECTID":350,"name":"ステーキ テキサス 麹町本店","lon":139.7414187,"lat":35.685286240000003}},{"type":"Feature","id":351,"geometry":{"type":"Point","coordinates":[139.74183740000001,35.683619770000064]},"properties":{"OBJECTID":351,"name":"80円炭火焼鳥 半蔵","lon":139.74183740000001,"lat":35.68361977}},{"type":"Feature","id":352,"geometry":{"type":"Point","coordinates":[139.76037190000011,35.696747130000062]},"properties":{"OBJECTID":352,"name":"秀泉亭 五橋庵","lon":139.7603719,"lat":35.696747129999999}},{"type":"Feature","id":353,"geometry":{"type":"Point","coordinates":[139.77624860000003,35.698563740000054]},"properties":{"OBJECTID":353,"name":"秋葉原ダイニング ラフィーネ","lon":139.7762486,"lat":35.698563739999997}},{"type":"Feature","id":354,"geometry":{"type":"Point","coordinates":[139.74133830000005,35.682827900000063]},"properties":{"OBJECTID":354,"name":"餃子いち 半蔵門店","lon":139.7413383,"lat":35.682827899999999}},{"type":"Feature","id":355,"geometry":{"type":"Point","coordinates":[139.75522560000002,35.670698530000038]},"properties":{"OBJECTID":355,"name":"ミライザカ 日比谷富国生命ビル店","lon":139.75522559999999,"lat":35.670698530000003}},{"type":"Feature","id":356,"geometry":{"type":"Point","coordinates":[139.75678560000006,35.696991450000041]},"properties":{"OBJECTID":356,"name":"神保町 しちふく","lon":139.7567856,"lat":35.696991449999999}},{"type":"Feature","id":357,"geometry":{"type":"Point","coordinates":[139.74537800000007,35.701583680000056]},"properties":{"OBJECTID":357,"name":"北国炉端 ときしらず","lon":139.74537799999999,"lat":35.701583679999999}},{"type":"Feature","id":358,"geometry":{"type":"Point","coordinates":[139.77160340000012,35.69772676000008]},"properties":{"OBJECTID":358,"name":"Beer Pong Bar GROVE squad 秋葉原店","lon":139.7716034,"lat":35.697726760000002}},{"type":"Feature","id":359,"geometry":{"type":"Point","coordinates":[139.75091940000004,35.697357640000064]},"properties":{"OBJECTID":359,"name":"新中華 李記","lon":139.75091939999999,"lat":35.69735764}},{"type":"Feature","id":360,"geometry":{"type":"Point","coordinates":[139.76361900000006,35.679822730000069]},"properties":{"OBJECTID":360,"name":"かこいや 丸の内二丁目店","lon":139.76361900000001,"lat":35.679822729999998}},{"type":"Feature","id":361,"geometry":{"type":"Point","coordinates":[139.75252460000002,35.701478330000043]},"properties":{"OBJECTID":361,"name":"Kitchen&Bar FISh フィッシュ","lon":139.75252459999999,"lat":35.70147833}},{"type":"Feature","id":362,"geometry":{"type":"Point","coordinates":[139.76809480000009,35.698276330000056]},"properties":{"OBJECTID":362,"name":"ブッチャーズ 八百八 お茶の水店","lon":139.7680948,"lat":35.698276329999999}},{"type":"Feature","id":363,"geometry":{"type":"Point","coordinates":[139.77143540000009,35.697315690000039]},"properties":{"OBJECTID":363,"name":"塚田農場 秋葉原万世橋店 北海道シントク町","lon":139.7714354,"lat":35.697315690000003}},{"type":"Feature","id":364,"geometry":{"type":"Point","coordinates":[139.76086370000007,35.67301370000007]},"properties":{"OBJECTID":364,"name":"居酒屋 八起 やおき 有楽町日比谷店","lon":139.76086369999999,"lat":35.673013699999998}},{"type":"Feature","id":365,"geometry":{"type":"Point","coordinates":[139.76988370000004,35.682298170000024]},"properties":{"OBJECTID":365,"name":"本家あべや 東京駅北町酒場店","lon":139.76988370000001,"lat":35.682298170000003}},{"type":"Feature","id":366,"geometry":{"type":"Point","coordinates":[139.76173300000005,35.69555758000007]},"properties":{"OBJECTID":366,"name":"はなび 小川町本店","lon":139.76173299999999,"lat":35.695557579999999}},{"type":"Feature","id":367,"geometry":{"type":"Point","coordinates":[139.77674100000002,35.698417660000075]},"properties":{"OBJECTID":367,"name":"沖縄遊食 ちむどんどん 秋葉原","lon":139.77674099999999,"lat":35.698417659999997}},{"type":"Feature","id":368,"geometry":{"type":"Point","coordinates":[139.76034790000006,35.67366222000004]},"properties":{"OBJECTID":368,"name":"THE BLUE ザ ブルー","lon":139.7603479,"lat":35.673662219999997}},{"type":"Feature","id":369,"geometry":{"type":"Point","coordinates":[139.75253710000004,35.701631920000068]},"properties":{"OBJECTID":369,"name":"とり家 ゑび寿 えびす 水道橋店","lon":139.75253710000001,"lat":35.701631919999997}},{"type":"Feature","id":370,"geometry":{"type":"Point","coordinates":[139.75884840000003,35.669974540000055]},"properties":{"OBJECTID":370,"name":"酒肴日和 アテニヨル 日比谷OKUROJI","lon":139.75884840000001,"lat":35.669974539999998}},{"type":"Feature","id":371,"geometry":{"type":"Point","coordinates":[139.77047320000008,35.692111250000039]},"properties":{"OBJECTID":371,"name":"ディプント Di PUNTO 神田店","lon":139.7704732,"lat":35.692111250000004}},{"type":"Feature","id":372,"geometry":{"type":"Point","coordinates":[139.75339460000009,35.701290870000037]},"properties":{"OBJECTID":372,"name":"欲張りバル CANTINA ","lon":139.75339460000001,"lat":35.701290870000001}},{"type":"Feature","id":373,"geometry":{"type":"Point","coordinates":[139.75367870000002,35.701740830000062]},"properties":{"OBJECTID":373,"name":"串焼まいちゃん","lon":139.75367869999999,"lat":35.701740829999999}},{"type":"Feature","id":374,"geometry":{"type":"Point","coordinates":[139.77336080000009,35.69201079000004]},"properties":{"OBJECTID":374,"name":"香港酒家 桂泉 神田店","lon":139.77336080000001,"lat":35.692010789999998}},{"type":"Feature","id":375,"geometry":{"type":"Point","coordinates":[139.75447280000003,35.695627370000068]},"properties":{"OBJECTID":375,"name":"十勝ハーブ牛 焼肉 ホルモン MONMOM","lon":139.7544728,"lat":35.695627369999997}},{"type":"Feature","id":376,"geometry":{"type":"Point","coordinates":[139.76585310000007,35.684058980000032]},"properties":{"OBJECTID":376,"name":"ビラビアンキ 丸の内oazo店","lon":139.76585309999999,"lat":35.684058980000003}},{"type":"Feature","id":377,"geometry":{"type":"Point","coordinates":[139.73926260000007,35.684326010000063]},"properties":{"OBJECTID":377,"name":"Trattoria MUTSUMI トラットリア ムツミ 麹町","lon":139.73926259999999,"lat":35.684326009999999}},{"type":"Feature","id":378,"geometry":{"type":"Point","coordinates":[139.76429680000001,35.698748400000056]},"properties":{"OBJECTID":378,"name":"ビストロピン BISTRO PIN","lon":139.76429680000001,"lat":35.698748399999999}},{"type":"Feature","id":379,"geometry":{"type":"Point","coordinates":[139.76531380000006,35.69597624000005]},"properties":{"OBJECTID":379,"name":"中華料理 嘉賓","lon":139.7653138,"lat":35.69597624}},{"type":"Feature","id":380,"geometry":{"type":"Point","coordinates":[139.73767360000011,35.683329690000051]},"properties":{"OBJECTID":380,"name":"串八珍 麹町店","lon":139.73767359999999,"lat":35.683329690000001}},{"type":"Feature","id":381,"geometry":{"type":"Point","coordinates":[139.77579590000005,35.698130440000057]},"properties":{"OBJECTID":381,"name":"大衆居酒屋　とりいちず　秋葉原昭和通り店","lon":139.77579589999999,"lat":35.69813044}},{"type":"Feature","id":382,"geometry":{"type":"Point","coordinates":[139.73673470000006,35.691537360000041]},"properties":{"OBJECTID":382,"name":"ティーヌン 市ヶ谷店","lon":139.7367347,"lat":35.691537359999998}},{"type":"Feature","id":383,"geometry":{"type":"Point","coordinates":[139.75869680000005,35.669351830000039]},"properties":{"OBJECTID":383,"name":"九州の旨かもん 旨か酒 くすお 銀座裏コリドー店","lon":139.7586968,"lat":35.669351829999997}},{"type":"Feature","id":384,"geometry":{"type":"Point","coordinates":[139.75207190000003,35.701126690000024]},"properties":{"OBJECTID":384,"name":"大衆馬肉酒場 冨士山 水道橋","lon":139.7520719,"lat":35.701126690000002}},{"type":"Feature","id":385,"geometry":{"type":"Point","coordinates":[139.75486060000003,35.700630150000052]},"properties":{"OBJECTID":385,"name":"居酒屋 破竹","lon":139.7548606,"lat":35.700630150000002}},{"type":"Feature","id":386,"geometry":{"type":"Point","coordinates":[139.75150910000002,35.695715890000031]},"properties":{"OBJECTID":386,"name":"串八珍 靖国店","lon":139.75150909999999,"lat":35.695715890000002}},{"type":"Feature","id":387,"geometry":{"type":"Point","coordinates":[139.77675580000005,35.698392940000076]},"properties":{"OBJECTID":387,"name":"炭火焼き鳥 お鳥なりさん","lon":139.77675579999999,"lat":35.698392939999998}},{"type":"Feature","id":388,"geometry":{"type":"Point","coordinates":[139.75990280000008,35.696586020000041]},"properties":{"OBJECTID":388,"name":"和食処 和顔施 わがんせ","lon":139.75990279999999,"lat":35.696586019999998}},{"type":"Feature","id":389,"geometry":{"type":"Point","coordinates":[139.75742880000007,35.690968810000072]},"properties":{"OBJECTID":389,"name":"藁焼き鰹たたき 明神丸 竹橋パレスサイドビル店","lon":139.75742880000001,"lat":35.690968810000001}},{"type":"Feature","id":390,"geometry":{"type":"Point","coordinates":[139.74280140000008,35.692417980000073]},"properties":{"OBJECTID":390,"name":"大衆魚食堂幸村 市ヶ谷","lon":139.74280139999999,"lat":35.692417980000002}},{"type":"Feature","id":391,"geometry":{"type":"Point","coordinates":[139.75179430000003,35.69738988000006]},"properties":{"OBJECTID":391,"name":"颯 SOU ソウ 九段下 美食ダイニング","lon":139.7517943,"lat":35.697389880000003}},{"type":"Feature","id":392,"geometry":{"type":"Point","coordinates":[139.75358600000004,35.700427640000044]},"properties":{"OBJECTID":392,"name":"ヤキタロウ Yakitaro 水道橋店","lon":139.75358600000001,"lat":35.700427640000001}},{"type":"Feature","id":393,"geometry":{"type":"Point","coordinates":[139.75465520000012,35.697803800000031]},"properties":{"OBJECTID":393,"name":"JB's BAR ジェイビーズバー","lon":139.7546552,"lat":35.697803800000003}},{"type":"Feature","id":394,"geometry":{"type":"Point","coordinates":[139.76428680000004,35.690804290000074]},"properties":{"OBJECTID":394,"name":"居酒屋四葉子","lon":139.76428680000001,"lat":35.690804290000003}},{"type":"Feature","id":395,"geometry":{"type":"Point","coordinates":[139.76014540000006,35.672593730000074]},"properties":{"OBJECTID":395,"name":"焼肉一心たん助 旦 dan 有楽町","lon":139.7601454,"lat":35.672593730000003}},{"type":"Feature","id":396,"geometry":{"type":"Point","coordinates":[139.75095270000008,35.697314870000071]},"properties":{"OBJECTID":396,"name":"鉄板ダイニング ロドリゲス","lon":139.7509527,"lat":35.69731487}},{"type":"Feature","id":397,"geometry":{"type":"Point","coordinates":[139.76825120000001,35.69831522000004]},"properties":{"OBJECTID":397,"name":"エルチャテオ デルプエンテ お茶の水","lon":139.76825120000001,"lat":35.698315219999998}},{"type":"Feature","id":398,"geometry":{"type":"Point","coordinates":[139.74238140000011,35.692370750000066]},"properties":{"OBJECTID":398,"name":"麒麟宴","lon":139.7423814,"lat":35.692370750000002}},{"type":"Feature","id":399,"geometry":{"type":"Point","coordinates":[139.76821730000006,35.698494360000041]},"properties":{"OBJECTID":399,"name":"酒亭 じゅらく お茶の水店","lon":139.7682173,"lat":35.698494359999998}},{"type":"Feature","id":400,"geometry":{"type":"Point","coordinates":[139.77108300000009,35.689719320000052]},"properties":{"OBJECTID":400,"name":"空腹鶏 ハングリーチキン","lon":139.771083,"lat":35.689719320000002}},{"type":"Feature","id":401,"geometry":{"type":"Point","coordinates":[139.75165550000008,35.695978920000073]},"properties":{"OBJECTID":401,"name":"居酒屋 おかってや 九段下店","lon":139.7516555,"lat":35.695978920000002}},{"type":"Feature","id":402,"geometry":{"type":"Point","coordinates":[139.76377370000012,35.674176700000032]},"properties":{"OBJECTID":402,"name":"こてがえし 有楽町","lon":139.7637737,"lat":35.674176699999997}},{"type":"Feature","id":403,"geometry":{"type":"Point","coordinates":[139.73536000000001,35.688321010000038]},"properties":{"OBJECTID":403,"name":"メソン・セルバンテス","lon":139.73535999999999,"lat":35.688321010000003}},{"type":"Feature","id":404,"geometry":{"type":"Point","coordinates":[139.73889810000003,35.685926380000069]},"properties":{"OBJECTID":404,"name":"香港美食","lon":139.7388981,"lat":35.685926379999998}},{"type":"Feature","id":405,"geometry":{"type":"Point","coordinates":[139.76074170000004,35.673892760000058]},"properties":{"OBJECTID":405,"name":"麹蔵 有楽町晴海通り本店","lon":139.76074170000001,"lat":35.673892760000001}},{"type":"Feature","id":406,"geometry":{"type":"Point","coordinates":[139.73801260000005,35.686299090000034]},"properties":{"OBJECTID":406,"name":"お好み焼き 二番町 文字平","lon":139.73801259999999,"lat":35.686299089999999}},{"type":"Feature","id":407,"geometry":{"type":"Point","coordinates":[139.77347580000003,35.697298810000063]},"properties":{"OBJECTID":407,"name":"旬鮮酒場 天狗 秋葉原中央口店","lon":139.7734758,"lat":35.697298809999999}},{"type":"Feature","id":408,"geometry":{"type":"Point","coordinates":[139.74377990000005,35.699049480000042]},"properties":{"OBJECTID":408,"name":"アロハテーブル 飯田橋","lon":139.74377989999999,"lat":35.699049479999999}},{"type":"Feature","id":409,"geometry":{"type":"Point","coordinates":[139.73686070000008,35.686160740000048]},"properties":{"OBJECTID":409,"name":"AJANTA アジャンタ","lon":139.73686069999999,"lat":35.686160739999998}},{"type":"Feature","id":410,"geometry":{"type":"Point","coordinates":[139.77313130000005,35.692824580000035]},"properties":{"OBJECTID":410,"name":"本格中華 媽媽","lon":139.77313129999999,"lat":35.69282458}},{"type":"Feature","id":411,"geometry":{"type":"Point","coordinates":[139.74838000000011,35.701216030000069]},"properties":{"OBJECTID":411,"name":"東京餃子あかり はなれ","lon":139.74838,"lat":35.701216029999998}},{"type":"Feature","id":412,"geometry":{"type":"Point","coordinates":[139.75003890000005,35.698478600000044]},"properties":{"OBJECTID":412,"name":"Molo di Iidabashi モロ ディ イイダバシ","lon":139.75003889999999,"lat":35.698478600000001}},{"type":"Feature","id":413,"geometry":{"type":"Point","coordinates":[139.73527100000001,35.689178690000062]},"properties":{"OBJECTID":413,"name":"五色 GEMS 市ヶ谷店","lon":139.73527100000001,"lat":35.689178689999999}},{"type":"Feature","id":414,"geometry":{"type":"Point","coordinates":[139.75215690000005,35.702408220000052]},"properties":{"OBJECTID":414,"name":"Darts Bar A's 水道橋店","lon":139.75215689999999,"lat":35.702408220000002}},{"type":"Feature","id":415,"geometry":{"type":"Point","coordinates":[139.76570660000004,35.687186680000025]},"properties":{"OBJECTID":415,"name":"五香路 ウーシャンルー 大手町店","lon":139.76570659999999,"lat":35.687186680000003}},{"type":"Feature","id":416,"geometry":{"type":"Point","coordinates":[139.76080420000005,35.695670040000039]},"properties":{"OBJECTID":416,"name":"BRITANNIA TEA ブリタニア ティー","lon":139.7608042,"lat":35.695670040000003}},{"type":"Feature","id":417,"geometry":{"type":"Point","coordinates":[139.76153810000005,35.693764990000034]},"properties":{"OBJECTID":417,"name":"和食日和 おさけと 神保町","lon":139.7615381,"lat":35.693764989999998}},{"type":"Feature","id":418,"geometry":{"type":"Point","coordinates":[139.75314460000004,35.700434020000046]},"properties":{"OBJECTID":418,"name":"餃子乃寶 水道橋店","lon":139.75314460000001,"lat":35.700434020000003}},{"type":"Feature","id":419,"geometry":{"type":"Point","coordinates":[139.76945960000012,35.693743540000071]},"properties":{"OBJECTID":419,"name":"海王丸 神田店","lon":139.7694596,"lat":35.69374354}},{"type":"Feature","id":420,"geometry":{"type":"Point","coordinates":[139.74554760000001,35.698896770000033]},"properties":{"OBJECTID":420,"name":"刀削麺 火鍋 西安料理 XI AN シーアン 飯田橋店","lon":139.74554760000001,"lat":35.698896769999998}},{"type":"Feature","id":421,"geometry":{"type":"Point","coordinates":[139.74511650000011,35.699607510000078]},"properties":{"OBJECTID":421,"name":"大衆食堂 定食のまる大 飯田橋西口店","lon":139.74511649999999,"lat":35.69960751}},{"type":"Feature","id":422,"geometry":{"type":"Point","coordinates":[139.74285080000004,35.69202080000008]},"properties":{"OBJECTID":422,"name":"優優","lon":139.74285080000001,"lat":35.692020800000002}},{"type":"Feature","id":423,"geometry":{"type":"Point","coordinates":[139.74385600000005,35.698948940000037]},"properties":{"OBJECTID":423,"name":"ルッコリーナ 飯田橋","lon":139.74385599999999,"lat":35.698948940000001}},{"type":"Feature","id":424,"geometry":{"type":"Point","coordinates":[139.76503120000007,35.676627290000056]},"properties":{"OBJECTID":424,"name":"大衆居酒屋 とりいちず 有楽町店","lon":139.76503120000001,"lat":35.676627289999999}},{"type":"Feature","id":425,"geometry":{"type":"Point","coordinates":[139.74655440000004,35.670686080000053]},"properties":{"OBJECTID":425,"name":"頤和園 霞が関店","lon":139.74655440000001,"lat":35.670686080000003}},{"type":"Feature","id":426,"geometry":{"type":"Point","coordinates":[139.73528300000009,35.689193690000025]},"properties":{"OBJECTID":426,"name":"金市朗","lon":139.73528300000001,"lat":35.689193690000003}},{"type":"Feature","id":427,"geometry":{"type":"Point","coordinates":[139.77336020000007,35.69305206000007]},"properties":{"OBJECTID":427,"name":"焼肉ホルモン せいじ 神田店","lon":139.77336020000001,"lat":35.693052059999999}},{"type":"Feature","id":428,"geometry":{"type":"Point","coordinates":[139.7562329000001,35.694343120000042]},"properties":{"OBJECTID":428,"name":"神保町 喜山倶楽部","lon":139.75623289999999,"lat":35.694343119999999}},{"type":"Feature","id":429,"geometry":{"type":"Point","coordinates":[139.76658750000001,35.696637860000067]},"properties":{"OBJECTID":429,"name":"貸切ダイニング ケーズ","lon":139.76658750000001,"lat":35.696637860000003}},{"type":"Feature","id":430,"geometry":{"type":"Point","coordinates":[139.75016100000005,35.701036650000049]},"properties":{"OBJECTID":430,"name":"越後屋 喜兵衛 水道橋 飯田橋アイガーデンテラス店","lon":139.75016099999999,"lat":35.701036649999999}},{"type":"Feature","id":431,"geometry":{"type":"Point","coordinates":[139.73618920000001,35.684562850000077]},"properties":{"OBJECTID":431,"name":"ゼンカフェ・マリーナ","lon":139.73618920000001,"lat":35.684562849999999}},{"type":"Feature","id":432,"geometry":{"type":"Point","coordinates":[139.73360300000002,35.684347530000025]},"properties":{"OBJECTID":432,"name":"四谷 麹町 和食居酒屋 はじめ食堂","lon":139.73360299999999,"lat":35.684347529999997}},{"type":"Feature","id":433,"geometry":{"type":"Point","coordinates":[139.73321030000011,35.684067270000071]},"properties":{"OBJECTID":433,"name":"姜太公 じゃんたいこう 麹町店","lon":139.7332103,"lat":35.68406727}},{"type":"Feature","id":434,"geometry":{"type":"Point","coordinates":[139.76797350000004,35.690987700000051]},"properties":{"OBJECTID":434,"name":"焼ジビエ 罠 神田店","lon":139.76797350000001,"lat":35.690987700000001}},{"type":"Feature","id":435,"geometry":{"type":"Point","coordinates":[139.76745710000012,35.678807390000031]},"properties":{"OBJECTID":435,"name":"麺処呑み処博多らーめん 由丸 八重洲店","lon":139.7674571,"lat":35.678807390000003}},{"type":"Feature","id":436,"geometry":{"type":"Point","coordinates":[139.76000790000012,35.693404720000046]},"properties":{"OBJECTID":436,"name":"函館　炉端焼きしげぞう","lon":139.76000790000001,"lat":35.693404719999997}},{"type":"Feature","id":437,"geometry":{"type":"Point","coordinates":[139.73523330000012,35.689170080000054]},"properties":{"OBJECTID":437,"name":"焼きとり おでん さかじ","lon":139.7352333,"lat":35.689170079999997}},{"type":"Feature","id":438,"geometry":{"type":"Point","coordinates":[139.76371680000011,35.680321840000033]},"properties":{"OBJECTID":438,"name":"GASTRO-PUB COOPERS クーパーズ 丸の内二丁目店","lon":139.7637168,"lat":35.680321839999998}},{"type":"Feature","id":439,"geometry":{"type":"Point","coordinates":[139.76609230000008,35.695840160000046]},"properties":{"OBJECTID":439,"name":"鰹節丼専門店 節道 BUSHIDO TOKYO 神田淡路町店","lon":139.7660923,"lat":35.695840160000003}},{"type":"Feature","id":440,"geometry":{"type":"Point","coordinates":[139.74343980000003,35.688479550000068]},"properties":{"OBJECTID":440,"name":"ラ ネージュ La Neige","lon":139.7434398,"lat":35.688479549999997}},{"type":"Feature","id":441,"geometry":{"type":"Point","coordinates":[139.76363010000011,35.681097590000036]},"properties":{"OBJECTID":441,"name":"暗闇坂 宮下 丸ビル 丸の内店","lon":139.7636301,"lat":35.68109759}},{"type":"Feature","id":442,"geometry":{"type":"Point","coordinates":[139.76924650000001,35.689324310000075]},"properties":{"OBJECTID":442,"name":"和風きっちん　旬彩庭","lon":139.76924650000001,"lat":35.689324310000003}},{"type":"Feature","id":443,"geometry":{"type":"Point","coordinates":[139.75572670000008,35.699676950000025]},"properties":{"OBJECTID":443,"name":"ふうりゅう 水道橋店","lon":139.7557267,"lat":35.699676949999997}},{"type":"Feature","id":444,"geometry":{"type":"Point","coordinates":[139.76762080000003,35.695976580000035]},"properties":{"OBJECTID":444,"name":"南国亭 神田淡路町店","lon":139.7676208,"lat":35.69597658}},{"type":"Feature","id":445,"geometry":{"type":"Point","coordinates":[139.77041010000005,35.692643690000068]},"properties":{"OBJECTID":445,"name":"九州炭火酒場ばってん はなれ 神田北口店","lon":139.77041009999999,"lat":35.692643689999997}},{"type":"Feature","id":446,"geometry":{"type":"Point","coordinates":[139.76688330000002,35.678038290000075]},"properties":{"OBJECTID":446,"name":"めっせ熊 東京店","lon":139.76688329999999,"lat":35.678038290000003}},{"type":"Feature","id":447,"geometry":{"type":"Point","coordinates":[139.73185310000008,35.686194220000061]},"properties":{"OBJECTID":447,"name":"南国亭 四ツ谷駅前店","lon":139.7318531,"lat":35.686194219999997}},{"type":"Feature","id":448,"geometry":{"type":"Point","coordinates":[139.73899030000007,35.691748500000074]},"properties":{"OBJECTID":448,"name":"焼肉 市ヶ谷牛楽","lon":139.73899030000001,"lat":35.691748500000003}},{"type":"Feature","id":449,"geometry":{"type":"Point","coordinates":[139.73846290000006,35.683447200000046]},"properties":{"OBJECTID":449,"name":"めしと酒 みなと食堂 麹町店","lon":139.7384629,"lat":35.683447200000003}},{"type":"Feature","id":450,"geometry":{"type":"Point","coordinates":[139.78171830000008,35.694060780000029]},"properties":{"OBJECTID":450,"name":"居酒屋いち","lon":139.78171829999999,"lat":35.694060780000001}},{"type":"Feature","id":451,"geometry":{"type":"Point","coordinates":[139.75259070000004,35.701623320000067]},"properties":{"OBJECTID":451,"name":"庄や 水道橋店","lon":139.75259070000001,"lat":35.701623320000003}},{"type":"Feature","id":452,"geometry":{"type":"Point","coordinates":[139.76556520000008,35.687756060000027]},"properties":{"OBJECTID":452,"name":"FALAFEL BROTHERS ファラフェルブラザーズ 大手町店","lon":139.7655652,"lat":35.687756059999998}},{"type":"Feature","id":453,"geometry":{"type":"Point","coordinates":[139.7672950000001,35.69614155000005]},"properties":{"OBJECTID":453,"name":"カプチェット ロッソ","lon":139.76729499999999,"lat":35.69614155}},{"type":"Feature","id":454,"geometry":{"type":"Point","coordinates":[139.77178830000003,35.701138890000038]},"properties":{"OBJECTID":454,"name":"プロースト東京 ソーセージ&燻製バル 秋葉原店","lon":139.7717883,"lat":35.701138890000003}},{"type":"Feature","id":455,"geometry":{"type":"Point","coordinates":[139.75016100000005,35.701036650000049]},"properties":{"OBJECTID":455,"name":"新荘園 水道橋 飯田橋アイガーデンテラス店","lon":139.75016099999999,"lat":35.701036649999999}},{"type":"Feature","id":456,"geometry":{"type":"Point","coordinates":[139.75171490000002,35.696678290000079]},"properties":{"OBJECTID":456,"name":"葉椀 くぼて 九段下駅前店","lon":139.7517149,"lat":35.696678290000001}},{"type":"Feature","id":457,"geometry":{"type":"Point","coordinates":[139.74555080000005,35.699978310000063]},"properties":{"OBJECTID":457,"name":"和びすとろ SAKU","lon":139.74555079999999,"lat":35.699978309999999}},{"type":"Feature","id":458,"geometry":{"type":"Point","coordinates":[139.77011880000009,35.691219120000028]},"properties":{"OBJECTID":458,"name":"ダーツカフェデルタ DartsCafeDELTA 神田店","lon":139.77011880000001,"lat":35.69121912}},{"type":"Feature","id":459,"geometry":{"type":"Point","coordinates":[139.76661160000003,35.699634470000035]},"properties":{"OBJECTID":459,"name":"701 ナナマルイチ","lon":139.7666116,"lat":35.699634469999999}},{"type":"Feature","id":460,"geometry":{"type":"Point","coordinates":[139.73580150000009,35.690183870000055]},"properties":{"OBJECTID":460,"name":"北海道はでっかい道 オホーツクの恵み 湧別町 市ヶ谷店","lon":139.73580150000001,"lat":35.690183869999998}},{"type":"Feature","id":461,"geometry":{"type":"Point","coordinates":[139.77144370000008,35.691529400000036]},"properties":{"OBJECTID":461,"name":"やきとん筑前屋 神田店","lon":139.77144369999999,"lat":35.6915294}},{"type":"Feature","id":462,"geometry":{"type":"Point","coordinates":[139.73672790000012,35.682358390000047]},"properties":{"OBJECTID":462,"name":"麹町ゴルフクラブ【シュミレーションゴルフ×貸切個室×飲み放題】四谷・麹町・半蔵門","lon":139.73672790000001,"lat":35.682358389999997}},{"type":"Feature","id":463,"geometry":{"type":"Point","coordinates":[139.74489750000009,35.700742930000047]},"properties":{"OBJECTID":463,"name":"Darts UP ダーツ アップ 飯田橋","lon":139.74489750000001,"lat":35.700742929999997}},{"type":"Feature","id":464,"geometry":{"type":"Point","coordinates":[139.76756820000003,35.691349320000029]},"properties":{"OBJECTID":464,"name":"やきとり道場 神田西口店","lon":139.7675682,"lat":35.69134932}},{"type":"Feature","id":465,"geometry":{"type":"Point","coordinates":[139.77012590000004,35.702191220000032]},"properties":{"OBJECTID":465,"name":"Shisha Cafe&Lounge KEMURI LAB 秋葉原シーシャ","lon":139.77012590000001,"lat":35.702191220000003}},{"type":"Feature","id":466,"geometry":{"type":"Point","coordinates":[139.73753070000009,35.691862620000052]},"properties":{"OBJECTID":466,"name":"中国料理 翠","lon":139.73753070000001,"lat":35.691862620000002}},{"type":"Feature","id":467,"geometry":{"type":"Point","coordinates":[139.76479450000011,35.686407020000047]},"properties":{"OBJECTID":467,"name":"Cafe&Dining Sanmari サンマリ 大手町ビル店","lon":139.76479449999999,"lat":35.686407019999997}},{"type":"Feature","id":468,"geometry":{"type":"Point","coordinates":[139.7321912000001,35.685551520000047]},"properties":{"OBJECTID":468,"name":"中華居酒屋 福満居","lon":139.73219119999999,"lat":35.685551519999997}},{"type":"Feature","id":469,"geometry":{"type":"Point","coordinates":[139.75037050000003,35.670915040000068]},"properties":{"OBJECTID":469,"name":"虎の門 福禄寿蕎麦","lon":139.7503705,"lat":35.670915039999997}},{"type":"Feature","id":470,"geometry":{"type":"Point","coordinates":[139.73835020000001,35.683368870000038]},"properties":{"OBJECTID":470,"name":"銀莱 麹町店","lon":139.73835020000001,"lat":35.683368870000002}},{"type":"Feature","id":471,"geometry":{"type":"Point","coordinates":[139.77277440000012,35.693318960000056]},"properties":{"OBJECTID":471,"name":"周庵 神田","lon":139.7727744,"lat":35.693318959999999}},