{
  "type" : "FeatureCollection",
  "features" : [{"type":"Feature","id":1,"geometry":{"type":"Point","coordinates":[139.76999020000005,35.70459500000004]},"properties":{"OBJECTID":1,"name":"gooddaysホールディングス株式会社","lon":139.7699902,"lat":35.704594999999998}},{"type":"Feature","id":2,"geometry":{"type":"Point","coordinates":[139.69959340000003,35.657150900000033]},"properties":{"OBJECTID":2,"name":"Foobe株式会社","lon":139.6995934,"lat":35.657150899999998}},{"type":"Feature","id":3,"geometry":{"type":"Point","coordinates":[139.71010520000004,35.649807200000055]},"properties":{"OBJECTID":3,"name":"株式会社GA-YA-CHA","lon":139.71010519999999,"lat":35.649807199999998}},{"type":"Feature","id":4,"geometry":{"type":"Point","coordinates":[139.68763270000011,35.716251800000066]},"properties":{"OBJECTID":4,"name":"株式会社東京","lon":139.68763269999999,"lat":35.716251800000002}},{"type":"Feature","id":5,"geometry":{"type":"Point","coordinates":[139.73810180000009,35.685698800000068]},"properties":{"OBJECTID":5,"name":"株式会社ハイパータッチ","lon":139.73810180000001,"lat":35.685698799999997}},{"type":"Feature","id":6,"geometry":{"type":"Point","coordinates":[139.73734400000012,35.685569600000065]},"properties":{"OBJECTID":6,"name":"株式会社ナレルグループ","lon":139.73734400000001,"lat":35.685569600000001}},{"type":"Feature","id":7,"geometry":{"type":"Point","coordinates":[139.68770110000003,35.694027500000061]},"properties":{"OBJECTID":7,"name":"エリアビイジャパン株式会社","lon":139.6877011,"lat":35.694027499999997}},{"type":"Feature","id":8,"geometry":{"type":"Point","coordinates":[139.71220670000002,35.689055800000062]},"properties":{"OBJECTID":8,"name":"株式会社Prediction","lon":139.7122067,"lat":35.689055799999998}},{"type":"Feature","id":9,"geometry":{"type":"Point","coordinates":[139.71876340000006,35.688711200000057]},"properties":{"OBJECTID":9,"name":"株式会社GOYOH","lon":139.7187634,"lat":35.6887112}},{"type":"Feature","id":10,"geometry":{"type":"Point","coordinates":[139.71805450000011,35.690255200000024]},"properties":{"OBJECTID":10,"name":"株式会社ClubT","lon":139.71805449999999,"lat":35.690255200000003}},{"type":"Feature","id":11,"geometry":{"type":"Point","coordinates":[139.71805450000011,35.690255200000024]},"properties":{"OBJECTID":11,"name":"株式会社HRデータラボ","lon":139.71805449999999,"lat":35.690255200000003}},{"type":"Feature","id":12,"geometry":{"type":"Point","coordinates":[139.71993050000003,35.69164470000004]},"properties":{"OBJECTID":12,"name":"リーテックス株式会社","lon":139.7199305,"lat":35.691644699999998}},{"type":"Feature","id":13,"geometry":{"type":"Point","coordinates":[139.71993050000003,35.69164470000004]},"properties":{"OBJECTID":13,"name":"リーテックス株式会社","lon":139.7199305,"lat":35.691644699999998}},{"type":"Feature","id":14,"geometry":{"type":"Point","coordinates":[139.71952700000008,35.69163640000005]},"properties":{"OBJECTID":14,"name":"株式会社メディアグリッド","lon":139.719527,"lat":35.6916364}},{"type":"Feature","id":15,"geometry":{"type":"Point","coordinates":[139.71948160000011,35.690648800000076]},"properties":{"OBJECTID":15,"name":"株式会社エコトバ","lon":139.71948159999999,"lat":35.690648799999998}},{"type":"Feature","id":16,"geometry":{"type":"Point","coordinates":[139.71918240000002,35.691514500000039]},"properties":{"OBJECTID":16,"name":"PRIME HOLDINGS株式会社","lon":139.71918239999999,"lat":35.691514499999997}},{"type":"Feature","id":17,"geometry":{"type":"Point","coordinates":[139.71918240000002,35.691514500000039]},"properties":{"OBJECTID":17,"name":"PRIME HOLDINGS株式会社","lon":139.71918239999999,"lat":35.691514499999997}},{"type":"Feature","id":18,"geometry":{"type":"Point","coordinates":[139.71918240000002,35.691514500000039]},"properties":{"OBJECTID":18,"name":"ファンタジーリゾート株式会社","lon":139.71918239999999,"lat":35.691514499999997}},{"type":"Feature","id":19,"geometry":{"type":"Point","coordinates":[139.7488929000001,35.662140900000054]},"properties":{"OBJECTID":19,"name":"株式会社Info Deliver","lon":139.74889289999999,"lat":35.662140899999997}},{"type":"Feature","id":20,"geometry":{"type":"Point","coordinates":[139.7488929000001,35.662140900000054]},"properties":{"OBJECTID":20,"name":"株式会社ＬＴＴバイオファーマ","lon":139.74889289999999,"lat":35.662140899999997}},{"type":"Feature","id":21,"geometry":{"type":"Point","coordinates":[139.7488929000001,35.662140900000054]},"properties":{"OBJECTID":21,"name":"PGMホールディングス株式会社","lon":139.74889289999999,"lat":35.662140899999997}},{"type":"Feature","id":22,"geometry":{"type":"Point","coordinates":[139.7488929000001,35.662140900000054]},"properties":{"OBJECTID":22,"name":"PGMホールディングス株式会社","lon":139.74889289999999,"lat":35.662140899999997}},{"type":"Feature","id":23,"geometry":{"type":"Point","coordinates":[139.7488929000001,35.662140900000054]},"properties":{"OBJECTID":23,"name":"Appier Group株式会社","lon":139.74889289999999,"lat":35.662140899999997}},{"type":"Feature","id":24,"geometry":{"type":"Point","coordinates":[139.7488929000001,35.662140900000054]},"properties":{"OBJECTID":24,"name":"株式会社ラキール","lon":139.74889289999999,"lat":35.662140899999997}},{"type":"Feature","id":25,"geometry":{"type":"Point","coordinates":[139.7488929000001,35.662140900000054]},"properties":{"OBJECTID":25,"name":"株式会社ＬＴＴバイオファーマ","lon":139.74889289999999,"lat":35.662140899999997}},{"type":"Feature","id":26,"geometry":{"type":"Point","coordinates":[139.7488929000001,35.662140900000054]},"properties":{"OBJECTID":26,"name":"株式会社センシング","lon":139.74889289999999,"lat":35.662140899999997}},{"type":"Feature","id":27,"geometry":{"type":"Point","coordinates":[139.7488929000001,35.662140900000054]},"properties":{"OBJECTID":27,"name":"株式会社トゥエンティーフォーセブン","lon":139.74889289999999,"lat":35.662140899999997}},{"type":"Feature","id":28,"geometry":{"type":"Point","coordinates":[139.7488929000001,35.662140900000054]},"properties":{"OBJECTID":28,"name":"バリオセキュア株式会社","lon":139.74889289999999,"lat":35.662140899999997}},{"type":"Feature","id":29,"geometry":{"type":"Point","coordinates":[139.7488929000001,35.662140900000054]},"properties":{"OBJECTID":29,"name":"イヴレス株式会社","lon":139.74889289999999,"lat":35.662140899999997}},{"type":"Feature","id":30,"geometry":{"type":"Point","coordinates":[139.7488929000001,35.662140900000054]},"properties":{"OBJECTID":30,"name":"株式会社ソフトニック","lon":139.74889289999999,"lat":35.662140899999997}},{"type":"Feature","id":31,"geometry":{"type":"Point","coordinates":[139.7488929000001,35.662140900000054]},"properties":{"OBJECTID":31,"name":"VANDDD株式会社","lon":139.74889289999999,"lat":35.662140899999997}},{"type":"Feature","id":32,"geometry":{"type":"Point","coordinates":[139.7488929000001,35.662140900000054]},"properties":{"OBJECTID":32,"name":"株式会社ソフトニック","lon":139.74889289999999,"lat":35.662140899999997}},{"type":"Feature","id":33,"geometry":{"type":"Point","coordinates":[139.7488929000001,35.662140900000054]},"properties":{"OBJECTID":33,"name":"株式会社エンバーク","lon":139.74889289999999,"lat":35.662140899999997}},{"type":"Feature","id":34,"geometry":{"type":"Point","coordinates":[139.7488929000001,35.662140900000054]},"properties":{"OBJECTID":34,"name":"株式会社エンバーク","lon":139.74889289999999,"lat":35.662140899999997}},{"type":"Feature","id":35,"geometry":{"type":"Point","coordinates":[139.7488929000001,35.662140900000054]},"properties":{"OBJECTID":35,"name":"UHS株式会社","lon":139.74889289999999,"lat":35.662140899999997}},{"type":"Feature","id":36,"geometry":{"type":"Point","coordinates":[139.7488929000001,35.662140900000054]},"properties":{"OBJECTID":36,"name":"株式会社エンバーク","lon":139.74889289999999,"lat":35.662140899999997}},{"type":"Feature","id":37,"geometry":{"type":"Point","coordinates":[139.7488929000001,35.662140900000054]},"properties":{"OBJECTID":37,"name":"UHS株式会社","lon":139.74889289999999,"lat":35.662140899999997}},{"type":"Feature","id":38,"geometry":{"type":"Point","coordinates":[139.7488929000001,35.662140900000054]},"properties":{"OBJECTID":38,"name":"VANDDD株式会社","lon":139.74889289999999,"lat":35.662140899999997}},{"type":"Feature","id":39,"geometry":{"type":"Point","coordinates":[139.7488929000001,35.662140900000054]},"properties":{"OBJECTID":39,"name":"Priv Tech株式会社","lon":139.74889289999999,"lat":35.662140899999997}},{"type":"Feature","id":40,"geometry":{"type":"Point","coordinates":[139.7488929000001,35.662140900000054]},"properties":{"OBJECTID":40,"name":"シェアード・モビリティ・ネットワークス株式会社","lon":139.74889289999999,"lat":35.662140899999997}},{"type":"Feature","id":41,"geometry":{"type":"Point","coordinates":[139.7488929000001,35.662140900000054]},"properties":{"OBJECTID":41,"name":"株式会社X Capital","lon":139.74889289999999,"lat":35.662140899999997}},{"type":"Feature","id":42,"geometry":{"type":"Point","coordinates":[139.7488929000001,35.662140900000054]},"properties":{"OBJECTID":42,"name":"AIVy株式会社","lon":139.74889289999999,"lat":35.662140899999997}},{"type":"Feature","id":43,"geometry":{"type":"Point","coordinates":[139.75746140000001,35.690919500000064]},"properties":{"OBJECTID":43,"name":"株式会社パソナ","lon":139.75746140000001,"lat":35.6909195}},{"type":"Feature","id":44,"geometry":{"type":"Point","coordinates":[139.75746140000001,35.690919500000064]},"properties":{"OBJECTID":44,"name":"株式会社パソナ","lon":139.75746140000001,"lat":35.6909195}},{"type":"Feature","id":45,"geometry":{"type":"Point","coordinates":[139.75746140000001,35.690919500000064]},"properties":{"OBJECTID":45,"name":"株式会社MyAnimeList","lon":139.75746140000001,"lat":35.6909195}},{"type":"Feature","id":46,"geometry":{"type":"Point","coordinates":[139.75650310000003,35.692113200000051]},"properties":{"OBJECTID":46,"name":"株式会社ノンピ","lon":139.7565031,"lat":35.692113200000001}},{"type":"Feature","id":47,"geometry":{"type":"Point","coordinates":[139.75746140000001,35.690919500000064]},"properties":{"OBJECTID":47,"name":"ラクラス株式会社","lon":139.75746140000001,"lat":35.6909195}},{"type":"Feature","id":48,"geometry":{"type":"Point","coordinates":[139.75746140000001,35.690919500000064]},"properties":{"OBJECTID":48,"name":"株式会社フライヤー","lon":139.75746140000001,"lat":35.6909195}},{"type":"Feature","id":49,"geometry":{"type":"Point","coordinates":[139.75746140000001,35.690919500000064]},"properties":{"OBJECTID":49,"name":"株式会社マンガ新聞","lon":139.75746140000001,"lat":35.6909195}},{"type":"Feature","id":50,"geometry":{"type":"Point","coordinates":[139.75703210000006,35.694790900000044]},"properties":{"OBJECTID":50,"name":"株式会社hon.jp","lon":139.7570321,"lat":35.694790900000001}},{"type":"Feature","id":51,"geometry":{"type":"Point","coordinates":[139.75630340000009,35.694579300000044]},"properties":{"OBJECTID":51,"name":"ビーパートナーズ株式会社","lon":139.75630340000001,"lat":35.694579300000001}},{"type":"Feature","id":52,"geometry":{"type":"Point","coordinates":[139.75765530000001,35.694676400000048]},"properties":{"OBJECTID":52,"name":"株式会社ラネクシー","lon":139.75765530000001,"lat":35.694676399999999}},{"type":"Feature","id":53,"geometry":{"type":"Point","coordinates":[139.75765530000001,35.694676400000048]},"properties":{"OBJECTID":53,"name":"株式会社エディックワークス","lon":139.75765530000001,"lat":35.694676399999999}},{"type":"Feature","id":54,"geometry":{"type":"Point","coordinates":[139.75765530000001,35.694676400000048]},"properties":{"OBJECTID":54,"name":"株式会社ミックスネットワーク","lon":139.75765530000001,"lat":35.694676399999999}},{"type":"Feature","id":55,"geometry":{"type":"Point","coordinates":[139.74035700000002,35.687164000000053]},"properties":{"OBJECTID":55,"name":"そーせいグループ株式会社","lon":139.74035699999999,"lat":35.687164000000003}},{"type":"Feature","id":56,"geometry":{"type":"Point","coordinates":[139.74135380000007,35.687288600000045]},"properties":{"OBJECTID":56,"name":"WellsTech株式会社","lon":139.74135380000001,"lat":35.687288600000002}},{"type":"Feature","id":57,"geometry":{"type":"Point","coordinates":[139.74081690000003,35.686010600000031]},"properties":{"OBJECTID":57,"name":"株式会社JET","lon":139.7408169,"lat":35.686010600000003}},{"type":"Feature","id":58,"geometry":{"type":"Point","coordinates":[139.74183140000002,35.687608500000067]},"properties":{"OBJECTID":58,"name":"株式会社クロスラボ","lon":139.7418314,"lat":35.687608500000003}},{"type":"Feature","id":59,"geometry":{"type":"Point","coordinates":[139.74183140000002,35.687608500000067]},"properties":{"OBJECTID":59,"name":"Karydo TherapeutiX株式会社","lon":139.7418314,"lat":35.687608500000003}},{"type":"Feature","id":60,"geometry":{"type":"Point","coordinates":[139.74033450000002,35.687169200000028]},"properties":{"OBJECTID":60,"name":"e-Janネットワークス株式会社","lon":139.74033449999999,"lat":35.6871692}},{"type":"Feature","id":61,"geometry":{"type":"Point","coordinates":[139.74183140000002,35.687608500000067]},"properties":{"OBJECTID":61,"name":"モード・フィルム株式会社","lon":139.7418314,"lat":35.687608500000003}},{"type":"Feature","id":62,"geometry":{"type":"Point","coordinates":[139.74183140000002,35.687608500000067]},"properties":{"OBJECTID":62,"name":"Karydo TherapeutiX株式会社","lon":139.7418314,"lat":35.687608500000003}},{"type":"Feature","id":63,"geometry":{"type":"Point","coordinates":[139.74183140000002,35.687608500000067]},"properties":{"OBJECTID":63,"name":"AICRO株式会社","lon":139.7418314,"lat":35.687608500000003}},{"type":"Feature","id":64,"geometry":{"type":"Point","coordinates":[139.74230360000001,35.688570200000072]},"properties":{"OBJECTID":64,"name":"株式会社デジタルアセットマーケッツ","lon":139.74230360000001,"lat":35.688570200000001}},{"type":"Feature","id":65,"geometry":{"type":"Point","coordinates":[139.74033450000002,35.687169200000028]},"properties":{"OBJECTID":65,"name":"READYFOR株式会社","lon":139.74033449999999,"lat":35.6871692}},{"type":"Feature","id":66,"geometry":{"type":"Point","coordinates":[139.74183140000002,35.687608500000067]},"properties":{"OBJECTID":66,"name":"バイオコーク技研株式会社","lon":139.7418314,"lat":35.687608500000003}},{"type":"Feature","id":67,"geometry":{"type":"Point","coordinates":[139.7418540000001,35.687589100000025]},"properties":{"OBJECTID":67,"name":"株式会社ゴーレム","lon":139.74185399999999,"lat":35.687589099999997}},{"type":"Feature","id":68,"geometry":{"type":"Point","coordinates":[139.7418540000001,35.687589100000025]},"properties":{"OBJECTID":68,"name":"DAC-NOTE株式会社","lon":139.74185399999999,"lat":35.687589099999997}},{"type":"Feature","id":69,"geometry":{"type":"Point","coordinates":[139.73993540000004,35.686650500000042]},"properties":{"OBJECTID":69,"name":"株式会社理研免疫再生医学","lon":139.73993540000001,"lat":35.686650499999999}},{"type":"Feature","id":70,"geometry":{"type":"Point","coordinates":[139.73977570000011,35.686586400000067]},"properties":{"OBJECTID":70,"name":"合同会社ユビキタスライフスタイル研究所","lon":139.7397757,"lat":35.686586400000003}},{"type":"Feature","id":71,"geometry":{"type":"Point","coordinates":[139.73955620000004,35.68644450000005]},"properties":{"OBJECTID":71,"name":"株式会社イージス・ソリューションズ","lon":139.73955620000001,"lat":35.6864445}},{"type":"Feature","id":72,"geometry":{"type":"Point","coordinates":[139.73955620000004,35.68644450000005]},"properties":{"OBJECTID":72,"name":"株式会社イージス・ソリューションズ","lon":139.73955620000001,"lat":35.6864445}},{"type":"Feature","id":73,"geometry":{"type":"Point","coordinates":[139.74072300000012,35.686678200000074]},"properties":{"OBJECTID":73,"name":"株式会社イクス-ビジネスプロデューサーズ","lon":139.740723,"lat":35.686678200000003}},{"type":"Feature","id":74,"geometry":{"type":"Point","coordinates":[139.74162510000008,35.688218400000039]},"properties":{"OBJECTID":74,"name":"株式会社FOLIO","lon":139.74162509999999,"lat":35.688218399999997}},{"type":"Feature","id":75,"geometry":{"type":"Point","coordinates":[139.74162510000008,35.688218400000039]},"properties":{"OBJECTID":75,"name":"株式会社FOLIOホールディングス","lon":139.74162509999999,"lat":35.688218399999997}},{"type":"Feature","id":76,"geometry":{"type":"Point","coordinates":[139.74034860000006,35.686003000000028]},"properties":{"OBJECTID":76,"name":"Rekoo Japan株式会社","lon":139.7403486,"lat":35.686002999999999}},{"type":"Feature","id":77,"geometry":{"type":"Point","coordinates":[139.74048830000004,35.686220400000025]},"properties":{"OBJECTID":77,"name":"株式会社メガフュージョン","lon":139.74048830000001,"lat":35.686220400000003}},{"type":"Feature","id":78,"geometry":{"type":"Point","coordinates":[139.74048830000004,35.686220400000025]},"properties":{"OBJECTID":78,"name":"mixtape合同会社","lon":139.74048830000001,"lat":35.686220400000003}},{"type":"Feature","id":79,"geometry":{"type":"Point","coordinates":[139.74048830000004,35.686220400000025]},"properties":{"OBJECTID":79,"name":"株式会社ベーシック","lon":139.74048830000001,"lat":35.686220400000003}},{"type":"Feature","id":80,"geometry":{"type":"Point","coordinates":[139.74046520000002,35.686219100000073]},"properties":{"OBJECTID":80,"name":"株式会社フルセイル","lon":139.74046519999999,"lat":35.686219100000002}},{"type":"Feature","id":81,"geometry":{"type":"Point","coordinates":[139.74017760000004,35.68853850000005]},"properties":{"OBJECTID":81,"name":"株式会社DoctorPlus","lon":139.74017760000001,"lat":35.6885385}},{"type":"Feature","id":82,"geometry":{"type":"Point","coordinates":[139.74017760000004,35.68853850000005]},"properties":{"OBJECTID":82,"name":"株式会社Cardio Flow Design","lon":139.74017760000001,"lat":35.6885385}},{"type":"Feature","id":83,"geometry":{"type":"Point","coordinates":[139.74017760000004,35.68853850000005]},"properties":{"OBJECTID":83,"name":"株式会社アンチキャンサーテクノロジズ","lon":139.74017760000001,"lat":35.6885385}},{"type":"Feature","id":84,"geometry":{"type":"Point","coordinates":[139.74430640000003,35.688422200000048]},"properties":{"OBJECTID":84,"name":"株式会社TOLOT","lon":139.7443064,"lat":35.688422199999998}},{"type":"Feature","id":85,"geometry":{"type":"Point","coordinates":[139.74430640000003,35.688422200000048]},"properties":{"OBJECTID":85,"name":"株式会社アトム","lon":139.7443064,"lat":35.688422199999998}},{"type":"Feature","id":86,"geometry":{"type":"Point","coordinates":[139.74430640000003,35.688422200000048]},"properties":{"OBJECTID":86,"name":"株式会社ジャパンタイムズキューブ","lon":139.7443064,"lat":35.688422199999998}},{"type":"Feature","id":87,"geometry":{"type":"Point","coordinates":[139.74329860000012,35.688212100000044]},"properties":{"OBJECTID":87,"name":"ピックハイブ株式会社","lon":139.7432986,"lat":35.688212100000001}},{"type":"Feature","id":88,"geometry":{"type":"Point","coordinates":[139.74345290000008,35.688413300000036]},"properties":{"OBJECTID":88,"name":"株式会社トレードワークス","lon":139.74345289999999,"lat":35.688413300000001}},{"type":"Feature","id":89,"geometry":{"type":"Point","coordinates":[139.74345290000008,35.688413300000036]},"properties":{"OBJECTID":89,"name":"イグナイトアイ株式会社","lon":139.74345289999999,"lat":35.688413300000001}},{"type":"Feature","id":90,"geometry":{"type":"Point","coordinates":[139.74345290000008,35.688413300000036]},"properties":{"OBJECTID":90,"name":"playground株式会社","lon":139.74345289999999,"lat":35.688413300000001}},{"type":"Feature","id":91,"geometry":{"type":"Point","coordinates":[139.74345290000008,35.688413300000036]},"properties":{"OBJECTID":91,"name":"playground株式会社","lon":139.74345289999999,"lat":35.688413300000001}},{"type":"Feature","id":92,"geometry":{"type":"Point","coordinates":[139.74268670000004,35.68746120000003]},"properties":{"OBJECTID":92,"name":"株式会社UniBis","lon":139.74268670000001,"lat":35.687461200000001}},{"type":"Feature","id":93,"geometry":{"type":"Point","coordinates":[139.74286930000005,35.687307700000076]},"properties":{"OBJECTID":93,"name":"リテラス・メディカ株式会社","lon":139.7428693,"lat":35.687307699999998}},{"type":"Feature","id":94,"geometry":{"type":"Point","coordinates":[139.69825710000009,35.662154000000044]},"properties":{"OBJECTID":94,"name":"カエルム株式会社","lon":139.69825710000001,"lat":35.662154000000001}},{"type":"Feature","id":95,"geometry":{"type":"Point","coordinates":[139.69825710000009,35.662154000000044]},"properties":{"OBJECTID":95,"name":"カエルム株式会社","lon":139.69825710000001,"lat":35.662154000000001}},{"type":"Feature","id":96,"geometry":{"type":"Point","coordinates":[139.69825710000009,35.662154000000044]},"properties":{"OBJECTID":96,"name":"株式会社スムーズ","lon":139.69825710000001,"lat":35.662154000000001}},{"type":"Feature","id":97,"geometry":{"type":"Point","coordinates":[139.69825710000009,35.662154000000044]},"properties":{"OBJECTID":97,"name":"株式会社eventures","lon":139.69825710000001,"lat":35.662154000000001}},{"type":"Feature","id":98,"geometry":{"type":"Point","coordinates":[139.69901500000003,35.660844900000029]},"properties":{"OBJECTID":98,"name":"株式会社Engineerforce","lon":139.699015,"lat":35.660844900000001}},{"type":"Feature","id":99,"geometry":{"type":"Point","coordinates":[139.69951680000008,35.66168760000005]},"properties":{"OBJECTID":99,"name":"マテバ株式会社","lon":139.6995168,"lat":35.6616876}},{"type":"Feature","id":100,"geometry":{"type":"Point","coordinates":[139.69875570000011,35.663663000000042]},"properties":{"OBJECTID":100,"name":"goooods株式会社","lon":139.69875569999999,"lat":35.663663}},{"type":"Feature","id":101,"geometry":{"type":"Point","coordinates":[139.69875570000011,35.663663000000042]},"properties":{"OBJECTID":101,"name":"cocoa motors.株式会社","lon":139.69875569999999,"lat":35.663663}},{"type":"Feature","id":102,"geometry":{"type":"Point","coordinates":[139.69875570000011,35.663663000000042]},"properties":{"OBJECTID":102,"name":"RoboMarketer株式会社","lon":139.69875569999999,"lat":35.663663}},{"type":"Feature","id":103,"geometry":{"type":"Point","coordinates":[139.69875570000011,35.663663000000042]},"properties":{"OBJECTID":103,"name":"株式会社ユウトハンズ","lon":139.69875569999999,"lat":35.663663}},{"type":"Feature","id":104,"geometry":{"type":"Point","coordinates":[139.69875570000011,35.663663000000042]},"properties":{"OBJECTID":104,"name":"株式会社ピリカ","lon":139.69875569999999,"lat":35.663663}},{"type":"Feature","id":105,"geometry":{"type":"Point","coordinates":[139.69875570000011,35.663663000000042]},"properties":{"OBJECTID":105,"name":"Cynack株式会社","lon":139.69875569999999,"lat":35.663663}},{"type":"Feature","id":106,"geometry":{"type":"Point","coordinates":[139.69875570000011,35.663663000000042]},"properties":{"OBJECTID":106,"name":"株式会社banshaku","lon":139.69875569999999,"lat":35.663663}},{"type":"Feature","id":107,"geometry":{"type":"Point","coordinates":[139.69875570000011,35.663663000000042]},"properties":{"OBJECTID":107,"name":"エクスプリズム株式会社","lon":139.69875569999999,"lat":35.663663}},{"type":"Feature","id":108,"geometry":{"type":"Point","coordinates":[139.69875570000011,35.663663000000042]},"properties":{"OBJECTID":108,"name":"Coeto株式会社","lon":139.69875569999999,"lat":35.663663}},{"type":"Feature","id":109,"geometry":{"type":"Point","coordinates":[139.69875570000011,35.663663000000042]},"properties":{"OBJECTID":109,"name":"KNOWTE株式会社","lon":139.69875569999999,"lat":35.663663}},{"type":"Feature","id":110,"geometry":{"type":"Point","coordinates":[139.69875570000011,35.663663000000042]},"properties":{"OBJECTID":110,"name":"モバイルバリュージャパン株式会社","lon":139.69875569999999,"lat":35.663663}},{"type":"Feature","id":111,"geometry":{"type":"Point","coordinates":[139.69875570000011,35.663663000000042]},"properties":{"OBJECTID":111,"name":"TieUps株式会社","lon":139.69875569999999,"lat":35.663663}},{"type":"Feature","id":112,"geometry":{"type":"Point","coordinates":[139.69875570000011,35.663663000000042]},"properties":{"OBJECTID":112,"name":"THINGMEDIA株式会社","lon":139.69875569999999,"lat":35.663663}},{"type":"Feature","id":113,"geometry":{"type":"Point","coordinates":[139.69875570000011,35.663663000000042]},"properties":{"OBJECTID":113,"name":"goooods株式会社","lon":139.69875569999999,"lat":35.663663}},{"type":"Feature","id":114,"geometry":{"type":"Point","coordinates":[139.69785820000004,35.661348300000043]},"properties":{"OBJECTID":114,"name":"株式会社ウェリコ","lon":139.69785820000001,"lat":35.6613483}},{"type":"Feature","id":115,"geometry":{"type":"Point","coordinates":[139.69708040000012,35.660838600000034]},"properties":{"OBJECTID":115,"name":"株式会社スペースマネジメント","lon":139.6970804,"lat":35.660838599999998}},{"type":"Feature","id":116,"geometry":{"type":"Point","coordinates":[139.69708040000012,35.660838600000034]},"properties":{"OBJECTID":116,"name":"株式会社あどばる","lon":139.6970804,"lat":35.660838599999998}},{"type":"Feature","id":117,"geometry":{"type":"Point","coordinates":[139.69713430000002,35.660866800000065]},"properties":{"OBJECTID":117,"name":"株式会社エージェント","lon":139.69713429999999,"lat":35.660866800000001}},{"type":"Feature","id":118,"geometry":{"type":"Point","coordinates":[139.69647590000011,35.661073200000033]},"properties":{"OBJECTID":118,"name":"株式会社SUECCO","lon":139.6964759,"lat":35.661073199999997}},{"type":"Feature","id":119,"geometry":{"type":"Point","coordinates":[139.69724000000008,35.662050100000044]},"properties":{"OBJECTID":119,"name":"セルディア株式会社","lon":139.69723999999999,"lat":35.662050100000002}},{"type":"Feature","id":120,"geometry":{"type":"Point","coordinates":[139.69724000000008,35.662050100000044]},"properties":{"OBJECTID":120,"name":"microverse株式会社","lon":139.69723999999999,"lat":35.662050100000002}},{"type":"Feature","id":121,"geometry":{"type":"Point","coordinates":[139.69746880000002,35.661721600000078]},"properties":{"OBJECTID":121,"name":"株式会社Alfree","lon":139.6974688,"lat":35.6617216}},{"type":"Feature","id":122,"geometry":{"type":"Point","coordinates":[139.69746880000002,35.661721600000078]},"properties":{"OBJECTID":122,"name":"株式会社Alfree","lon":139.6974688,"lat":35.6617216}},{"type":"Feature","id":123,"geometry":{"type":"Point","coordinates":[139.69746880000002,35.661721600000078]},"properties":{"OBJECTID":123,"name":"株式会社YOUPACE","lon":139.6974688,"lat":35.6617216}},{"type":"Feature","id":124,"geometry":{"type":"Point","coordinates":[139.69698070000004,35.661999700000024]},"properties":{"OBJECTID":124,"name":"Wellen株式会社","lon":139.69698070000001,"lat":35.661999700000003}},{"type":"Feature","id":125,"geometry":{"type":"Point","coordinates":[139.69708040000012,35.662129400000026]},"properties":{"OBJECTID":125,"name":"株式会社LIMHAUS","lon":139.6970804,"lat":35.662129399999998}},{"type":"Feature","id":126,"geometry":{"type":"Point","coordinates":[139.69708040000012,35.662129400000026]},"properties":{"OBJECTID":126,"name":"株式会社LIMHAUS","lon":139.6970804,"lat":35.662129399999998}},{"type":"Feature","id":127,"geometry":{"type":"Point","coordinates":[139.69698070000004,35.661999700000024]},"properties":{"OBJECTID":127,"name":"株式会社Muscle Deli","lon":139.69698070000001,"lat":35.661999700000003}},{"type":"Feature","id":128,"geometry":{"type":"Point","coordinates":[139.69747930000005,35.661787700000048]},"properties":{"OBJECTID":128,"name":"株式会社スタートアップテクノロジー","lon":139.6974793,"lat":35.661787699999998}},{"type":"Feature","id":129,"geometry":{"type":"Point","coordinates":[139.69698070000004,35.661999700000024]},"properties":{"OBJECTID":129,"name":"C&H株式会社","lon":139.69698070000001,"lat":35.661999700000003}},{"type":"Feature","id":130,"geometry":{"type":"Point","coordinates":[139.69514590000006,35.662660900000049]},"properties":{"OBJECTID":130,"name":"Le Comptoir合同会社","lon":139.6951459,"lat":35.662660899999999}},{"type":"Feature","id":131,"geometry":{"type":"Point","coordinates":[139.69514590000006,35.662660900000049]},"properties":{"OBJECTID":131,"name":"Le Comptoir合同会社","lon":139.6951459,"lat":35.662660899999999}},{"type":"Feature","id":132,"geometry":{"type":"Point","coordinates":[139.69522570000004,35.662549500000068]},"properties":{"OBJECTID":132,"name":"株式会社GREENING","lon":139.69522570000001,"lat":35.662549499999997}},{"type":"Feature","id":133,"geometry":{"type":"Point","coordinates":[139.69556470000009,35.662237600000026]},"properties":{"OBJECTID":133,"name":"株式会社Mentor For","lon":139.69556470000001,"lat":35.662237599999997}},{"type":"Feature","id":134,"geometry":{"type":"Point","coordinates":[139.69564450000007,35.662126200000046]},"properties":{"OBJECTID":134,"name":"株式会社Hagakure","lon":139.69564449999999,"lat":35.662126200000003}},{"type":"Feature","id":135,"geometry":{"type":"Point","coordinates":[139.69564450000007,35.662126200000046]},"properties":{"OBJECTID":135,"name":"ZEROUM株式会社","lon":139.69564449999999,"lat":35.662126200000003}},{"type":"Feature","id":136,"geometry":{"type":"Point","coordinates":[139.69564450000007,35.662126200000046]},"properties":{"OBJECTID":136,"name":"株式会社ダイレクトバンクス","lon":139.69564449999999,"lat":35.662126200000003}},{"type":"Feature","id":137,"geometry":{"type":"Point","coordinates":[139.69564450000007,35.662126200000046]},"properties":{"OBJECTID":137,"name":"株式会社ダイレクトバンクス","lon":139.69564449999999,"lat":35.662126200000003}},{"type":"Feature","id":138,"geometry":{"type":"Point","coordinates":[139.69514590000006,35.662660900000049]},"properties":{"OBJECTID":138,"name":"Le Comptoir合同会社","lon":139.6951459,"lat":35.662660899999999}},{"type":"Feature","id":139,"geometry":{"type":"Point","coordinates":[139.69899510000005,35.662540000000035]},"properties":{"OBJECTID":139,"name":"株式会社Kamanova","lon":139.69899509999999,"lat":35.66254}},{"type":"Feature","id":140,"geometry":{"type":"Point","coordinates":[139.69899510000005,35.662540000000035]},"properties":{"OBJECTID":140,"name":"株式会社ヒューリズム","lon":139.69899509999999,"lat":35.66254}},{"type":"Feature","id":141,"geometry":{"type":"Point","coordinates":[139.69899510000005,35.662540000000035]},"properties":{"OBJECTID":141,"name":"C-position株式会社","lon":139.69899509999999,"lat":35.66254}},{"type":"Feature","id":142,"geometry":{"type":"Point","coordinates":[139.69899510000005,35.662540000000035]},"properties":{"OBJECTID":142,"name":"株式会社Menu For Today","lon":139.69899509999999,"lat":35.66254}},{"type":"Feature","id":143,"geometry":{"type":"Point","coordinates":[139.69899510000005,35.662540000000035]},"properties":{"OBJECTID":143,"name":"株式会社Project MINT","lon":139.69899509999999,"lat":35.66254}},{"type":"Feature","id":144,"geometry":{"type":"Point","coordinates":[139.69899510000005,35.662540000000035]},"properties":{"OBJECTID":144,"name":"株式会社remental","lon":139.69899509999999,"lat":35.66254}},{"type":"Feature","id":145,"geometry":{"type":"Point","coordinates":[139.69901560000005,35.662526000000071]},"properties":{"OBJECTID":145,"name":"Libera株式会社","lon":139.6990156,"lat":35.662526}},{"type":"Feature","id":146,"geometry":{"type":"Point","coordinates":[139.69542510000008,35.66266550000006]},"properties":{"OBJECTID":146,"name":"ラフゴ株式会社","lon":139.69542509999999,"lat":35.662665500000003}},{"type":"Feature","id":147,"geometry":{"type":"Point","coordinates":[139.69575640000005,35.662603000000047]},"properties":{"OBJECTID":147,"name":"株式会社ゼータ","lon":139.69575639999999,"lat":35.662602999999997}},{"type":"Feature","id":148,"geometry":{"type":"Point","coordinates":[139.69761890000007,35.662650500000041]},"properties":{"OBJECTID":148,"name":"株式会社カタボー","lon":139.69761890000001,"lat":35.662650499999998}},{"type":"Feature","id":149,"geometry":{"type":"Point","coordinates":[139.69761890000007,35.662650500000041]},"properties":{"OBJECTID":149,"name":"株式会社カタボー","lon":139.69761890000001,"lat":35.662650499999998}},{"type":"Feature","id":150,"geometry":{"type":"Point","coordinates":[139.69678120000003,35.663533100000052]},"properties":{"OBJECTID":150,"name":"株式会社リスポ","lon":139.6967812,"lat":35.663533100000002}},{"type":"Feature","id":151,"geometry":{"type":"Point","coordinates":[139.69700060000002,35.663244700000064]},"properties":{"OBJECTID":151,"name":"株式会社MakeWaves","lon":139.6970006,"lat":35.6632447}},{"type":"Feature","id":152,"geometry":{"type":"Point","coordinates":[139.69678120000003,35.663533100000052]},"properties":{"OBJECTID":152,"name":"株式会社リスポ","lon":139.6967812,"lat":35.663533100000002}},{"type":"Feature","id":153,"geometry":{"type":"Point","coordinates":[139.69598350000001,35.663642800000048]},"properties":{"OBJECTID":153,"name":"EXIT株式会社","lon":139.69598350000001,"lat":35.663642799999998}},{"type":"Feature","id":154,"geometry":{"type":"Point","coordinates":[139.70635500000003,35.617524900000035]},"properties":{"OBJECTID":154,"name":"HOMMA Group株式会社","lon":139.706355,"lat":35.617524899999999}},{"type":"Feature","id":155,"geometry":{"type":"Point","coordinates":[139.70756180000001,35.617821000000049]},"properties":{"OBJECTID":155,"name":"FunLife株式会社","lon":139.70756180000001,"lat":35.617820999999999}},{"type":"Feature","id":156,"geometry":{"type":"Point","coordinates":[139.70697340000004,35.616965900000025]},"properties":{"OBJECTID":156,"name":"MPLUSPLUS株式会社","lon":139.70697340000001,"lat":35.616965899999997}},{"type":"Feature","id":157,"geometry":{"type":"Point","coordinates":[139.70659440000009,35.61349510000008]},"properties":{"OBJECTID":157,"name":"株式会社NRS","lon":139.7065944,"lat":35.613495100000002}},{"type":"Feature","id":158,"geometry":{"type":"Point","coordinates":[139.79165990000001,35.671952900000065]},"properties":{"OBJECTID":158,"name":"70seeds株式会社","lon":139.79165990000001,"lat":35.671952900000001}},{"type":"Feature","id":159,"geometry":{"type":"Point","coordinates":[139.74121270000012,35.678699800000061]},"properties":{"OBJECTID":159,"name":"株式会社ウィーヴ","lon":139.74121270000001,"lat":35.678699799999997}},{"type":"Feature","id":160,"geometry":{"type":"Point","coordinates":[139.74089340000012,35.678571700000077]},"properties":{"OBJECTID":160,"name":"レインメーカー株式会社","lon":139.7408934,"lat":35.678571699999999}},{"type":"Feature","id":161,"geometry":{"type":"Point","coordinates":[139.73750050000001,35.677174500000035]},"properties":{"OBJECTID":161,"name":"株式会社ナビゲータープラットフォーム","lon":139.73750050000001,"lat":35.6771745}},{"type":"Feature","id":162,"geometry":{"type":"Point","coordinates":[139.73750050000001,35.677174500000035]},"properties":{"OBJECTID":162,"name":"株式会社ナビゲータープラットフォーム","lon":139.73750050000001,"lat":35.6771745}},{"type":"Feature","id":163,"geometry":{"type":"Point","coordinates":[139.74066560000006,35.677004900000043]},"properties":{"OBJECTID":163,"name":"Upside合同会社","lon":139.7406656,"lat":35.6770049}},{"type":"Feature","id":164,"geometry":{"type":"Point","coordinates":[139.74072710000007,35.673126900000057]},"properties":{"OBJECTID":164,"name":"株式会社USEN","lon":139.74072709999999,"lat":35.6731269}},{"type":"Feature","id":165,"geometry":{"type":"Point","coordinates":[139.74066560000006,35.677004900000043]},"properties":{"OBJECTID":165,"name":"Upside合同会社","lon":139.7406656,"lat":35.6770049}},{"type":"Feature","id":166,"geometry":{"type":"Point","coordinates":[139.74072710000007,35.673126900000057]},"properties":{"OBJECTID":166,"name":"株式会社USEN","lon":139.74072709999999,"lat":35.6731269}},{"type":"Feature","id":167,"geometry":{"type":"Point","coordinates":[139.73739100000012,35.677320000000066]},"properties":{"OBJECTID":167,"name":"エムエム・ホールディングス株式会社","lon":139.737391,"lat":35.677320000000002}},{"type":"Feature","id":168,"geometry":{"type":"Point","coordinates":[139.73857820000012,35.67592140000005]},"properties":{"OBJECTID":168,"name":"株式会社TRINIDAD","lon":139.73857820000001,"lat":35.6759214}},{"type":"Feature","id":169,"geometry":{"type":"Point","coordinates":[139.74137240000005,35.675249200000053]},"properties":{"OBJECTID":169,"name":"ウィンワークス株式会社","lon":139.74137239999999,"lat":35.675249200000003}},{"type":"Feature","id":170,"geometry":{"type":"Point","coordinates":[139.74066560000006,35.677004900000043]},"properties":{"OBJECTID":170,"name":"株式会社Glia Computing","lon":139.7406656,"lat":35.6770049}},{"type":"Feature","id":171,"geometry":{"type":"Point","coordinates":[139.73995530000002,35.676814600000057]},"properties":{"OBJECTID":171,"name":"株式会社グルーバ","lon":139.73995529999999,"lat":35.6768146}},{"type":"Feature","id":172,"geometry":{"type":"Point","coordinates":[139.74217070000009,35.672126400000025]},"properties":{"OBJECTID":172,"name":"株式会社パルマ","lon":139.7421707,"lat":35.672126400000003}},{"type":"Feature","id":173,"geometry":null,"properties":{"OBJECTID":173,"Shape":null,"name":"株式会社DENTi","lon":null,"lat":null}},{"type":"Feature","id":174,"geometry":{"type":"Point","coordinates":[139.73829880000005,35.676490700000045]},"properties":{"OBJECTID":174,"name":"ProFuture株式会社","lon":139.7382988,"lat":35.676490700000002}},{"type":"Feature","id":175,"geometry":{"type":"Point","coordinates":[139.7406539000001,35.677041000000031]},"properties":{"OBJECTID":175,"name":"ぽけん株式会社","lon":139.74065390000001,"lat":35.677041000000003}},{"type":"Feature","id":176,"geometry":{"type":"Point","coordinates":[139.73861810000005,35.675327700000025]},"properties":{"OBJECTID":176,"name":"レジル株式会社","lon":139.7386181,"lat":35.675327699999997}},{"type":"Feature","id":177,"geometry":{"type":"Point","coordinates":[139.74003520000008,35.677025900000046]},"properties":{"OBJECTID":177,"name":"株式会社アルファドライブ","lon":139.74003519999999,"lat":35.677025899999997}},{"type":"Feature","id":178,"geometry":{"type":"Point","coordinates":[139.73739100000012,35.677320000000066]},"properties":{"OBJECTID":178,"name":"メディアインデックス株式会社","lon":139.737391,"lat":35.677320000000002}},{"type":"Feature","id":179,"geometry":{"type":"Point","coordinates":[139.73739100000012,35.677320000000066]},"properties":{"OBJECTID":179,"name":"メディアインデックス株式会社","lon":139.737391,"lat":35.677320000000002}},{"type":"Feature","id":180,"geometry":{"type":"Point","coordinates":[139.74069380000003,35.67314790000006]},"properties":{"OBJECTID":180,"name":"スリーハンズ株式会社","lon":139.7406938,"lat":35.673147899999996}},{"type":"Feature","id":181,"geometry":{"type":"Point","coordinates":[139.74069380000003,35.67314790000006]},"properties":{"OBJECTID":181,"name":"MOST株式会社","lon":139.7406938,"lat":35.673147899999996}},{"type":"Feature","id":182,"geometry":{"type":"Point","coordinates":[139.74069380000003,35.67314790000006]},"properties":{"OBJECTID":182,"name":"スリーハンズ株式会社","lon":139.7406938,"lat":35.673147899999996}},{"type":"Feature","id":183,"geometry":{"type":"Point","coordinates":[139.74069380000003,35.67314790000006]},"properties":{"OBJECTID":183,"name":"MOST株式会社","lon":139.7406938,"lat":35.673147899999996}},{"type":"Feature","id":184,"geometry":{"type":"Point","coordinates":[139.74069380000003,35.67314790000006]},"properties":{"OBJECTID":184,"name":"株式会社ウィンコーポレーション","lon":139.7406938,"lat":35.673147899999996}},{"type":"Feature","id":185,"geometry":{"type":"Point","coordinates":[139.7387179000001,35.674847700000043]},"properties":{"OBJECTID":185,"name":"株式会社QLife","lon":139.73871790000001,"lat":35.674847700000001}},{"type":"Feature","id":186,"geometry":{"type":"Point","coordinates":[139.73985550000009,35.677007700000047]},"properties":{"OBJECTID":186,"name":"ガレージバンク株式会社","lon":139.7398555,"lat":35.677007699999997}},{"type":"Feature","id":187,"geometry":{"type":"Point","coordinates":[139.73750050000001,35.677174500000035]},"properties":{"OBJECTID":187,"name":"株式会社OneMile Partners","lon":139.73750050000001,"lat":35.6771745}},{"type":"Feature","id":188,"geometry":{"type":"Point","coordinates":[139.73750050000001,35.677174500000035]},"properties":{"OBJECTID":188,"name":"株式会社OneMile Partners","lon":139.73750050000001,"lat":35.6771745}},{"type":"Feature","id":189,"geometry":{"type":"Point","coordinates":[139.74025470000004,35.67695260000005]},"properties":{"OBJECTID":189,"name":"株式会社AWESOME JAPAN","lon":139.74025470000001,"lat":35.6769526}},{"type":"Feature","id":190,"geometry":{"type":"Point","coordinates":[139.74025470000004,35.67695260000005]},"properties":{"OBJECTID":190,"name":"株式会社AWESOME JAPAN","lon":139.74025470000001,"lat":35.6769526}},{"type":"Feature","id":191,"geometry":{"type":"Point","coordinates":[139.73750050000001,35.677174500000035]},"properties":{"OBJECTID":191,"name":"株式会社モニクル","lon":139.73750050000001,"lat":35.6771745}},{"type":"Feature","id":192,"geometry":{"type":"Point","coordinates":[139.73750050000001,35.677174500000035]},"properties":{"OBJECTID":192,"name":"株式会社クロス・デジタル・イノベーション","lon":139.73750050000001,"lat":35.6771745}},{"type":"Feature","id":193,"geometry":{"type":"Point","coordinates":[139.79202950000001,35.670208000000059]},"properties":{"OBJECTID":193,"name":"株式会社FlyNexia","lon":139.79202950000001,"lat":35.670208000000002}},{"type":"Feature","id":194,"geometry":{"type":"Point","coordinates":[139.79497920000006,35.665076600000077]},"properties":{"OBJECTID":194,"name":"株式会社Willings","lon":139.7949792,"lat":35.665076599999999}},{"type":"Feature","id":195,"geometry":{"type":"Point","coordinates":[139.79491600000006,35.66629510000007]},"properties":{"OBJECTID":195,"name":"株式会社ブリッジウェル","lon":139.794916,"lat":35.666295099999999}},{"type":"Feature","id":196,"geometry":{"type":"Point","coordinates":[139.72867990000009,35.704505500000039]},"properties":{"OBJECTID":196,"name":"株式会社イーフロンティア","lon":139.7286799,"lat":35.704505500000003}},{"type":"Feature","id":197,"geometry":{"type":"Point","coordinates":[139.69470020000006,35.656082900000058]},"properties":{"OBJECTID":197,"name":"株式会社トリドリ","lon":139.6947002,"lat":35.656082900000001}},{"type":"Feature","id":198,"geometry":{"type":"Point","coordinates":[139.69553760000008,35.657174800000064]},"properties":{"OBJECTID":198,"name":"CollaboGate Japan株式会社","lon":139.69553759999999,"lat":35.6571748}},{"type":"Feature","id":199,"geometry":{"type":"Point","coordinates":[139.69529150000005,35.656728900000076]},"properties":{"OBJECTID":199,"name":"株式会社ELOOP","lon":139.6952915,"lat":35.656728899999997}},{"type":"Feature","id":200,"geometry":{"type":"Point","coordinates":[139.69529150000005,35.656728900000076]},"properties":{"OBJECTID":200,"name":"株式会社ELOOP","lon":139.6952915,"lat":35.656728899999997}},{"type":"Feature","id":201,"geometry":{"type":"Point","coordinates":[139.69529150000005,35.656728900000076]},"properties":{"OBJECTID":201,"name":"株式会社EPIC DAY","lon":139.6952915,"lat":35.656728899999997}},{"type":"Feature","id":202,"geometry":{"type":"Point","coordinates":[139.69398920000003,35.658323800000062]},"properties":{"OBJECTID":202,"name":"株式会社ワンインチ","lon":139.6939892,"lat":35.658323799999998}},{"type":"Feature","id":203,"geometry":{"type":"Point","coordinates":[139.69454950000011,35.657661400000052]},"properties":{"OBJECTID":203,"name":"株式会社ファンスター","lon":139.69454949999999,"lat":35.657661400000002}},{"type":"Feature","id":204,"geometry":{"type":"Point","coordinates":[139.69422850000001,35.657631200000026]},"properties":{"OBJECTID":204,"name":"株式会社GeeeN","lon":139.69422850000001,"lat":35.657631199999997}},{"type":"Feature","id":205,"geometry":{"type":"Point","coordinates":[139.69422850000001,35.657631200000026]},"properties":{"OBJECTID":205,"name":"株式会社コミクス","lon":139.69422850000001,"lat":35.657631199999997}},{"type":"Feature","id":206,"geometry":{"type":"Point","coordinates":[139.6939493000001,35.657411400000058]},"properties":{"OBJECTID":206,"name":"カルクル株式会社","lon":139.69394930000001,"lat":35.657411400000001}},{"type":"Feature","id":207,"geometry":{"type":"Point","coordinates":[139.6939493000001,35.657411400000058]},"properties":{"OBJECTID":207,"name":"カルクル株式会社","lon":139.69394930000001,"lat":35.657411400000001}},{"type":"Feature","id":208,"geometry":{"type":"Point","coordinates":[139.69508610000003,35.656523500000048]},"properties":{"OBJECTID":208,"name":"株式会社divx","lon":139.6950861,"lat":35.656523499999999}},{"type":"Feature","id":209,"geometry":{"type":"Point","coordinates":[139.69508610000003,35.656523500000048]},"properties":{"OBJECTID":209,"name":"SHOWROOM株式会社","lon":139.6950861,"lat":35.656523499999999}},{"type":"Feature","id":210,"geometry":{"type":"Point","coordinates":[139.69506100000001,35.656280000000038]},"properties":{"OBJECTID":210,"name":"株式会社ニューアクション","lon":139.69506100000001,"lat":35.656280000000002}},{"type":"Feature","id":211,"geometry":{"type":"Point","coordinates":[139.6949863000001,35.656322100000068]},"properties":{"OBJECTID":211,"name":"株式会社サイバーテック","lon":139.69498630000001,"lat":35.656322099999997}},{"type":"Feature","id":212,"geometry":{"type":"Point","coordinates":[139.69348140000011,35.656883200000038]},"properties":{"OBJECTID":212,"name":"ユナイテッド株式会社","lon":139.6934814,"lat":35.656883200000003}},{"type":"Feature","id":213,"geometry":{"type":"Point","coordinates":[139.69348140000011,35.656883200000038]},"properties":{"OBJECTID":213,"name":"株式会社イクイップル","lon":139.6934814,"lat":35.656883200000003}},{"type":"Feature","id":214,"geometry":{"type":"Point","coordinates":[139.69348140000011,35.656883200000038]},"properties":{"OBJECTID":214,"name":"株式会社メディアジーン","lon":139.6934814,"lat":35.656883200000003}},{"type":"Feature","id":215,"geometry":{"type":"Point","coordinates":[139.69348140000011,35.656883200000038]},"properties":{"OBJECTID":215,"name":"株式会社デジモ","lon":139.6934814,"lat":35.656883200000003}},{"type":"Feature","id":216,"geometry":{"type":"Point","coordinates":[139.69348140000011,35.656883200000038]},"properties":{"OBJECTID":216,"name":"株式会社インフォバーン","lon":139.6934814,"lat":35.656883200000003}},{"type":"Feature","id":217,"geometry":{"type":"Point","coordinates":[139.69348140000011,35.656883200000038]},"properties":{"OBJECTID":217,"name":"株式会社デジモ","lon":139.6934814,"lat":35.656883200000003}},{"type":"Feature","id":218,"geometry":{"type":"Point","coordinates":[139.69390630000009,35.655896200000029]},"properties":{"OBJECTID":218,"name":"ミルモ株式会社","lon":139.69390630000001,"lat":35.655896200000001}},{"type":"Feature","id":219,"geometry":{"type":"Point","coordinates":[139.69390630000009,35.655896200000029]},"properties":{"OBJECTID":219,"name":"ミルモ株式会社","lon":139.69390630000001,"lat":35.655896200000001}},{"type":"Feature","id":220,"geometry":{"type":"Point","coordinates":[139.69470020000006,35.656082900000058]},"properties":{"OBJECTID":220,"name":"株式会社CCF","lon":139.6947002,"lat":35.656082900000001}},{"type":"Feature","id":221,"geometry":{"type":"Point","coordinates":[139.69429950000006,35.655771800000025]},"properties":{"OBJECTID":221,"name":"ウイングアーク1st株式会社","lon":139.6942995,"lat":35.655771799999997}},{"type":"Feature","id":222,"geometry":{"type":"Point","coordinates":[139.69470020000006,35.656082900000058]},"properties":{"OBJECTID":222,"name":"株式会社ROFL","lon":139.6947002,"lat":35.656082900000001}},{"type":"Feature","id":223,"geometry":{"type":"Point","coordinates":[139.69470020000006,35.656082900000058]},"properties":{"OBJECTID":223,"name":"株式会社Momentor","lon":139.6947002,"lat":35.656082900000001}},{"type":"Feature","id":224,"geometry":{"type":"Point","coordinates":[139.69470020000006,35.656082900000058]},"properties":{"OBJECTID":224,"name":"株式会社Mesh","lon":139.6947002,"lat":35.656082900000001}},{"type":"Feature","id":225,"geometry":{"type":"Point","coordinates":[139.69470020000006,35.656082900000058]},"properties":{"OBJECTID":225,"name":"株式会社スマート修繕","lon":139.6947002,"lat":35.656082900000001}},{"type":"Feature","id":226,"geometry":{"type":"Point","coordinates":[139.69470020000006,35.656082900000058]},"properties":{"OBJECTID":226,"name":"株式会社ミライのゲンバ","lon":139.6947002,"lat":35.656082900000001}},{"type":"Feature","id":227,"geometry":{"type":"Point","coordinates":[139.69470020000006,35.656082900000058]},"properties":{"OBJECTID":227,"name":"株式会社ミライのゲンバ","lon":139.6947002,"lat":35.656082900000001}},{"type":"Feature","id":228,"geometry":{"type":"Point","coordinates":[139.69462040000008,35.655907500000069]},"properties":{"OBJECTID":228,"name":"株式会社TWOSTONE&Sons","lon":139.69462039999999,"lat":35.655907499999998}},{"type":"Feature","id":229,"geometry":{"type":"Point","coordinates":[139.69470020000006,35.656082900000058]},"properties":{"OBJECTID":229,"name":"ColorSing株式会社","lon":139.6947002,"lat":35.656082900000001}},{"type":"Feature","id":230,"geometry":{"type":"Point","coordinates":[139.69470020000006,35.656082900000058]},"properties":{"OBJECTID":230,"name":"株式会社ウィズカンパニー","lon":139.6947002,"lat":35.656082900000001}},{"type":"Feature","id":231,"geometry":{"type":"Point","coordinates":[139.69470020000006,35.656082900000058]},"properties":{"OBJECTID":231,"name":"株式会社スマート修繕","lon":139.6947002,"lat":35.656082900000001}},{"type":"Feature","id":232,"geometry":{"type":"Point","coordinates":[139.69470020000006,35.656082900000058]},"properties":{"OBJECTID":232,"name":"株式会社immedio","lon":139.6947002,"lat":35.656082900000001}},{"type":"Feature","id":233,"geometry":{"type":"Point","coordinates":[139.69470020000006,35.656082900000058]},"properties":{"OBJECTID":233,"name":"株式会社バンク","lon":139.6947002,"lat":35.656082900000001}},{"type":"Feature","id":234,"geometry":{"type":"Point","coordinates":[139.69470020000006,35.656082900000058]},"properties":{"OBJECTID":234,"name":"株式会社PROJECT COMP","lon":139.6947002,"lat":35.656082900000001}},{"type":"Feature","id":235,"geometry":{"type":"Point","coordinates":[139.69470020000006,35.656082900000058]},"properties":{"OBJECTID":235,"name":"mish株式会社","lon":139.6947002,"lat":35.656082900000001}},{"type":"Feature","id":236,"geometry":{"type":"Point","coordinates":[139.69462040000008,35.655907500000069]},"properties":{"OBJECTID":236,"name":"メリービズ株式会社","lon":139.69462039999999,"lat":35.655907499999998}},{"type":"Feature","id":237,"geometry":{"type":"Point","coordinates":[139.69470020000006,35.656082900000058]},"properties":{"OBJECTID":237,"name":"LeapMind株式会社","lon":139.6947002,"lat":35.656082900000001}},{"type":"Feature","id":238,"geometry":{"type":"Point","coordinates":[139.69470020000006,35.656082900000058]},"properties":{"OBJECTID":238,"name":"株式会社zooba","lon":139.6947002,"lat":35.656082900000001}},{"type":"Feature","id":239,"geometry":{"type":"Point","coordinates":[139.69462040000008,35.655907500000069]},"properties":{"OBJECTID":239,"name":"iceberg theory holdings株式会社","lon":139.69462039999999,"lat":35.655907499999998}},{"type":"Feature","id":240,"geometry":{"type":"Point","coordinates":[139.69470020000006,35.656082900000058]},"properties":{"OBJECTID":240,"name":"株式会社ROUTE06","lon":139.6947002,"lat":35.656082900000001}},{"type":"Feature","id":241,"geometry":{"type":"Point","coordinates":[139.69447080000009,35.65575780000006]},"properties":{"OBJECTID":241,"name":"株式会社コードタクト","lon":139.6944708,"lat":35.655757800000003}},{"type":"Feature","id":242,"geometry":{"type":"Point","coordinates":[139.69447080000009,35.65575780000006]},"properties":{"OBJECTID":242,"name":"株式会社Telescope","lon":139.6944708,"lat":35.655757800000003}},{"type":"Feature","id":243,"geometry":{"type":"Point","coordinates":[139.69470020000006,35.656082900000058]},"properties":{"OBJECTID":243,"name":"株式会社ワンダーリーグ","lon":139.6947002,"lat":35.656082900000001}},{"type":"Feature","id":244,"geometry":{"type":"Point","coordinates":[139.69462040000008,35.655907500000069]},"properties":{"OBJECTID":244,"name":"株式会社calf","lon":139.69462039999999,"lat":35.655907499999998}},{"type":"Feature","id":245,"geometry":{"type":"Point","coordinates":[139.69556470000009,35.657576400000039]},"properties":{"OBJECTID":245,"name":"フリービット株式会社","lon":139.69556470000001,"lat":35.657576400000004}},{"type":"Feature","id":246,"geometry":{"type":"Point","coordinates":[139.69556470000009,35.657576400000039]},"properties":{"OBJECTID":246,"name":"フリービット株式会社","lon":139.69556470000001,"lat":35.657576400000004}},{"type":"Feature","id":247,"geometry":{"type":"Point","coordinates":[139.69562450000001,35.657869300000073]},"properties":{"OBJECTID":247,"name":"株式会社InnoBeta","lon":139.69562450000001,"lat":35.657869300000002}},{"type":"Feature","id":248,"geometry":{"type":"Point","coordinates":[139.69555140000011,35.657493500000044]},"properties":{"OBJECTID":248,"name":"株式会社Full Bet Group","lon":139.6955514,"lat":35.657493500000001}},{"type":"Feature","id":249,"geometry":{"type":"Point","coordinates":[139.69555140000011,35.657493500000044]},"properties":{"OBJECTID":249,"name":"エグゼモード株式会社","lon":139.6955514,"lat":35.657493500000001}},{"type":"Feature","id":250,"geometry":{"type":"Point","coordinates":[139.69555140000011,35.657493500000044]},"properties":{"OBJECTID":250,"name":"エグゼモード株式会社","lon":139.6955514,"lat":35.657493500000001}},{"type":"Feature","id":251,"geometry":{"type":"Point","coordinates":[139.69555140000011,35.657493500000044]},"properties":{"OBJECTID":251,"name":"株式会社トライフォート","lon":139.6955514,"lat":35.657493500000001}},{"type":"Feature","id":252,"geometry":{"type":"Point","coordinates":[139.69555140000011,35.657493500000044]},"properties":{"OBJECTID":252,"name":"コインチェック株式会社","lon":139.6955514,"lat":35.657493500000001}},{"type":"Feature","id":253,"geometry":{"type":"Point","coordinates":[139.69555140000011,35.657493500000044]},"properties":{"OBJECTID":253,"name":"株式会社ANIMA GROUP","lon":139.6955514,"lat":35.657493500000001}},{"type":"Feature","id":254,"geometry":{"type":"Point","coordinates":[139.69529150000005,35.656728900000076]},"properties":{"OBJECTID":254,"name":"合同会社メイビーノット","lon":139.6952915,"lat":35.656728899999997}},{"type":"Feature","id":255,"geometry":{"type":"Point","coordinates":[139.69526830000007,35.656635600000072]},"properties":{"OBJECTID":255,"name":"株式会社FunctionFive","lon":139.69526830000001,"lat":35.656635600000001}},{"type":"Feature","id":256,"geometry":{"type":"Point","coordinates":[139.69558460000007,35.65717200000006]},"properties":{"OBJECTID":256,"name":"株式会社マグノリア","lon":139.69558459999999,"lat":35.657172000000003}},{"type":"Feature","id":257,"geometry":{"type":"Point","coordinates":[139.69529150000005,35.656728900000076]},"properties":{"OBJECTID":257,"name":"ファーストデータテクノロジーズ株式会社","lon":139.6952915,"lat":35.656728899999997}},{"type":"Feature","id":258,"geometry":{"type":"Point","coordinates":[139.69529150000005,35.656728900000076]},"properties":{"OBJECTID":258,"name":"イトワズ株式会社","lon":139.6952915,"lat":35.656728899999997}},{"type":"Feature","id":259,"geometry":{"type":"Point","coordinates":[139.69526830000007,35.656635600000072]},"properties":{"OBJECTID":259,"name":"株式会社タベルテクノロジーズ","lon":139.69526830000001,"lat":35.656635600000001}},{"type":"Feature","id":260,"geometry":{"type":"Point","coordinates":[139.69529150000005,35.656728900000076]},"properties":{"OBJECTID":260,"name":"株式会社toiroworks","lon":139.6952915,"lat":35.656728899999997}},{"type":"Feature","id":261,"geometry":{"type":"Point","coordinates":[139.69529150000005,35.656728900000076]},"properties":{"OBJECTID":261,"name":"DADA株式会社","lon":139.6952915,"lat":35.656728899999997}},{"type":"Feature","id":262,"geometry":{"type":"Point","coordinates":[139.69529150000005,35.656728900000076]},"properties":{"OBJECTID":262,"name":"株式会社hitohinto","lon":139.6952915,"lat":35.656728899999997}},{"type":"Feature","id":263,"geometry":{"type":"Point","coordinates":[139.69529150000005,35.656728900000076]},"properties":{"OBJECTID":263,"name":"株式会社Japan Navi","lon":139.6952915,"lat":35.656728899999997}},{"type":"Feature","id":264,"geometry":{"type":"Point","coordinates":[139.69529150000005,35.656728900000076]},"properties":{"OBJECTID":264,"name":"有限会社ジェイズコア","lon":139.6952915,"lat":35.656728899999997}},{"type":"Feature","id":265,"geometry":{"type":"Point","coordinates":[139.69529150000005,35.656728900000076]},"properties":{"OBJECTID":265,"name":"株式会社Plusbase","lon":139.6952915,"lat":35.656728899999997}},{"type":"Feature","id":266,"geometry":{"type":"Point","coordinates":[139.69529150000005,35.656728900000076]},"properties":{"OBJECTID":266,"name":"株式会社オトモニ","lon":139.6952915,"lat":35.656728899999997}},{"type":"Feature","id":267,"geometry":{"type":"Point","coordinates":[139.69529150000005,35.656728900000076]},"properties":{"OBJECTID":267,"name":"有限会社ジェイズコア","lon":139.6952915,"lat":35.656728899999997}},{"type":"Feature","id":268,"geometry":{"type":"Point","coordinates":[139.69529150000005,35.656728900000076]},"properties":{"OBJECTID":268,"name":"僕と私と株式会社","lon":139.6952915,"lat":35.656728899999997}},{"type":"Feature","id":269,"geometry":{"type":"Point","coordinates":[139.69529150000005,35.656728900000076]},"properties":{"OBJECTID":269,"name":"エール株式会社","lon":139.6952915,"lat":35.656728899999997}},{"type":"Feature","id":270,"geometry":{"type":"Point","coordinates":[139.69538040000009,35.656807800000024]},"properties":{"OBJECTID":270,"name":"株式会社サルエド","lon":139.6953804,"lat":35.656807800000003}},{"type":"Feature","id":271,"geometry":{"type":"Point","coordinates":[139.69538040000009,35.656807800000024]},"properties":{"OBJECTID":271,"name":"株式会社BACKSIDE","lon":139.6953804,"lat":35.656807800000003}},{"type":"Feature","id":272,"geometry":{"type":"Point","coordinates":[139.69538040000009,35.656807800000024]},"properties":{"OBJECTID":272,"name":"株式会社メディアグルーヴ","lon":139.6953804,"lat":35.656807800000003}},{"type":"Feature","id":273,"geometry":{"type":"Point","coordinates":[139.69529150000005,35.656728900000076]},"properties":{"OBJECTID":273,"name":"株式会社SFC","lon":139.6952915,"lat":35.656728899999997}},{"type":"Feature","id":274,"geometry":{"type":"Point","coordinates":[139.69529150000005,35.656728900000076]},"properties":{"OBJECTID":274,"name":"Scalar株式会社","lon":139.6952915,"lat":35.656728899999997}},{"type":"Feature","id":275,"geometry":{"type":"Point","coordinates":[139.69529150000005,35.656728900000076]},"properties":{"OBJECTID":275,"name":"株式会社coco","lon":139.6952915,"lat":35.656728899999997}},{"type":"Feature","id":276,"geometry":{"type":"Point","coordinates":[139.69529150000005,35.656728900000076]},"properties":{"OBJECTID":276,"name":"株式会社Tamaruba","lon":139.6952915,"lat":35.656728899999997}},{"type":"Feature","id":277,"geometry":{"type":"Point","coordinates":[139.69529150000005,35.656728900000076]},"properties":{"OBJECTID":277,"name":"株式会社Suns up","lon":139.6952915,"lat":35.656728899999997}},{"type":"Feature","id":278,"geometry":{"type":"Point","coordinates":[139.69529150000005,35.656728900000076]},"properties":{"OBJECTID":278,"name":"株式会社Propagation","lon":139.6952915,"lat":35.656728899999997}},{"type":"Feature","id":279,"geometry":{"type":"Point","coordinates":[139.69529150000005,35.656728900000076]},"properties":{"OBJECTID":279,"name":"Coloridoh inc.","lon":139.6952915,"lat":35.656728899999997}},{"type":"Feature","id":280,"geometry":{"type":"Point","coordinates":[139.69529150000005,35.656728900000076]},"properties":{"OBJECTID":280,"name":"Inplaport株式会社","lon":139.6952915,"lat":35.656728899999997}},{"type":"Feature","id":281,"geometry":{"type":"Point","coordinates":[139.69558460000007,35.65717200000006]},"properties":{"OBJECTID":281,"name":"株式会社マグノリア","lon":139.69558459999999,"lat":35.657172000000003}},{"type":"Feature","id":282,"geometry":{"type":"Point","coordinates":[139.69484670000008,35.65721620000005]},"properties":{"OBJECTID":282,"name":"エアフレンド株式会社","lon":139.6948467,"lat":35.657216200000001}},{"type":"Feature","id":283,"geometry":{"type":"Point","coordinates":[139.69484670000008,35.65721620000005]},"properties":{"OBJECTID":283,"name":"イネーザ株式会社","lon":139.6948467,"lat":35.657216200000001}},{"type":"Feature","id":284,"geometry":{"type":"Point","coordinates":[139.69484670000008,35.65721620000005]},"properties":{"OBJECTID":284,"name":"株式会社Subot","lon":139.6948467,"lat":35.657216200000001}},{"type":"Feature","id":285,"geometry":{"type":"Point","coordinates":[139.69484670000008,35.65721620000005]},"properties":{"OBJECTID":285,"name":"株式会社スタイルマークス","lon":139.6948467,"lat":35.657216200000001}},{"type":"Feature","id":286,"geometry":{"type":"Point","coordinates":[139.69484670000008,35.65721620000005]},"properties":{"OBJECTID":286,"name":"株式会社Badge","lon":139.6948467,"lat":35.657216200000001}},{"type":"Feature","id":287,"geometry":{"type":"Point","coordinates":[139.69484670000008,35.65721620000005]},"properties":{"OBJECTID":287,"name":"シャベル株式会社","lon":139.6948467,"lat":35.657216200000001}},{"type":"Feature","id":288,"geometry":{"type":"Point","coordinates":[139.70043260000011,35.648652100000049]},"properties":{"OBJECTID":288,"name":"株式会社CAMPFIRE","lon":139.7004326,"lat":35.6486521}},{"type":"Feature","id":289,"geometry":{"type":"Point","coordinates":[139.70284450000008,35.650657200000069]},"properties":{"OBJECTID":289,"name":"日本レストランシステム株式会社","lon":139.7028445,"lat":35.650657199999998}},{"type":"Feature","id":290,"geometry":{"type":"Point","coordinates":[139.70258520000004,35.650427600000057]},"properties":{"OBJECTID":290,"name":"株式会社デジタルプラス","lon":139.70258519999999,"lat":35.6504276}},{"type":"Feature","id":291,"geometry":{"type":"Point","coordinates":[139.70284450000008,35.650657200000069]},"properties":{"OBJECTID":291,"name":"日本レストランシステム株式会社","lon":139.7028445,"lat":35.650657199999998}},{"type":"Feature","id":292,"geometry":{"type":"Point","coordinates":[139.70258520000004,35.650427600000057]},"properties":{"OBJECTID":292,"name":"株式会社デジタルプラス","lon":139.70258519999999,"lat":35.6504276}},{"type":"Feature","id":293,"geometry":{"type":"Point","coordinates":[139.70259360000011,35.650455600000043]},"properties":{"OBJECTID":293,"name":"ノイン株式会社","lon":139.7025936,"lat":35.650455600000001}},{"type":"Feature","id":294,"geometry":{"type":"Point","coordinates":[139.70224000000007,35.649372300000039]},"properties":{"OBJECTID":294,"name":"2nd Community株式会社","lon":139.70223999999999,"lat":35.649372300000003}},{"type":"Feature","id":295,"geometry":{"type":"Point","coordinates":[139.70224000000007,35.649372300000039]},"properties":{"OBJECTID":295,"name":"株式会社22","lon":139.70223999999999,"lat":35.649372300000003}},{"type":"Feature","id":296,"geometry":{"type":"Point","coordinates":[139.69915460000004,35.649408300000061]},"properties":{"OBJECTID":296,"name":"I&CO合同会社","lon":139.69915460000001,"lat":35.649408299999997}},{"type":"Feature","id":297,"geometry":{"type":"Point","coordinates":[139.69915460000004,35.649408300000061]},"properties":{"OBJECTID":297,"name":"株式会社セルブリッジ","lon":139.69915460000001,"lat":35.649408299999997}},{"type":"Feature","id":298,"geometry":{"type":"Point","coordinates":[139.69915460000004,35.649408300000061]},"properties":{"OBJECTID":298,"name":"株式会社スタジアムエクスペリメント","lon":139.69915460000001,"lat":35.649408299999997}},{"type":"Feature","id":299,"geometry":{"type":"Point","coordinates":[139.70051090000004,35.64859030000008]},"properties":{"OBJECTID":299,"name":"ULTRA SOCIAL株式会社","lon":139.70051090000001,"lat":35.648590300000002}},{"type":"Feature","id":300,"geometry":{"type":"Point","coordinates":[139.7015679000001,35.648566600000038]},"properties":{"OBJECTID":300,"name":"株式会社RICCI EVERYDAY","lon":139.70156789999999,"lat":35.648566600000002}},{"type":"Feature","id":301,"geometry":{"type":"Point","coordinates":[139.7015679000001,35.648566600000038]},"properties":{"OBJECTID":301,"name":"モデラート株式会社","lon":139.70156789999999,"lat":35.648566600000002}},{"type":"Feature","id":302,"geometry":{"type":"Point","coordinates":[139.7016278000001,35.648250000000075]},"properties":{"OBJECTID":302,"name":"バスケット株式会社","lon":139.70162780000001,"lat":35.648249999999997}},{"type":"Feature","id":303,"geometry":{"type":"Point","coordinates":[139.70053080000002,35.647970800000053]},"properties":{"OBJECTID":303,"name":"株式会社NAOKI TAKIZAWA DESIGN","lon":139.7005308,"lat":35.647970800000003}},{"type":"Feature","id":304,"geometry":{"type":"Point","coordinates":[139.7037706000001,35.652056900000048]},"properties":{"OBJECTID":304,"name":"株式会社シンシア","lon":139.70377060000001,"lat":35.652056899999998}},{"type":"Feature","id":305,"geometry":{"type":"Point","coordinates":[139.70282450000002,35.651456100000075]},"properties":{"OBJECTID":305,"name":"株式会社日本データ取引所","lon":139.70282449999999,"lat":35.651456099999997}},{"type":"Feature","id":306,"geometry":{"type":"Point","coordinates":[139.70250540000006,35.651686500000039]},"properties":{"OBJECTID":306,"name":"BULB株式会社","lon":139.70250540000001,"lat":35.651686499999997}},{"type":"Feature","id":307,"geometry":{"type":"Point","coordinates":[139.8185433000001,35.685647600000038]},"properties":{"OBJECTID":307,"name":"株式会社GACT","lon":139.81854329999999,"lat":35.685647600000003}},{"type":"Feature","id":308,"geometry":{"type":"Point","coordinates":[139.80319700000007,35.662423500000045]},"properties":{"OBJECTID":308,"name":"株式会社コムスクエア","lon":139.80319700000001,"lat":35.662423500000003}},{"type":"Feature","id":309,"geometry":{"type":"Point","coordinates":[139.8125682000001,35.661920400000042]},"properties":{"OBJECTID":309,"name":"株式会社マジック・プロジェクト","lon":139.81256819999999,"lat":35.6619204}},{"type":"Feature","id":310,"geometry":{"type":"Point","coordinates":[139.80501420000007,35.662878400000068]},"properties":{"OBJECTID":310,"name":"株式会社プライムシステム","lon":139.80501419999999,"lat":35.662878399999997}},{"type":"Feature","id":311,"geometry":{"type":"Point","coordinates":[139.81052630000011,35.663708400000075]},"properties":{"OBJECTID":311,"name":"株式会社SECAI MARCHE","lon":139.81052629999999,"lat":35.663708399999997}},{"type":"Feature","id":312,"geometry":{"type":"Point","coordinates":[139.70083000000011,35.654097600000057]},"properties":{"OBJECTID":312,"name":"Biodata Bank株式会社","lon":139.70083,"lat":35.6540976}},{"type":"Feature","id":313,"geometry":{"type":"Point","coordinates":[139.79368750000003,35.670889900000077]},"properties":{"OBJECTID":313,"name":"大友ロジスティクスサービス株式会社","lon":139.7936875,"lat":35.670889899999999}},{"type":"Feature","id":314,"geometry":{"type":"Point","coordinates":[139.74416670000005,35.702906100000064]},"properties":{"OBJECTID":314,"name":"株式会社リバネス","lon":139.74416669999999,"lat":35.7029061}},{"type":"Feature","id":315,"geometry":{"type":"Point","coordinates":[139.74416670000005,35.702906100000064]},"properties":{"OBJECTID":315,"name":"株式会社リバネス","lon":139.74416669999999,"lat":35.7029061}},{"type":"Feature","id":316,"geometry":{"type":"Point","coordinates":[139.74416670000005,35.702906100000064]},"properties":{"OBJECTID":316,"name":"株式会社NEST EdLAB","lon":139.74416669999999,"lat":35.7029061}},{"type":"Feature","id":317,"geometry":{"type":"Point","coordinates":[139.74360780000006,35.70347060000006]},"properties":{"OBJECTID":317,"name":"株式会社パイプシェルナノセカンズ","lon":139.74360780000001,"lat":35.703470600000003}},{"type":"Feature","id":318,"geometry":{"type":"Point","coordinates":[139.7441467000001,35.703238700000043]},"properties":{"OBJECTID":318,"name":"株式会社ugo","lon":139.74414669999999,"lat":35.7032387}},{"type":"Feature","id":319,"geometry":{"type":"Point","coordinates":[139.74328850000006,35.703127400000028]},"properties":{"OBJECTID":319,"name":"株式会社ROI","lon":139.74328850000001,"lat":35.7031274}},{"type":"Feature","id":320,"geometry":{"type":"Point","coordinates":[139.70114910000007,35.716025700000046]},"properties":{"OBJECTID":320,"name":"アニコムホールディングス株式会社","lon":139.70114910000001,"lat":35.716025700000003}},{"type":"Feature","id":321,"geometry":{"type":"Point","coordinates":[139.70322340000007,35.715211100000033]},"properties":{"OBJECTID":321,"name":"株式会社モックス","lon":139.70322340000001,"lat":35.715211099999998}},{"type":"Feature","id":322,"geometry":{"type":"Point","coordinates":[139.69706050000002,35.719094200000029]},"properties":{"OBJECTID":322,"name":"株式会社エフ・ビー・アイ","lon":139.69706049999999,"lat":35.719094200000001}},{"type":"Feature","id":323,"geometry":{"type":"Point","coordinates":[139.69526030000009,35.722139100000049]},"properties":{"OBJECTID":323,"name":"株式会社AIsCREAM","lon":139.6952603,"lat":35.7221391}},{"type":"Feature","id":324,"geometry":{"type":"Point","coordinates":[139.69706050000002,35.721745700000042]},"properties":{"OBJECTID":324,"name":"株式会社Z-Works","lon":139.69706049999999,"lat":35.7217457}},{"type":"Feature","id":325,"geometry":{"type":"Point","coordinates":[139.70380190000003,35.69542720000004]},"properties":{"OBJECTID":325,"name":"株式会社Atemo","lon":139.7038019,"lat":35.695427199999997}},{"type":"Feature","id":326,"geometry":{"type":"Point","coordinates":[139.70373490000009,35.69548240000006]},"properties":{"OBJECTID":326,"name":"株式会社UniverCity","lon":139.7037349,"lat":35.695482400000003}},{"type":"Feature","id":327,"geometry":{"type":"Point","coordinates":[139.70625530000007,35.697649600000034]},"properties":{"OBJECTID":327,"name":"ネクシオン株式会社","lon":139.70625530000001,"lat":35.697649599999998}},{"type":"Feature","id":328,"geometry":{"type":"Point","coordinates":[139.71966120000002,35.696152100000063]},"properties":{"OBJECTID":328,"name":"ミアヘルサ株式会社","lon":139.71966119999999,"lat":35.696152099999999}},{"type":"Feature","id":329,"geometry":{"type":"Point","coordinates":[139.72128900000007,35.694211000000053]},"properties":{"OBJECTID":329,"name":"株式会社インフォーエス","lon":139.72128900000001,"lat":35.694211000000003}},{"type":"Feature","id":330,"geometry":{"type":"Point","coordinates":[139.72128900000007,35.694211000000053]},"properties":{"OBJECTID":330,"name":"株式会社インフォーエス","lon":139.72128900000001,"lat":35.694211000000003}},{"type":"Feature","id":331,"geometry":{"type":"Point","coordinates":[139.75059410000006,35.670806300000038]},"properties":{"OBJECTID":331,"name":"Connectiv株式会社","lon":139.7505941,"lat":35.670806300000002}},{"type":"Feature","id":332,"geometry":{"type":"Point","coordinates":[139.75059410000006,35.670806300000038]},"properties":{"OBJECTID":332,"name":"アライン株式会社","lon":139.7505941,"lat":35.670806300000002}},{"type":"Feature","id":333,"geometry":{"type":"Point","coordinates":[139.75059410000006,35.670806300000038]},"properties":{"OBJECTID":333,"name":"株式会社Crono","lon":139.7505941,"lat":35.670806300000002}},{"type":"Feature","id":334,"geometry":{"type":"Point","coordinates":[139.75006300000007,35.671015500000067]},"properties":{"OBJECTID":334,"name":"株式会社Moly","lon":139.75006300000001,"lat":35.671015500000003}},{"type":"Feature","id":335,"geometry":{"type":"Point","coordinates":[139.75006300000007,35.671015500000067]},"properties":{"OBJECTID":335,"name":"VALT JAPAN株式会社","lon":139.75006300000001,"lat":35.671015500000003}},{"type":"Feature","id":336,"geometry":{"type":"Point","coordinates":[139.75006300000007,35.671015500000067]},"properties":{"OBJECTID":336,"name":"HuLA immune株式会社","lon":139.75006300000001,"lat":35.671015500000003}},{"type":"Feature","id":337,"geometry":{"type":"Point","coordinates":[139.75006300000007,35.671015500000067]},"properties":{"OBJECTID":337,"name":"株式会社Tsunagu.AI","lon":139.75006300000001,"lat":35.671015500000003}},{"type":"Feature","id":338,"geometry":{"type":"Point","coordinates":[139.74787930000002,35.67172620000008]},"properties":{"OBJECTID":338,"name":"株式会社ヒューマンクリエイションホールディングス","lon":139.74787929999999,"lat":35.671726200000002}},{"type":"Feature","id":339,"geometry":{"type":"Point","coordinates":[139.74724060000005,35.671183000000042]},"properties":{"OBJECTID":339,"name":"株式会社ランドビジネス","lon":139.7472406,"lat":35.671182999999999}},{"type":"Feature","id":340,"geometry":{"type":"Point","coordinates":[139.74472560000004,35.671429600000067]},"properties":{"OBJECTID":340,"name":"株式会社ENNE","lon":139.74472560000001,"lat":35.671429600000003}},{"type":"Feature","id":341,"geometry":{"type":"Point","coordinates":[139.74797600000011,35.671849000000066]},"properties":{"OBJECTID":341,"name":"株式会社ねむログ","lon":139.74797599999999,"lat":35.671849000000002}},{"type":"Feature","id":342,"geometry":{"type":"Point","coordinates":[139.74724060000005,35.671183000000042]},"properties":{"OBJECTID":342,"name":"株式会社ユカリア","lon":139.7472406,"lat":35.671182999999999}},{"type":"Feature","id":343,"geometry":{"type":"Point","coordinates":[139.74551400000007,35.671772800000042]},"properties":{"OBJECTID":343,"name":"株式会社ソーシャルサービス","lon":139.74551399999999,"lat":35.671772799999999}},{"type":"Feature","id":344,"geometry":{"type":"Point","coordinates":[139.74724060000005,35.671183000000042]},"properties":{"OBJECTID":344,"name":"株式会社サジェスタム","lon":139.7472406,"lat":35.671182999999999}},{"type":"Feature","id":345,"geometry":{"type":"Point","coordinates":[139.74724060000005,35.671183000000042]},"properties":{"OBJECTID":345,"name":"株式会社プルータス・コンサルティング","lon":139.7472406,"lat":35.671182999999999}},{"type":"Feature","id":346,"geometry":{"type":"Point","coordinates":[139.74724060000005,35.671183000000042]},"properties":{"OBJECTID":346,"name":"株式会社ブライツ・アンド・カンパニー","lon":139.7472406,"lat":35.671182999999999}},{"type":"Feature","id":347,"geometry":{"type":"Point","coordinates":[139.74660180000001,35.670639900000026]},"properties":{"OBJECTID":347,"name":"株式会社クリューシステムズ","lon":139.74660180000001,"lat":35.670639899999998}},{"type":"Feature","id":348,"geometry":{"type":"Point","coordinates":[139.74660180000001,35.670639900000026]},"properties":{"OBJECTID":348,"name":"株式会社eight","lon":139.74660180000001,"lat":35.670639899999998}},{"type":"Feature","id":349,"geometry":{"type":"Point","coordinates":[139.74724060000005,35.671183000000042]},"properties":{"OBJECTID":349,"name":"株式会社AIdeaLab","lon":139.7472406,"lat":35.671182999999999}},{"type":"Feature","id":350,"geometry":{"type":"Point","coordinates":[139.74724060000005,35.671183000000042]},"properties":{"OBJECTID":350,"name":"株式会社AIdeaLab","lon":139.7472406,"lat":35.671182999999999}},{"type":"Feature","id":351,"geometry":{"type":"Point","coordinates":[139.74634290000006,35.671918700000049]},"properties":{"OBJECTID":351,"name":"株式会社Splink","lon":139.7463429,"lat":35.671918699999999}},{"type":"Feature","id":352,"geometry":{"type":"Point","coordinates":[139.74724060000005,35.671183000000042]},"properties":{"OBJECTID":352,"name":"AI Picasso株式会社","lon":139.7472406,"lat":35.671182999999999}},{"type":"Feature","id":353,"geometry":{"type":"Point","coordinates":[139.74797600000011,35.671849000000066]},"properties":{"OBJECTID":353,"name":"株式会社経営承継支援","lon":139.74797599999999,"lat":35.671849000000002}},{"type":"Feature","id":354,"geometry":{"type":"Point","coordinates":[139.74724060000005,35.671190700000068]},"properties":{"OBJECTID":354,"name":"株式会社トレードワルツ","lon":139.7472406,"lat":35.671190699999997}},{"type":"Feature","id":355,"geometry":{"type":"Point","coordinates":[139.74724060000005,35.671183000000042]},"properties":{"OBJECTID":355,"name":"株式会社みらい","lon":139.7472406,"lat":35.671182999999999}},{"type":"Feature","id":356,"geometry":{"type":"Point","coordinates":[139.74634290000006,35.671918700000049]},"properties":{"OBJECTID":356,"name":"株式会社コズレ","lon":139.7463429,"lat":35.671918699999999}},{"type":"Feature","id":357,"geometry":{"type":"Point","coordinates":[139.74534430000006,35.671482100000048]},"properties":{"OBJECTID":357,"name":"エリアリンク株式会社","lon":139.7453443,"lat":35.671482099999999}},{"type":"Feature","id":358,"geometry":{"type":"Point","coordinates":[139.74724060000005,35.671183000000042]},"properties":{"OBJECTID":358,"name":"ITX株式会社","lon":139.7472406,"lat":35.671182999999999}},{"type":"Feature","id":359,"geometry":{"type":"Point","coordinates":[139.74724060000005,35.671183000000042]},"properties":{"OBJECTID":359,"name":"テックタッチ株式会社","lon":139.7472406,"lat":35.671182999999999}},{"type":"Feature","id":360,"geometry":{"type":"Point","coordinates":[139.75650310000003,35.640025300000048]},"properties":{"OBJECTID":360,"name":"株式会社ヴェリア・ラボラトリーズ","lon":139.7565031,"lat":35.640025299999998}},{"type":"Feature","id":361,"geometry":{"type":"Point","coordinates":[139.75863700000002,35.657205800000042]},"properties":{"OBJECTID":361,"name":"株式会社EdLog","lon":139.75863699999999,"lat":35.6572058}},{"type":"Feature","id":362,"geometry":{"type":"Point","coordinates":[139.76066990000004,35.655214300000068]},"properties":{"OBJECTID":362,"name":"株式会社BtoA","lon":139.76066990000001,"lat":35.655214299999997}},{"type":"Feature","id":363,"geometry":{"type":"Point","coordinates":[139.76066990000004,35.655214300000068]},"properties":{"OBJECTID":363,"name":"株式会社BtoA","lon":139.76066990000001,"lat":35.655214299999997}},{"type":"Feature","id":364,"geometry":{"type":"Point","coordinates":[139.76066990000004,35.655214300000068]},"properties":{"OBJECTID":364,"name":"umamill株式会社","lon":139.76066990000001,"lat":35.655214299999997}},{"type":"Feature","id":365,"geometry":{"type":"Point","coordinates":[139.75877460000004,35.65816360000008]},"properties":{"OBJECTID":365,"name":"株式会社日本再生医療機構","lon":139.75877460000001,"lat":35.658163600000002}},{"type":"Feature","id":366,"geometry":{"type":"Point","coordinates":[139.75877460000004,35.65816360000008]},"properties":{"OBJECTID":366,"name":"株式会社RONGO","lon":139.75877460000001,"lat":35.658163600000002}},{"type":"Feature","id":367,"geometry":{"type":"Point","coordinates":[139.75929810000002,35.656717900000046]},"properties":{"OBJECTID":367,"name":"TieSet Asia株式会社","lon":139.7592981,"lat":35.656717899999997}},{"type":"Feature","id":368,"geometry":{"type":"Point","coordinates":[139.76015730000006,35.650259900000037]},"properties":{"OBJECTID":368,"name":"株式会社GUC","lon":139.7601573,"lat":35.650259900000002}},{"type":"Feature","id":369,"geometry":{"type":"Point","coordinates":[139.75979720000009,35.654603800000075]},"properties":{"OBJECTID":369,"name":"株式会社RESTA","lon":139.75979720000001,"lat":35.654603799999997}},{"type":"Feature","id":370,"geometry":{"type":"Point","coordinates":[139.76169390000007,35.655855700000075]},"properties":{"OBJECTID":370,"name":"株式会社NJS","lon":139.76169390000001,"lat":35.655855699999996}},{"type":"Feature","id":371,"geometry":{"type":"Point","coordinates":[139.7592929000001,35.656710300000043]},"properties":{"OBJECTID":371,"name":"レジエンス株式会社","lon":139.75929289999999,"lat":35.6567103}},{"type":"Feature","id":372,"geometry":{"type":"Point","coordinates":[139.7592929000001,35.656710300000043]},"properties":{"OBJECTID":372,"name":"株式会社one building","lon":139.75929289999999,"lat":35.6567103}},{"type":"Feature","id":373,"geometry":{"type":"Point","coordinates":[139.75976540000011,35.654621500000076]},"properties":{"OBJECTID":373,"name":"株式会社LIXVE","lon":139.75976539999999,"lat":35.654621499999998}},{"type":"Feature","id":374,"geometry":{"type":"Point","coordinates":[139.7592929000001,35.656710300000043]},"properties":{"OBJECTID":374,"name":"ソレイジア・ファーマ株式会社","lon":139.75929289999999,"lat":35.6567103}},{"type":"Feature","id":375,"geometry":{"type":"Point","coordinates":[139.7592929000001,35.656710300000043]},"properties":{"OBJECTID":375,"name":"スターフリートリサイクル株式会社","lon":139.75929289999999,"lat":35.6567103}},{"type":"Feature","id":376,"geometry":{"type":"Point","coordinates":[139.75976540000011,35.654621500000076]},"properties":{"OBJECTID":376,"name":"株式会社BACKSTAGE","lon":139.75976539999999,"lat":35.654621499999998}},{"type":"Feature","id":377,"geometry":{"type":"Point","coordinates":[139.7592929000001,35.656710300000043]},"properties":{"OBJECTID":377,"name":"DemandMarkets株式会社","lon":139.75929289999999,"lat":35.6567103}},{"type":"Feature","id":378,"geometry":{"type":"Point","coordinates":[139.7592929000001,35.656710300000043]},"properties":{"OBJECTID":378,"name":"株式会社MiKuTAY","lon":139.75929289999999,"lat":35.6567103}},{"type":"Feature","id":379,"geometry":{"type":"Point","coordinates":[139.7592929000001,35.656710300000043]},"properties":{"OBJECTID":379,"name":"N.A.gene株式会社","lon":139.75929289999999,"lat":35.6567103}},{"type":"Feature","id":380,"geometry":{"type":"Point","coordinates":[139.75976540000011,35.654621500000076]},"properties":{"OBJECTID":380,"name":"株式会社Merone","lon":139.75976539999999,"lat":35.654621499999998}},{"type":"Feature","id":381,"geometry":{"type":"Point","coordinates":[139.76382000000001,35.655797300000074]},"properties":{"OBJECTID":381,"name":"ヴィスコ・テクノロジーズ株式会社","lon":139.76382000000001,"lat":35.655797300000003}},{"type":"Feature","id":382,"geometry":{"type":"Point","coordinates":[139.76221300000009,35.655123600000024]},"properties":{"OBJECTID":382,"name":"グローバルキッチン株式会社","lon":139.762213,"lat":35.655123600000003}},{"type":"Feature","id":383,"geometry":{"type":"Point","coordinates":[139.75979720000009,35.654603800000075]},"properties":{"OBJECTID":383,"name":"株式会社Greenphard Energy","lon":139.75979720000001,"lat":35.654603799999997}},{"type":"Feature","id":384,"geometry":{"type":"Point","coordinates":[139.7592929000001,35.656710300000043]},"properties":{"OBJECTID":384,"name":"株式会社ビットジャーニー","lon":139.75929289999999,"lat":35.6567103}},{"type":"Feature","id":385,"geometry":{"type":"Point","coordinates":[139.76221300000009,35.655123600000024]},"properties":{"OBJECTID":385,"name":"グローバルキッチン株式会社","lon":139.762213,"lat":35.655123600000003}},{"type":"Feature","id":386,"geometry":{"type":"Point","coordinates":[139.75979720000009,35.654603800000075]},"properties":{"OBJECTID":386,"name":"株式会社Greenphard Energy","lon":139.75979720000001,"lat":35.654603799999997}},{"type":"Feature","id":387,"geometry":{"type":"Point","coordinates":[139.7592929000001,35.656710300000043]},"properties":{"OBJECTID":387,"name":"株式会社ビットジャーニー","lon":139.75929289999999,"lat":35.6567103}},{"type":"Feature","id":388,"geometry":{"type":"Point","coordinates":[139.7592929000001,35.656710300000043]},"properties":{"OBJECTID":388,"name":"ビジコネット株式会社","lon":139.75929289999999,"lat":35.6567103}},{"type":"Feature","id":389,"geometry":{"type":"Point","coordinates":[139.75976540000011,35.654621500000076]},"properties":{"OBJECTID":389,"name":"株式会社まーけっち","lon":139.75976539999999,"lat":35.654621499999998}},{"type":"Feature","id":390,"geometry":{"type":"Point","coordinates":[139.75976540000011,35.654621500000076]},"properties":{"OBJECTID":390,"name":"株式会社SmartThanks","lon":139.75976539999999,"lat":35.654621499999998}},{"type":"Feature","id":391,"geometry":{"type":"Point","coordinates":[139.76221300000009,35.655123600000024]},"properties":{"OBJECTID":391,"name":"ユニバーサル・サウンドデザイン株式会社","lon":139.762213,"lat":35.655123600000003}},{"type":"Feature","id":392,"geometry":{"type":"Point","coordinates":[139.75863700000002,35.657205800000042]},"properties":{"OBJECTID":392,"name":"株式会社FLIGHT TIME","lon":139.75863699999999,"lat":35.6572058}},{"type":"Feature","id":393,"geometry":{"type":"Point","coordinates":[139.76098800000011,35.653757000000041]},"properties":{"OBJECTID":393,"name":"アートグリーン株式会社","lon":139.760988,"lat":35.653756999999999}},{"type":"Feature","id":394,"geometry":{"type":"Point","coordinates":[139.75863700000002,35.657205800000042]},"properties":{"OBJECTID":394,"name":"株式会社バイタルエリア","lon":139.75863699999999,"lat":35.6572058}},{"type":"Feature","id":395,"geometry":{"type":"Point","coordinates":[139.76141440000004,35.655592900000045]},"properties":{"OBJECTID":395,"name":"ゼファー株式会社","lon":139.76141440000001,"lat":35.655592900000002}},{"type":"Feature","id":396,"geometry":{"type":"Point","coordinates":[139.76382000000001,35.655797300000074]},"properties":{"OBJECTID":396,"name":"株式会社ネイリー","lon":139.76382000000001,"lat":35.655797300000003}},{"type":"Feature","id":397,"geometry":{"type":"Point","coordinates":[139.76382000000001,35.655797300000074]},"properties":{"OBJECTID":397,"name":"C2C Platform株式会社","lon":139.76382000000001,"lat":35.655797300000003}},{"type":"Feature","id":398,"geometry":{"type":"Point","coordinates":[139.75863700000002,35.657205800000042]},"properties":{"OBJECTID":398,"name":"株式会社クリーンプラネット","lon":139.75863699999999,"lat":35.6572058}},{"type":"Feature","id":399,"geometry":{"type":"Point","coordinates":[139.75863700000002,35.657205800000042]},"properties":{"OBJECTID":399,"name":"株式会社SPARKLINKS.","lon":139.75863699999999,"lat":35.6572058}},{"type":"Feature","id":400,"geometry":{"type":"Point","coordinates":[139.76065270000004,35.655315200000075]},"properties":{"OBJECTID":400,"name":"株式会社between the arts","lon":139.76065270000001,"lat":35.655315199999997}},{"type":"Feature","id":401,"geometry":{"type":"Point","coordinates":[139.76065270000004,35.655315200000075]},"properties":{"OBJECTID":401,"name":"株式会社between the arts","lon":139.76065270000001,"lat":35.655315199999997}},{"type":"Feature","id":402,"geometry":{"type":"Point","coordinates":[139.76065270000004,35.655315200000075]},"properties":{"OBJECTID":402,"name":"株式会社JIRAN JAPAN","lon":139.76065270000001,"lat":35.655315199999997}},{"type":"Feature","id":403,"geometry":{"type":"Point","coordinates":[139.76065270000004,35.655315200000075]},"properties":{"OBJECTID":403,"name":"株式会社JIRAN JAPAN","lon":139.76065270000001,"lat":35.655315199999997}},{"type":"Feature","id":404,"geometry":{"type":"Point","coordinates":[139.76099860000011,35.65456400000005]},"properties":{"OBJECTID":404,"name":"VoicePing株式会社","lon":139.76099859999999,"lat":35.654564000000001}},{"type":"Feature","id":405,"geometry":{"type":"Point","coordinates":[139.76066990000004,35.655214300000068]},"properties":{"OBJECTID":405,"name":"Tabist株式会社","lon":139.76066990000001,"lat":35.655214299999997}},{"type":"Feature","id":406,"geometry":{"type":"Point","coordinates":[139.7616435000001,35.654386000000045]},"properties":{"OBJECTID":406,"name":"株式会社デジタルえほん","lon":139.76164349999999,"lat":35.654386000000002}},{"type":"Feature","id":407,"geometry":{"type":"Point","coordinates":[139.76066990000004,35.655214300000068]},"properties":{"OBJECTID":407,"name":"株式会社AGI","lon":139.76066990000001,"lat":35.655214299999997}},{"type":"Feature","id":408,"geometry":{"type":"Point","coordinates":[139.76066990000004,35.655214300000068]},"properties":{"OBJECTID":408,"name":"conect.plus株式会社","lon":139.76066990000001,"lat":35.655214299999997}},{"type":"Feature","id":409,"geometry":{"type":"Point","coordinates":[139.76076890000002,35.655153000000041]},"properties":{"OBJECTID":409,"name":"株式会社アップストリーム・インフィニティ","lon":139.76076889999999,"lat":35.655152999999999}},{"type":"Feature","id":410,"geometry":{"type":"Point","coordinates":[139.76065270000004,35.655315200000075]},"properties":{"OBJECTID":410,"name":"株式会社ObotAI","lon":139.76065270000001,"lat":35.655315199999997}},{"type":"Feature","id":411,"geometry":{"type":"Point","coordinates":[139.76066990000004,35.655214300000068]},"properties":{"OBJECTID":411,"name":"MICEプラットフォーム株式会社","lon":139.76066990000001,"lat":35.655214299999997}},{"type":"Feature","id":412,"geometry":{"type":"Point","coordinates":[139.76066990000004,35.655214300000068]},"properties":{"OBJECTID":412,"name":"OpenStreet株式会社","lon":139.76066990000001,"lat":35.655214299999997}},{"type":"Feature","id":413,"geometry":{"type":"Point","coordinates":[139.76066990000004,35.655214300000068]},"properties":{"OBJECTID":413,"name":"KINIX株式会社","lon":139.76066990000001,"lat":35.655214299999997}},{"type":"Feature","id":414,"geometry":{"type":"Point","coordinates":[139.75822530000005,35.649647500000071]},"properties":{"OBJECTID":414,"name":"株式会社インターディメンションズ","lon":139.75822529999999,"lat":35.6496475}},{"type":"Feature","id":415,"geometry":{"type":"Point","coordinates":[139.75877340000011,35.649251600000071]},"properties":{"OBJECTID":415,"name":"株式会社スマートファインドエージェント","lon":139.7587734,"lat":35.649251599999999}},{"type":"Feature","id":416,"geometry":{"type":"Point","coordinates":[139.75832510000009,35.649813100000074]},"properties":{"OBJECTID":416,"name":"株式会社スプレッドワン","lon":139.75832510000001,"lat":35.649813100000003}},{"type":"Feature","id":417,"geometry":{"type":"Point","coordinates":[139.7586093000001,35.650351300000068]},"properties":{"OBJECTID":417,"name":"株式会社オルガロ","lon":139.75860929999999,"lat":35.650351299999997}},{"type":"Feature","id":418,"geometry":{"type":"Point","coordinates":[139.75908850000008,35.649879600000077]},"properties":{"OBJECTID":418,"name":"AGBIOTECH株式会社","lon":139.75908849999999,"lat":35.649879599999998}},{"type":"Feature","id":419,"geometry":{"type":"Point","coordinates":[139.75885890000006,35.650908800000025]},"properties":{"OBJECTID":419,"name":"株式会社アイジェット","lon":139.75885890000001,"lat":35.650908800000003}},{"type":"Feature","id":420,"geometry":{"type":"Point","coordinates":[139.75398770000004,35.638622400000031]},"properties":{"OBJECTID":420,"name":"HPCシステムズ株式会社","lon":139.75398770000001,"lat":35.638622400000003}},{"type":"Feature","id":421,"geometry":{"type":"Point","coordinates":[139.75861930000008,35.645215300000075]},"properties":{"OBJECTID":421,"name":"株式会社プラネット","lon":139.75861929999999,"lat":35.645215299999997}},{"type":"Feature","id":422,"geometry":{"type":"Point","coordinates":[139.75550490000012,35.644110600000033]},"properties":{"OBJECTID":422,"name":"株式会社アンダースタンド","lon":139.75550490000001,"lat":35.644110599999998}},{"type":"Feature","id":423,"geometry":{"type":"Point","coordinates":[139.75241060000008,35.636393400000031]},"properties":{"OBJECTID":423,"name":"RFアーキテクチャ株式会社","lon":139.75241059999999,"lat":35.636393400000003}},{"type":"Feature","id":424,"geometry":{"type":"Point","coordinates":[139.75550490000012,35.644110600000033]},"properties":{"OBJECTID":424,"name":"株式会社アンダースタンド","lon":139.75550490000001,"lat":35.644110599999998}},{"type":"Feature","id":425,"geometry":{"type":"Point","coordinates":[139.75241060000008,35.636393400000031]},"properties":{"OBJECTID":425,"name":"RFアーキテクチャ株式会社","lon":139.75241059999999,"lat":35.636393400000003}},{"type":"Feature","id":426,"geometry":{"type":"Point","coordinates":[139.75155220000011,35.636462000000051]},"properties":{"OBJECTID":426,"name":"株式会社アシスト","lon":139.75155219999999,"lat":35.636462000000002}},{"type":"Feature","id":427,"geometry":{"type":"Point","coordinates":[139.81756410000003,35.682079800000054]},"properties":{"OBJECTID":427,"name":"株式会社polygros","lon":139.8175641,"lat":35.682079799999997}},{"type":"Feature","id":428,"geometry":{"type":"Point","coordinates":[139.77087880000011,35.700029100000052]},"properties":{"OBJECTID":428,"name":"株式会社Kaspersky Labs Japan","lon":139.77087879999999,"lat":35.700029100000002}},{"type":"Feature","id":429,"geometry":{"type":"Point","coordinates":[139.77091880000012,35.699507100000062]},"properties":{"OBJECTID":429,"name":"株式会社ハイパー","lon":139.7709188,"lat":35.699507099999998}},{"type":"Feature","id":430,"geometry":{"type":"Point","coordinates":[139.76982050000004,35.698475100000053]},"properties":{"OBJECTID":430,"name":"水域環境情報基盤株式会社","lon":139.76982050000001,"lat":35.698475100000003}},{"type":"Feature","id":431,"geometry":{"type":"Point","coordinates":[139.77200420000008,35.699206700000047]},"properties":{"OBJECTID":431,"name":"株式会社アイシーズ","lon":139.7720042,"lat":35.699206699999998}},{"type":"Feature","id":432,"geometry":{"type":"Point","coordinates":[139.77200420000008,35.699206700000047]},"properties":{"OBJECTID":432,"name":"株式会社アイシーズ","lon":139.7720042,"lat":35.699206699999998}},{"type":"Feature","id":433,"geometry":{"type":"Point","coordinates":[139.77200420000008,35.699206700000047]},"properties":{"OBJECTID":433,"name":"エコ・トラスト・ジャパン株式会社","lon":139.7720042,"lat":35.699206699999998}},{"type":"Feature","id":434,"geometry":{"type":"Point","coordinates":[139.76996580000002,35.699197500000025]},"properties":{"OBJECTID":434,"name":"Gatebox株式会社","lon":139.76996579999999,"lat":35.699197499999997}},{"type":"Feature","id":435,"geometry":{"type":"Point","coordinates":[139.77209620000008,35.698813700000073]},"properties":{"OBJECTID":435,"name":"株式会社SoLabo","lon":139.77209619999999,"lat":35.698813700000002}},{"type":"Feature","id":436,"geometry":{"type":"Point","coordinates":[139.7682817000001,35.702339900000027]},"properties":{"OBJECTID":436,"name":"日本ライトン株式会社","lon":139.76828169999999,"lat":35.702339899999998}},{"type":"Feature","id":437,"geometry":{"type":"Point","coordinates":[139.76698510000006,35.699526000000048]},"properties":{"OBJECTID":437,"name":"カンダロボティクス","lon":139.7669851,"lat":35.699525999999999}},{"type":"Feature","id":438,"geometry":{"type":"Point","coordinates":[139.76726460000009,35.701108500000032]},"properties":{"OBJECTID":438,"name":"とまれる株式会社","lon":139.7672646,"lat":35.701108499999997}},{"type":"Feature","id":439,"geometry":{"type":"Point","coordinates":[139.76726460000009,35.701108500000032]},"properties":{"OBJECTID":439,"name":"株式会社ビズライト・テクノロジー","lon":139.7672646,"lat":35.701108499999997}},{"type":"Feature","id":440,"geometry":{"type":"Point","coordinates":[139.76875220000011,35.700638000000026]},"properties":{"OBJECTID":440,"name":"株式会社BLOCK9","lon":139.76875219999999,"lat":35.700637999999998}},{"type":"Feature","id":441,"geometry":{"type":"Point","coordinates":[139.76875220000011,35.700638000000026]},"properties":{"OBJECTID":441,"name":"株式会社BLOCK9","lon":139.76875219999999,"lat":35.700637999999998}},{"type":"Feature","id":442,"geometry":{"type":"Point","coordinates":[139.76906170000007,35.702223400000037]},"properties":{"OBJECTID":442,"name":"株式会社プライバシーテック","lon":139.76906170000001,"lat":35.702223400000001}},{"type":"Feature","id":443,"geometry":{"type":"Point","coordinates":[139.76698510000006,35.699526000000048]},"properties":{"OBJECTID":443,"name":"オチュア株式会社","lon":139.7669851,"lat":35.699525999999999}},{"type":"Feature","id":444,"geometry":{"type":"Point","coordinates":[139.76906170000007,35.702223400000037]},"properties":{"OBJECTID":444,"name":"Cranebio株式会社","lon":139.76906170000001,"lat":35.702223400000001}},{"type":"Feature","id":445,"geometry":{"type":"Point","coordinates":[139.76748420000001,35.701214500000049]},"properties":{"OBJECTID":445,"name":"株式会社wap","lon":139.76748420000001,"lat":35.701214499999999}},{"type":"Feature","id":446,"geometry":{"type":"Point","coordinates":[139.76906170000007,35.702223400000037]},"properties":{"OBJECTID":446,"name":"Cranebio株式会社","lon":139.76906170000001,"lat":35.702223400000001}},{"type":"Feature","id":447,"geometry":{"type":"Point","coordinates":[139.76838140000007,35.70100780000007]},"properties":{"OBJECTID":447,"name":"Eagle株式会社","lon":139.76838140000001,"lat":35.701007799999999}},{"type":"Feature","id":448,"geometry":{"type":"Point","coordinates":[139.76774380000006,35.699579200000073]},"properties":{"OBJECTID":448,"name":"株式会社レボコミュニティ","lon":139.76774380000001,"lat":35.699579200000002}},{"type":"Feature","id":449,"geometry":{"type":"Point","coordinates":[139.76838140000007,35.70100780000007]},"properties":{"OBJECTID":449,"name":"Eagle株式会社","lon":139.76838140000001,"lat":35.701007799999999}},{"type":"Feature","id":450,"geometry":{"type":"Point","coordinates":[139.76918150000006,35.702163900000073]},"properties":{"OBJECTID":450,"name":"株式会社カエカ","lon":139.7691815,"lat":35.702163900000002}},{"type":"Feature","id":451,"geometry":{"type":"Point","coordinates":[139.76884210000003,35.699607000000071]},"properties":{"OBJECTID":451,"name":"株式会社やまと","lon":139.7688421,"lat":35.699607}},{"type":"Feature","id":452,"geometry":{"type":"Point","coordinates":[139.76913210000009,35.702429500000051]},"properties":{"OBJECTID":452,"name":"株式会社エバーグリーン","lon":139.76913210000001,"lat":35.702429500000001}},{"type":"Feature","id":453,"geometry":{"type":"Point","coordinates":[139.76913210000009,35.702429500000051]},"properties":{"OBJECTID":453,"name":"ガラポン株式会社","lon":139.76913210000001,"lat":35.702429500000001}},{"type":"Feature","id":454,"geometry":{"type":"Point","coordinates":[139.76901180000004,35.700885500000027]},"properties":{"OBJECTID":454,"name":"株式会社シーマ・ラボラトリー","lon":139.76901179999999,"lat":35.700885499999998}},{"type":"Feature","id":455,"geometry":{"type":"Point","coordinates":[139.77066510000009,35.701646900000071]},"properties":{"OBJECTID":455,"name":"株式会社丸三電機","lon":139.7706651,"lat":35.7016469}},{"type":"Feature","id":456,"geometry":{"type":"Point","coordinates":[139.77066510000009,35.701646900000071]},"properties":{"OBJECTID":456,"name":"株式会社丸三電機","lon":139.7706651,"lat":35.7016469}},{"type":"Feature","id":457,"geometry":{"type":"Point","coordinates":[139.77002020000009,35.70275120000008]},"properties":{"OBJECTID":457,"name":"株式会社リーテム","lon":139.7700202,"lat":35.702751200000002}},{"type":"Feature","id":458,"geometry":{"type":"Point","coordinates":[139.77107850000004,35.701003400000047]},"properties":{"OBJECTID":458,"name":"株式会社ソフマップ","lon":139.77107849999999,"lat":35.701003399999998}},{"type":"Feature","id":459,"geometry":{"type":"Point","coordinates":[139.77123830000005,35.702504300000044]},"properties":{"OBJECTID":459,"name":"株式会社グッドスマイルカンパニー","lon":139.77123829999999,"lat":35.702504300000001}},{"type":"Feature","id":460,"geometry":{"type":"Point","coordinates":[139.7697217000001,35.700033100000041]},"properties":{"OBJECTID":460,"name":"株式会社ガルチ","lon":139.76972169999999,"lat":35.700033099999999}},{"type":"Feature","id":461,"geometry":{"type":"Point","coordinates":[139.76972070000011,35.700748300000043]},"properties":{"OBJECTID":461,"name":"株式会社ブロック","lon":139.76972069999999,"lat":35.700748300000001}},{"type":"Feature","id":462,"geometry":{"type":"Point","coordinates":[139.77002120000009,35.700207000000034]},"properties":{"OBJECTID":462,"name":"株式会社ビズリード","lon":139.7700212,"lat":35.700206999999999}},{"type":"Feature","id":463,"geometry":{"type":"Point","coordinates":[139.77002120000009,35.700207000000034]},"properties":{"OBJECTID":463,"name":"株式会社ビズリード","lon":139.7700212,"lat":35.700206999999999}},{"type":"Feature","id":464,"geometry":{"type":"Point","coordinates":[139.77066510000009,35.701646900000071]},"properties":{"OBJECTID":464,"name":"株式会社アールティ","lon":139.7706651,"lat":35.7016469}},{"type":"Feature","id":465,"geometry":{"type":"Point","coordinates":[139.76972070000011,35.700748300000043]},"properties":{"OBJECTID":465,"name":"MAMORIO株式会社","lon":139.76972069999999,"lat":35.700748300000001}},{"type":"Feature","id":466,"geometry":{"type":"Point","coordinates":[139.77110330000005,35.701177900000062]},"properties":{"OBJECTID":466,"name":"株式会社サインウェーブ","lon":139.77110329999999,"lat":35.701177899999998}},{"type":"Feature","id":467,"geometry":{"type":"Point","coordinates":[139.77061890000004,35.701280700000041]},"properties":{"OBJECTID":467,"name":"株式会社ネットカムシステムズ","lon":139.77061889999999,"lat":35.701280699999998}},{"type":"Feature","id":468,"geometry":{"type":"Point","coordinates":[139.77123830000005,35.702504300000044]},"properties":{"OBJECTID":468,"name":"株式会社イクストル","lon":139.77123829999999,"lat":35.702504300000001}},{"type":"Feature","id":469,"geometry":{"type":"Point","coordinates":[139.77098930000011,35.700435900000059]},"properties":{"OBJECTID":469,"name":"株式会社Sozi","lon":139.7709893,"lat":35.700435900000002}},{"type":"Feature","id":470,"geometry":{"type":"Point","coordinates":[139.77098930000011,35.700435900000059]},"properties":{"OBJECTID":470,"name":"WOODMAN株式会社","lon":139.7709893,"lat":35.700435900000002}},{"type":"Feature","id":471,"geometry":{"type":"Point","coordinates":[139.77087880000011,35.700029100000052]},"properties":{"OBJECTID":471,"name":"anew合同会社","lon":139.77087879999999,"lat":35.700029100000002}},{"type":"Feature","id":472,"geometry":{"type":"Point","coordinates":[139.76972070000011,35.702684900000065]},"properties":{"OBJECTID":472,"name":"株式会社アセンシャス","lon":139.76972069999999,"lat":35.702684900000001}},{"type":"Feature","id":473,"geometry":{"type":"Point","coordinates":[139.77123830000005,35.702504300000044]},"properties":{"OBJECTID":473,"name":"有限会社未来検索ブラジル","lon":139.77123829999999,"lat":35.702504300000001}},{"type":"Feature","id":474,"geometry":{"type":"Point","coordinates":[139.77061890000004,35.701280700000041]},"properties":{"OBJECTID":474,"name":"株式会社セントリックス","lon":139.77061889999999,"lat":35.701280699999998}},{"type":"Feature","id":475,"geometry":{"type":"Point","coordinates":[139.77061890000004,35.701280700000041]},"properties":{"OBJECTID":475,"name":"株式会社セントリックス","lon":139.77061889999999,"lat":35.701280699999998}},{"type":"Feature","id":476,"geometry":{"type":"Point","coordinates":[139.77264520000006,35.700493900000026]},"properties":{"OBJECTID":476,"name":"勤次郎株式会社","lon":139.7726452,"lat":35.700493899999998}},{"type":"Feature","id":477,"geometry":{"type":"Point","coordinates":[139.77252740000006,35.702154300000075]},"properties":{"OBJECTID":477,"name":"PreMed株式会社","lon":139.7725274,"lat":35.702154299999997}},{"type":"Feature","id":478,"geometry":{"type":"Point","coordinates":[139.77264520000006,35.700493900000026]},"properties":{"OBJECTID":478,"name":"ベース株式会社","lon":139.7726452,"lat":35.700493899999998}},{"type":"Feature","id":479,"geometry":{"type":"Point","coordinates":[139.77264520000006,35.700493900000026]},"properties":{"OBJECTID":479,"name":"ベース株式会社","lon":139.7726452,"lat":35.700493899999998}},{"type":"Feature","id":480,"geometry":{"type":"Point","coordinates":[139.77264520000006,35.700493900000026]},"properties":{"OBJECTID":480,"name":"勤次郎株式会社","lon":139.7726452,"lat":35.700493899999998}},{"type":"Feature","id":481,"geometry":{"type":"Point","coordinates":[139.77252740000006,35.702154300000075]},"properties":{"OBJECTID":481,"name":"PreMed株式会社","lon":139.7725274,"lat":35.702154299999997}},{"type":"Feature","id":482,"geometry":{"type":"Point","coordinates":[139.77264520000006,35.700493900000026]},"properties":{"OBJECTID":482,"name":"株式会社f4samurai","lon":139.7726452,"lat":35.700493899999998}},{"type":"Feature","id":483,"geometry":{"type":"Point","coordinates":[139.7724300000001,35.702139000000045]},"properties":{"OBJECTID":483,"name":"Dtto株式会社","lon":139.77243000000001,"lat":35.702139000000003}},{"type":"Feature","id":484,"geometry":{"type":"Point","coordinates":[139.77199310000003,35.703272500000026]},"properties":{"OBJECTID":484,"name":"ascent株式会社","lon":139.7719931,"lat":35.703272499999997}},